{"keyword":"保健","data":[{"name":"北ノ山保育園","province":"東京都","city":"大島町","address":"大島町元町字地の岡65-10","lat":34.774697,"lon":139.36173},{"name":"元町保育園","province":"東京都","city":"大島町","address":"大島町元町字長沢344-1","lat":34.754052,"lon":139.361297},{"name":"岡田保育園","province":"東京都","city":"大島町","address":"大島町岡田字小堀73-1","lat":34.787152,"lon":139.3802},{"name":"差木地保育園","province":"東京都","city":"大島町","address":"大島町差木地2","lat":34.688425,"lon":139.403019},{"name":"波浮保育園","province":"東京都","city":"大島町","address":"大島町波浮港17","lat":34.694188,"lon":139.44046},{"name":"大島藤倉学園","province":"東京都","city":"大島町","address":"大島町元町字馬の背128","lat":34.763757,"lon":139.360686},{"name":"大島恵の園","province":"東京都","city":"大島町","address":"大島町差木地1","lat":34.690608,"lon":139.420234},{"name":"第２大島恵の園","province":"東京都","city":"大島町","address":"大島町差木地1","lat":34.690608,"lon":139.420234},{"name":"島しょ保健所大島出張所","province":"東京都","city":"大島町","address":"大島町元町字馬の背275-4","lat":34.756841,"lon":139.358125},{"name":"大島町けんこうセンター","province":"東京都","city":"大島町","address":"大島町岡田字沢立111-1","lat":34.782708,"lon":139.382367},{"name":"東京都大島支庁舎","province":"東京都","city":"大島町","address":"東京都大島町元町","lat":34.757454,"lon":139.357449},{"name":"大島公園椿園","province":"東京都","city":"大島町","address":"東京都大島町泉津","lat":34.763817,"lon":139.432882},{"name":"大島公園椿園","province":"東京都","city":"大島町","address":"東京都大島町泉津","lat":34.762335,"lon":139.433199},{"name":"大島公園椿園","province":"東京都","city":"大島町","address":"東京都大島町泉津","lat":34.762084,"lon":139.434043},{"name":"大島公園椿園","province":"東京都","city":"大島町","address":"東京都大島町泉津","lat":34.762193,"lon":139.434251},{"name":"海のふるさと村","province":"東京都","city":"大島町","address":"東京都大島町泉津","lat":34.744533,"lon":139.445267},{"name":"オタイネ浜園地","province":"東京都","city":"大島町","address":"東京都大島町波浮港","lat":34.701997,"lon":139.44438},{"name":"大島仲の原園地","province":"東京都","city":"大島町","address":"東京都大島町元町","lat":34.757134,"lon":139.351232},{"name":"大島泉浜園地","province":"東京都","city":"大島町","address":"東京都大島町元町","lat":34.767026,"lon":139.351608},{"name":"大島野田浜園地","province":"東京都","city":"大島町","address":"東京都大島町岡田","lat":34.796111,"lon":139.361255},{"name":"大島公園動物園","province":"東京都","city":"大島町","address":"東京都大島町泉津","lat":34.760698,"lon":139.435405},{"name":"大島御神火茶屋園地","province":"東京都","city":"大島町","address":"東京都大島町野増","lat":34.73772,"lon":139.379782},{"name":"大島御神火茶屋園地","province":"東京都","city":"大島町","address":"東京都大島町野増","lat":34.737821,"lon":139.380277},{"name":"大島公園動物園","province":"東京都","city":"大島町","address":"東京都大島町泉津","lat":34.761394,"lon":139.434495},{"name":"ヨウゴシ岬園地","province":"東京都","city":"大島町","address":"東京都大島町岡田","lat":34.786873,"lon":139.401554},{"name":"トウシキ野営場","province":"東京都","city":"大島町","address":"東京都大島町差木地","lat":34.681259,"lon":139.429782},{"name":"椿公園","province":"東京都","city":"大島町","address":"東京都大島町元町","lat":34.737595,"lon":139.358467},{"name":"メモリアル公園管理棟","province":"東京都","city":"大島町","address":"東京都大島町元町","lat":34.74549,"lon":139.365363},{"name":"野田浜園地公衆便所","province":"東京都","city":"大島町","address":"東京都大島町岡田","lat":34.79612,"lon":139.361269},{"name":"仲の原園地","province":"東京都","city":"大島町","address":"東京都大島町元町","lat":34.757134,"lon":139.351232},{"name":"オタイネ浜園地","province":"東京都","city":"大島町","address":"東京都大島町波浮港","lat":34.70201,"lon":139.444409},{"name":"波浮港鉄砲場","province":"東京都","city":"大島町","address":"東京都大島町波浮港","lat":34.686037,"lon":139.442721},{"name":"三原山展望避難休憩舎","province":"東京都","city":"大島町","address":"東京都大島町野増","lat":34.73839,"lon":139.380413},{"name":"弘法浜サンセットプール","province":"東京都","city":"大島町","address":"東京都大島町元町2丁目20","lat":34.745061,"lon":139.355535},{"name":"銅鏡","province":"東京都","city":"大島町","address":"東京都大島町野増字大宮","lat":34.733749,"lon":139.356854},{"name":"銅鏡","province":"東京都","city":"大島町","address":"東京都大島町元町字地の岡30-2","lat":34.773758,"lon":139.358314},{"name":"差木地の大クス","province":"東京都","city":"大島町","address":"東京都大島町差木地2","lat":34.688425,"lon":139.403019},{"name":"野増大宮のシイ樹叢","province":"東京都","city":"大島町","address":"東京都大島町野増字大宮","lat":34.733749,"lon":139.356854},{"name":"大島けんこうセンター","province":"東京都","city":"大島町","address":"東京都大島町岡田沢立（字）111-1","lat":34.78270795,"lon":139.38236697},{"name":"元町保育園","province":"東京都","city":"大島町","address":"大島町元町字丸塚547-1","lat":34.76086,"lon":139.37244},{"name":"北ノ山保育園","province":"東京都","city":"大島町","address":"大島町元町字地の岡65-10","lat":34.77338,"lon":139.35986},{"name":"岡田保育園","province":"東京都","city":"大島町","address":"大島町岡田字小堀73-1","lat":34.79184,"lon":139.37778},{"name":"波浮保育園","province":"東京都","city":"大島町","address":"大島町波浮港17","lat":34.6855,"lon":139.44073},{"name":"島しょ保健所大島出張所","province":"東京都","city":"大島町","address":"大島町元町字馬の背275-4","lat":34.75655,"lon":139.35907},{"name":"大島けんこうセンター","province":"東京都","city":"大島町","address":"大島町岡田字沢立111-1","lat":34.78303,"lon":139.38251},{"name":"波浮港福祉作業所","province":"東京都","city":"大島町","address":"東京都大島町差木地","lat":34.68312246,"lon":139.41394612},{"name":"大島けんこうセンター","province":"東京都","city":"大島町","address":"大島町岡田字沢立111-1","lat":34.782708,"lon":139.382367},{"name":"波浮保育園","province":"東京都","city":"大島町","address":"大島町波浮港17","lat":34.6855,"lon":139.44074},{"name":"元町保育園","province":"東京都","city":"大島町","address":"大島町元町字長沢344-1","lat":34.75058,"lon":139.35626},{"name":"大島町火葬場","province":"東京都","city":"大島町","address":"東京都大島町元町黒まま（字）352-3","lat":34.75322759,"lon":139.36510537},{"name":"大島のサクラ株","province":"東京都","city":"大島町","address":"東京都大島町泉津","lat":34.78307496,"lon":139.41375561},{"name":"カモシカ","province":"東京都","city":"大島町","address":"東京都大島町泉津","lat":34.78307496,"lon":139.41375561},{"name":"シイノキ山のシイノキ群叢","province":"東京都","city":"大島町","address":"東京都大島町泉津","lat":34.78307496,"lon":139.41375561},{"name":"大島海浜植物群落","province":"東京都","city":"大島町","address":"東京都大島町泉津","lat":34.78307496,"lon":139.41375561},{"name":"オジロワシ","province":"東京都","city":"大島町","address":"東京都大島町泉津","lat":34.78307496,"lon":139.41375561},{"name":"コクガン","province":"東京都","city":"大島町","address":"東京都大島町泉津","lat":34.78307496,"lon":139.41375561},{"name":"マガン","province":"東京都","city":"大島町","address":"東京都大島町泉津","lat":34.78307496,"lon":139.41375561},{"name":"鉄砲場の岩陰遺跡","province":"東京都","city":"大島町","address":"東京都大島町泉津","lat":34.78307496,"lon":139.41375561},{"name":"大島下高洞遺跡","province":"東京都","city":"大島町","address":"東京都大島町元町","lat":34.75069975,"lon":139.35458395},{"name":"大島竜の口遺跡","province":"東京都","city":"大島町","address":"東京都大島町野増","lat":34.73029943,"lon":139.35466575},{"name":"役行者窟","province":"東京都","city":"大島町","address":"東京都大島町泉津","lat":34.78307496,"lon":139.41375561},{"name":"秋広平六墓","province":"東京都","city":"大島町","address":"東京都大島町波浮港","lat":34.68677239,"lon":139.44189881},{"name":"差木地の大クス","province":"東京都","city":"大島町","address":"東京都大島町差木地","lat":34.68312246,"lon":139.41394612},{"name":"潮吹の鼻","province":"東京都","city":"大島町","address":"東京都大島町泉津","lat":34.78307496,"lon":139.41375561},{"name":"おたいね浦の岩脈と筆島","province":"東京都","city":"大島町","address":"東京都大島町波浮港","lat":34.68677239,"lon":139.44189881},{"name":"野増大宮神社の十二座神楽","province":"東京都","city":"大島町","address":"東京都大島町野増大宮上手（字）","lat":34.73296069,"lon":139.37116714},{"name":"カラスバト","province":"東京都","city":"大島町","address":"東京都大島町泉津","lat":34.78307496,"lon":139.41375561},{"name":"元町のハマンカー（南井戸）","province":"東京都","city":"大島町","address":"東京都大島町元町","lat":34.75069975,"lon":139.35458395},{"name":"赤穂義士　間瀬定八の墓","province":"東京都","city":"大島町","address":"東京都大島町元町","lat":34.75069975,"lon":139.35458395},{"name":"力士　大島伝吉の碑（勇鑑石とも）","province":"東京都","city":"大島町","address":"東京都大島町岡田","lat":34.78878237,"lon":139.39285739},{"name":"粟本佐次朗記念碑（テリコの碑）","province":"東京都","city":"大島町","address":"東京都大島町岡田","lat":34.78878237,"lon":139.39285739},{"name":"波浮港開港碑","province":"東京都","city":"大島町","address":"東京都大島町波浮港","lat":34.68677239,"lon":139.44189881},{"name":"大島町役場","province":"東京都","city":"大島町","address":"東京都大島町元町1-1-14","lat":34.7502,"lon":139.35515},{"name":"大島町野増清掃工場","province":"東京都","city":"大島町","address":"大島町野増字クヅアラ638-1","lat":34.715286,"lon":139.357788},{"name":"北ノ山保育園","province":"東京都","city":"大島町","address":"大島町元町字地の岡65-10","lat":34.774697,"lon":139.36173},{"name":"元町保育園","province":"東京都","city":"大島町","address":"大島町元町字長沢344-1","lat":34.754052,"lon":139.361297},{"name":"岡田保育園","province":"東京都","city":"大島町","address":"大島町岡田字小堀73-1","lat":34.787152,"lon":139.3802},{"name":"差木地保育園","province":"東京都","city":"大島町","address":"大島町差木地2","lat":34.688425,"lon":139.403019},{"name":"波浮保育園","province":"東京都","city":"大島町","address":"大島町波浮港17","lat":34.694188,"lon":139.44046},{"name":"島しょ保健所大島出張所","province":"東京都","city":"大島町","address":"大島町元町字馬の背275-4","lat":34.756841,"lon":139.358125},{"name":"銅鏡","province":"東京都","city":"大島町","address":"東京都大島町野増字大宮","lat":34.733749,"lon":139.356854},{"name":"銅鏡","province":"東京都","city":"大島町","address":"東京都大島町元町字地の岡30-2","lat":34.773758,"lon":139.358314},{"name":"差木地の大クス","province":"東京都","city":"大島町","address":"東京都大島町差木地2","lat":34.688425,"lon":139.403019},{"name":"野増大宮のシイ樹叢","province":"東京都","city":"大島町","address":"東京都大島町野増字大宮","lat":34.733749,"lon":139.356854},{"name":"元町保育園","province":"東京都","city":"大島町","address":"大島町元町字丸塚547-1","lat":34.76086,"lon":139.37244},{"name":"北ノ山保育園","province":"東京都","city":"大島町","address":"大島町元町字地の岡65-10","lat":34.77338,"lon":139.35986},{"name":"岡田保育園","province":"東京都","city":"大島町","address":"大島町岡田字小堀73-1","lat":34.79184,"lon":139.37778},{"name":"波浮保育園","province":"東京都","city":"大島町","address":"大島町波浮港17","lat":34.6855,"lon":139.44073},{"name":"島しょ保健所大島出張所","province":"東京都","city":"大島町","address":"大島町元町字馬の背275-4","lat":34.75655,"lon":139.35907},{"name":"波浮港福祉作業所","province":"東京都","city":"大島町","address":"東京都大島町差木地","lat":34.68312246,"lon":139.41394612},{"name":"波浮保育園","province":"東京都","city":"大島町","address":"大島町波浮港17","lat":34.6855,"lon":139.44074},{"name":"元町保育園","province":"東京都","city":"大島町","address":"大島町元町字長沢344-1","lat":34.75058,"lon":139.35626},{"name":"大島のサクラ株","province":"東京都","city":"大島町","address":"東京都大島町泉津","lat":34.78307496,"lon":139.41375561},{"name":"カモシカ","province":"東京都","city":"大島町","address":"東京都大島町泉津","lat":34.78307496,"lon":139.41375561},{"name":"シイノキ山のシイノキ群叢","province":"東京都","city":"大島町","address":"東京都大島町泉津","lat":34.78307496,"lon":139.41375561},{"name":"大島海浜植物群落","province":"東京都","city":"大島町","address":"東京都大島町泉津","lat":34.78307496,"lon":139.41375561},{"name":"オジロワシ","province":"東京都","city":"大島町","address":"東京都大島町泉津","lat":34.78307496,"lon":139.41375561},{"name":"コクガン","province":"東京都","city":"大島町","address":"東京都大島町泉津","lat":34.78307496,"lon":139.41375561},{"name":"マガン","province":"東京都","city":"大島町","address":"東京都大島町泉津","lat":34.78307496,"lon":139.41375561},{"name":"鉄砲場の岩陰遺跡","province":"東京都","city":"大島町","address":"東京都大島町泉津","lat":34.78307496,"lon":139.41375561},{"name":"大島下高洞遺跡","province":"東京都","city":"大島町","address":"東京都大島町元町","lat":34.75069975,"lon":139.35458395},{"name":"大島竜の口遺跡","province":"東京都","city":"大島町","address":"東京都大島町野増","lat":34.73029943,"lon":139.35466575},{"name":"役行者窟","province":"東京都","city":"大島町","address":"東京都大島町泉津","lat":34.78307496,"lon":139.41375561},{"name":"秋広平六墓","province":"東京都","city":"大島町","address":"東京都大島町波浮港","lat":34.68677239,"lon":139.44189881},{"name":"差木地の大クス","province":"東京都","city":"大島町","address":"東京都大島町差木地","lat":34.68312246,"lon":139.41394612},{"name":"潮吹の鼻","province":"東京都","city":"大島町","address":"東京都大島町泉津","lat":34.78307496,"lon":139.41375561},{"name":"おたいね浦の岩脈と筆島","province":"東京都","city":"大島町","address":"東京都大島町波浮港","lat":34.68677239,"lon":139.44189881},{"name":"野増大宮神社の十二座神楽","province":"東京都","city":"大島町","address":"東京都大島町野増大宮上手（字）","lat":34.73296069,"lon":139.37116714},{"name":"カラスバト","province":"東京都","city":"大島町","address":"東京都大島町泉津","lat":34.78307496,"lon":139.41375561},{"name":"元町のハマンカー（南井戸）","province":"東京都","city":"大島町","address":"東京都大島町元町","lat":34.75069975,"lon":139.35458395},{"name":"赤穂義士　間瀬定八の墓","province":"東京都","city":"大島町","address":"東京都大島町元町","lat":34.75069975,"lon":139.35458395},{"name":"力士　大島伝吉の碑（勇鑑石とも）","province":"東京都","city":"大島町","address":"東京都大島町岡田","lat":34.78878237,"lon":139.39285739},{"name":"粟本佐次朗記念碑（テリコの碑）","province":"東京都","city":"大島町","address":"東京都大島町岡田","lat":34.78878237,"lon":139.39285739},{"name":"波浮港開港碑","province":"東京都","city":"大島町","address":"東京都大島町波浮港","lat":34.68677239,"lon":139.44189881},{"name":"大島町役場","province":"東京都","city":"大島町","address":"東京都大島町元町1-1-14","lat":34.7502,"lon":139.35515},{"name":"北ノ山保育園","province":"東京都","city":"大島町","address":"大島町元町字地の岡65-10","lat":34.774697,"lon":139.36173},{"name":"元町保育園","province":"東京都","city":"大島町","address":"大島町元町字長沢344-1","lat":34.754052,"lon":139.361297},{"name":"岡田保育園","province":"東京都","city":"大島町","address":"大島町岡田字小堀73-1","lat":34.787152,"lon":139.3802},{"name":"差木地保育園","province":"東京都","city":"大島町","address":"大島町差木地2","lat":34.688425,"lon":139.403019},{"name":"波浮保育園","province":"東京都","city":"大島町","address":"大島町波浮港17","lat":34.694188,"lon":139.44046},{"name":"島しょ保健所大島出張所","province":"東京都","city":"大島町","address":"大島町元町字馬の背275-4","lat":34.756841,"lon":139.358125},{"name":"銅鏡","province":"東京都","city":"大島町","address":"東京都大島町野増字大宮","lat":34.733749,"lon":139.356854},{"name":"銅鏡","province":"東京都","city":"大島町","address":"東京都大島町元町字地の岡30-2","lat":34.773758,"lon":139.358314},{"name":"差木地の大クス","province":"東京都","city":"大島町","address":"東京都大島町差木地2","lat":34.688425,"lon":139.403019},{"name":"野増大宮のシイ樹叢","province":"東京都","city":"大島町","address":"東京都大島町野増字大宮","lat":34.733749,"lon":139.356854},{"name":"元町保育園","province":"東京都","city":"大島町","address":"大島町元町字丸塚547-1","lat":34.76086,"lon":139.37244},{"name":"北ノ山保育園","province":"東京都","city":"大島町","address":"大島町元町字地の岡65-10","lat":34.77338,"lon":139.35986},{"name":"岡田保育園","province":"東京都","city":"大島町","address":"大島町岡田字小堀73-1","lat":34.79184,"lon":139.37778},{"name":"波浮保育園","province":"東京都","city":"大島町","address":"大島町波浮港17","lat":34.6855,"lon":139.44073},{"name":"島しょ保健所大島出張所","province":"東京都","city":"大島町","address":"大島町元町字馬の背275-4","lat":34.75655,"lon":139.35907},{"name":"波浮港福祉作業所","province":"東京都","city":"大島町","address":"東京都大島町差木地","lat":34.68312246,"lon":139.41394612},{"name":"波浮保育園","province":"東京都","city":"大島町","address":"大島町波浮港17","lat":34.6855,"lon":139.44074},{"name":"元町保育園","province":"東京都","city":"大島町","address":"大島町元町字長沢344-1","lat":34.75058,"lon":139.35626},{"name":"大島のサクラ株","province":"東京都","city":"大島町","address":"東京都大島町泉津","lat":34.78307496,"lon":139.41375561},{"name":"カモシカ","province":"東京都","city":"大島町","address":"東京都大島町泉津","lat":34.78307496,"lon":139.41375561},{"name":"シイノキ山のシイノキ群叢","province":"東京都","city":"大島町","address":"東京都大島町泉津","lat":34.78307496,"lon":139.41375561},{"name":"大島海浜植物群落","province":"東京都","city":"大島町","address":"東京都大島町泉津","lat":34.78307496,"lon":139.41375561},{"name":"オジロワシ","province":"東京都","city":"大島町","address":"東京都大島町泉津","lat":34.78307496,"lon":139.41375561},{"name":"コクガン","province":"東京都","city":"大島町","address":"東京都大島町泉津","lat":34.78307496,"lon":139.41375561},{"name":"マガン","province":"東京都","city":"大島町","address":"東京都大島町泉津","lat":34.78307496,"lon":139.41375561},{"name":"鉄砲場の岩陰遺跡","province":"東京都","city":"大島町","address":"東京都大島町泉津","lat":34.78307496,"lon":139.41375561},{"name":"大島下高洞遺跡","province":"東京都","city":"大島町","address":"東京都大島町元町","lat":34.75069975,"lon":139.35458395},{"name":"大島竜の口遺跡","province":"東京都","city":"大島町","address":"東京都大島町野増","lat":34.73029943,"lon":139.35466575},{"name":"役行者窟","province":"東京都","city":"大島町","address":"東京都大島町泉津","lat":34.78307496,"lon":139.41375561},{"name":"秋広平六墓","province":"東京都","city":"大島町","address":"東京都大島町波浮港","lat":34.68677239,"lon":139.44189881},{"name":"差木地の大クス","province":"東京都","city":"大島町","address":"東京都大島町差木地","lat":34.68312246,"lon":139.41394612},{"name":"潮吹の鼻","province":"東京都","city":"大島町","address":"東京都大島町泉津","lat":34.78307496,"lon":139.41375561},{"name":"おたいね浦の岩脈と筆島","province":"東京都","city":"大島町","address":"東京都大島町波浮港","lat":34.68677239,"lon":139.44189881},{"name":"野増大宮神社の十二座神楽","province":"東京都","city":"大島町","address":"東京都大島町野増大宮上手（字）","lat":34.73296069,"lon":139.37116714},{"name":"カラスバト","province":"東京都","city":"大島町","address":"東京都大島町泉津","lat":34.78307496,"lon":139.41375561},{"name":"元町のハマンカー（南井戸）","province":"東京都","city":"大島町","address":"東京都大島町元町","lat":34.75069975,"lon":139.35458395},{"name":"赤穂義士　間瀬定八の墓","province":"東京都","city":"大島町","address":"東京都大島町元町","lat":34.75069975,"lon":139.35458395},{"name":"力士　大島伝吉の碑（勇鑑石とも）","province":"東京都","city":"大島町","address":"東京都大島町岡田","lat":34.78878237,"lon":139.39285739},{"name":"粟本佐次朗記念碑（テリコの碑）","province":"東京都","city":"大島町","address":"東京都大島町岡田","lat":34.78878237,"lon":139.39285739},{"name":"波浮港開港碑","province":"東京都","city":"大島町","address":"東京都大島町波浮港","lat":34.68677239,"lon":139.44189881},{"name":"北ノ山保育園","province":"東京都","city":"大島町","address":"大島町元町字地の岡65-10","lat":34.774697,"lon":139.36173},{"name":"元町保育園","province":"東京都","city":"大島町","address":"大島町元町字長沢344-1","lat":34.754052,"lon":139.361297},{"name":"岡田保育園","province":"東京都","city":"大島町","address":"大島町岡田字小堀73-1","lat":34.787152,"lon":139.3802},{"name":"差木地保育園","province":"東京都","city":"大島町","address":"大島町差木地2","lat":34.688425,"lon":139.403019},{"name":"波浮保育園","province":"東京都","city":"大島町","address":"大島町波浮港17","lat":34.694188,"lon":139.44046},{"name":"島しょ保健所大島出張所","province":"東京都","city":"大島町","address":"大島町元町字馬の背275-4","lat":34.756841,"lon":139.358125},{"name":"銅鏡","province":"東京都","city":"大島町","address":"東京都大島町野増字大宮","lat":34.733749,"lon":139.356854},{"name":"銅鏡","province":"東京都","city":"大島町","address":"東京都大島町元町字地の岡30-2","lat":34.773758,"lon":139.358314},{"name":"差木地の大クス","province":"東京都","city":"大島町","address":"東京都大島町差木地2","lat":34.688425,"lon":139.403019},{"name":"野増大宮のシイ樹叢","province":"東京都","city":"大島町","address":"東京都大島町野増字大宮","lat":34.733749,"lon":139.356854},{"name":"元町保育園","province":"東京都","city":"大島町","address":"大島町元町字丸塚547-1","lat":34.76086,"lon":139.37244},{"name":"北ノ山保育園","province":"東京都","city":"大島町","address":"大島町元町字地の岡65-10","lat":34.77338,"lon":139.35986},{"name":"岡田保育園","province":"東京都","city":"大島町","address":"大島町岡田字小堀73-1","lat":34.79184,"lon":139.37778},{"name":"波浮保育園","province":"東京都","city":"大島町","address":"大島町波浮港17","lat":34.6855,"lon":139.44073},{"name":"島しょ保健所大島出張所","province":"東京都","city":"大島町","address":"大島町元町字馬の背275-4","lat":34.75655,"lon":139.35907},{"name":"波浮港福祉作業所","province":"東京都","city":"大島町","address":"東京都大島町差木地","lat":34.68312246,"lon":139.41394612},{"name":"波浮保育園","province":"東京都","city":"大島町","address":"大島町波浮港17","lat":34.6855,"lon":139.44074},{"name":"元町保育園","province":"東京都","city":"大島町","address":"大島町元町字長沢344-1","lat":34.75058,"lon":139.35626},{"name":"大島のサクラ株","province":"東京都","city":"大島町","address":"東京都大島町泉津","lat":34.78307496,"lon":139.41375561},{"name":"カモシカ","province":"東京都","city":"大島町","address":"東京都大島町泉津","lat":34.78307496,"lon":139.41375561},{"name":"シイノキ山のシイノキ群叢","province":"東京都","city":"大島町","address":"東京都大島町泉津","lat":34.78307496,"lon":139.41375561},{"name":"大島海浜植物群落","province":"東京都","city":"大島町","address":"東京都大島町泉津","lat":34.78307496,"lon":139.41375561},{"name":"オジロワシ","province":"東京都","city":"大島町","address":"東京都大島町泉津","lat":34.78307496,"lon":139.41375561},{"name":"コクガン","province":"東京都","city":"大島町","address":"東京都大島町泉津","lat":34.78307496,"lon":139.41375561},{"name":"マガン","province":"東京都","city":"大島町","address":"東京都大島町泉津","lat":34.78307496,"lon":139.41375561},{"name":"鉄砲場の岩陰遺跡","province":"東京都","city":"大島町","address":"東京都大島町泉津","lat":34.78307496,"lon":139.41375561},{"name":"大島下高洞遺跡","province":"東京都","city":"大島町","address":"東京都大島町元町","lat":34.75069975,"lon":139.35458395},{"name":"大島竜の口遺跡","province":"東京都","city":"大島町","address":"東京都大島町野増","lat":34.73029943,"lon":139.35466575},{"name":"役行者窟","province":"東京都","city":"大島町","address":"東京都大島町泉津","lat":34.78307496,"lon":139.41375561},{"name":"秋広平六墓","province":"東京都","city":"大島町","address":"東京都大島町波浮港","lat":34.68677239,"lon":139.44189881},{"name":"差木地の大クス","province":"東京都","city":"大島町","address":"東京都大島町差木地","lat":34.68312246,"lon":139.41394612},{"name":"潮吹の鼻","province":"東京都","city":"大島町","address":"東京都大島町泉津","lat":34.78307496,"lon":139.41375561},{"name":"おたいね浦の岩脈と筆島","province":"東京都","city":"大島町","address":"東京都大島町波浮港","lat":34.68677239,"lon":139.44189881},{"name":"カラスバト","province":"東京都","city":"大島町","address":"東京都大島町泉津","lat":34.78307496,"lon":139.41375561},{"name":"北ノ山保育園","province":"東京都","city":"大島町","address":"大島町元町字地の岡65-10","lat":34.774697,"lon":139.36173},{"name":"元町保育園","province":"東京都","city":"大島町","address":"大島町元町字長沢344-1","lat":34.754052,"lon":139.361297},{"name":"岡田保育園","province":"東京都","city":"大島町","address":"大島町岡田字小堀73-1","lat":34.787152,"lon":139.3802},{"name":"差木地保育園","province":"東京都","city":"大島町","address":"大島町差木地2","lat":34.688425,"lon":139.403019},{"name":"波浮保育園","province":"東京都","city":"大島町","address":"大島町波浮港17","lat":34.694188,"lon":139.44046},{"name":"島しょ保健所大島出張所","province":"東京都","city":"大島町","address":"大島町元町字馬の背275-4","lat":34.756841,"lon":139.358125},{"name":"元町保育園","province":"東京都","city":"大島町","address":"大島町元町字丸塚547-1","lat":34.76086,"lon":139.37244},{"name":"北ノ山保育園","province":"東京都","city":"大島町","address":"大島町元町字地の岡65-10","lat":34.77338,"lon":139.35986},{"name":"岡田保育園","province":"東京都","city":"大島町","address":"大島町岡田字小堀73-1","lat":34.79184,"lon":139.37778},{"name":"波浮保育園","province":"東京都","city":"大島町","address":"大島町波浮港17","lat":34.6855,"lon":139.44073},{"name":"島しょ保健所大島出張所","province":"東京都","city":"大島町","address":"大島町元町字馬の背275-4","lat":34.75655,"lon":139.35907},{"name":"波浮港福祉作業所","province":"東京都","city":"大島町","address":"東京都大島町差木地","lat":34.68312246,"lon":139.41394612},{"name":"波浮保育園","province":"東京都","city":"大島町","address":"大島町波浮港17","lat":34.6855,"lon":139.44074},{"name":"元町保育園","province":"東京都","city":"大島町","address":"大島町元町字長沢344-1","lat":34.75058,"lon":139.35626},{"name":"北ノ山保育園","province":"東京都","city":"大島町","address":"大島町元町字地の岡65-10","lat":34.774697,"lon":139.36173},{"name":"元町保育園","province":"東京都","city":"大島町","address":"大島町元町字長沢344-1","lat":34.754052,"lon":139.361297},{"name":"岡田保育園","province":"東京都","city":"大島町","address":"大島町岡田字小堀73-1","lat":34.787152,"lon":139.3802},{"name":"差木地保育園","province":"東京都","city":"大島町","address":"大島町差木地2","lat":34.688425,"lon":139.403019},{"name":"波浮保育園","province":"東京都","city":"大島町","address":"大島町波浮港17","lat":34.694188,"lon":139.44046},{"name":"島しょ保健所大島出張所","province":"東京都","city":"大島町","address":"大島町元町字馬の背275-4","lat":34.756841,"lon":139.358125},{"name":"元町保育園","province":"東京都","city":"大島町","address":"大島町元町字丸塚547-1","lat":34.76086,"lon":139.37244},{"name":"北ノ山保育園","province":"東京都","city":"大島町","address":"大島町元町字地の岡65-10","lat":34.77338,"lon":139.35986},{"name":"岡田保育園","province":"東京都","city":"大島町","address":"大島町岡田字小堀73-1","lat":34.79184,"lon":139.37778},{"name":"波浮保育園","province":"東京都","city":"大島町","address":"大島町波浮港17","lat":34.6855,"lon":139.44073},{"name":"島しょ保健所大島出張所","province":"東京都","city":"大島町","address":"大島町元町字馬の背275-4","lat":34.75655,"lon":139.35907},{"name":"波浮港福祉作業所","province":"東京都","city":"大島町","address":"東京都大島町差木地","lat":34.68312246,"lon":139.41394612},{"name":"波浮保育園","province":"東京都","city":"大島町","address":"大島町波浮港17","lat":34.6855,"lon":139.44074},{"name":"元町保育園","province":"東京都","city":"大島町","address":"大島町元町字長沢344-1","lat":34.75058,"lon":139.35626},{"name":"北ノ山保育園","province":"東京都","city":"大島町","address":"大島町元町字地の岡65-10","lat":34.774697,"lon":139.36173},{"name":"元町保育園","province":"東京都","city":"大島町","address":"大島町元町字長沢344-1","lat":34.754052,"lon":139.361297},{"name":"岡田保育園","province":"東京都","city":"大島町","address":"大島町岡田字小堀73-1","lat":34.787152,"lon":139.3802},{"name":"差木地保育園","province":"東京都","city":"大島町","address":"大島町差木地2","lat":34.688425,"lon":139.403019},{"name":"波浮保育園","province":"東京都","city":"大島町","address":"大島町波浮港17","lat":34.694188,"lon":139.44046},{"name":"島しょ保健所大島出張所","province":"東京都","city":"大島町","address":"大島町元町字馬の背275-4","lat":34.756841,"lon":139.358125},{"name":"元町保育園","province":"東京都","city":"大島町","address":"大島町元町字丸塚547-1","lat":34.76086,"lon":139.37244},{"name":"北ノ山保育園","province":"東京都","city":"大島町","address":"大島町元町字地の岡65-10","lat":34.77338,"lon":139.35986},{"name":"岡田保育園","province":"東京都","city":"大島町","address":"大島町岡田字小堀73-1","lat":34.79184,"lon":139.37778},{"name":"波浮保育園","province":"東京都","city":"大島町","address":"大島町波浮港17","lat":34.6855,"lon":139.44073},{"name":"島しょ保健所大島出張所","province":"東京都","city":"大島町","address":"大島町元町字馬の背275-4","lat":34.75655,"lon":139.35907},{"name":"波浮港福祉作業所","province":"東京都","city":"大島町","address":"東京都大島町差木地","lat":34.68312246,"lon":139.41394612},{"name":"波浮保育園","province":"東京都","city":"大島町","address":"大島町波浮港17","lat":34.6855,"lon":139.44074},{"name":"元町保育園","province":"東京都","city":"大島町","address":"大島町元町字長沢344-1","lat":34.75058,"lon":139.35626},{"name":"北ノ山保育園","province":"東京都","city":"大島町","address":"大島町元町字地の岡65-10","lat":34.774697,"lon":139.36173},{"name":"元町保育園","province":"東京都","city":"大島町","address":"大島町元町字長沢344-1","lat":34.754052,"lon":139.361297},{"name":"岡田保育園","province":"東京都","city":"大島町","address":"大島町岡田字小堀73-1","lat":34.787152,"lon":139.3802},{"name":"差木地保育園","province":"東京都","city":"大島町","address":"大島町差木地2","lat":34.688425,"lon":139.403019},{"name":"波浮保育園","province":"東京都","city":"大島町","address":"大島町波浮港17","lat":34.694188,"lon":139.44046},{"name":"島しょ保健所大島出張所","province":"東京都","city":"大島町","address":"大島町元町字馬の背275-4","lat":34.756841,"lon":139.358125},{"name":"島しょ保健所大島出張所","province":"東京都","city":"大島町","address":"大島町元町字馬の背275-4","lat":34.75655,"lon":139.35907},{"name":"波浮港福祉作業所","province":"東京都","city":"大島町","address":"東京都大島町差木地","lat":34.68312246,"lon":139.41394612},{"name":"北ノ山保育園","province":"東京都","city":"大島町","address":"大島町元町字地の岡65-10","lat":34.774697,"lon":139.36173},{"name":"元町保育園","province":"東京都","city":"大島町","address":"大島町元町字長沢344-1","lat":34.754052,"lon":139.361297},{"name":"岡田保育園","province":"東京都","city":"大島町","address":"大島町岡田字小堀73-1","lat":34.787152,"lon":139.3802},{"name":"差木地保育園","province":"東京都","city":"大島町","address":"大島町差木地2","lat":34.688425,"lon":139.403019},{"name":"波浮保育園","province":"東京都","city":"大島町","address":"大島町波浮港17","lat":34.694188,"lon":139.44046},{"name":"島しょ保健所大島出張所","province":"東京都","city":"大島町","address":"大島町元町字馬の背275-4","lat":34.756841,"lon":139.358125},{"name":"島しょ保健所大島出張所","province":"東京都","city":"大島町","address":"大島町元町字馬の背275-4","lat":34.75655,"lon":139.35907},{"name":"北ノ山保育園","province":"東京都","city":"大島町","address":"大島町元町字地の岡65-10","lat":34.774697,"lon":139.36173},{"name":"元町保育園","province":"東京都","city":"大島町","address":"大島町元町字長沢344-1","lat":34.754052,"lon":139.361297},{"name":"岡田保育園","province":"東京都","city":"大島町","address":"大島町岡田字小堀73-1","lat":34.787152,"lon":139.3802},{"name":"差木地保育園","province":"東京都","city":"大島町","address":"大島町差木地2","lat":34.688425,"lon":139.403019},{"name":"波浮保育園","province":"東京都","city":"大島町","address":"大島町波浮港17","lat":34.694188,"lon":139.44046},{"name":"島しょ保健所大島出張所","province":"東京都","city":"大島町","address":"大島町元町字馬の背275-4","lat":34.756841,"lon":139.358125},{"name":"島しょ保健所大島出張所","province":"東京都","city":"大島町","address":"大島町元町字馬の背275-4","lat":34.75655,"lon":139.35907},{"name":"北ノ山保育園","province":"東京都","city":"大島町","address":"大島町元町字地の岡65-10","lat":34.774697,"lon":139.36173},{"name":"元町保育園","province":"東京都","city":"大島町","address":"大島町元町字長沢344-1","lat":34.754052,"lon":139.361297},{"name":"岡田保育園","province":"東京都","city":"大島町","address":"大島町岡田字小堀73-1","lat":34.787152,"lon":139.3802},{"name":"差木地保育園","province":"東京都","city":"大島町","address":"大島町差木地2","lat":34.688425,"lon":139.403019},{"name":"波浮保育園","province":"東京都","city":"大島町","address":"大島町波浮港17","lat":34.694188,"lon":139.44046},{"name":"島しょ保健所大島出張所","province":"東京都","city":"大島町","address":"大島町元町字馬の背275-4","lat":34.756841,"lon":139.358125},{"name":"島しょ保健所大島出張所","province":"東京都","city":"大島町","address":"大島町元町字馬の背275-4","lat":34.75655,"lon":139.35907},{"name":"北ノ山保育園","province":"東京都","city":"大島町","address":"大島町元町字地の岡65-10","lat":34.774697,"lon":139.36173},{"name":"元町保育園","province":"東京都","city":"大島町","address":"大島町元町字長沢344-1","lat":34.754052,"lon":139.361297},{"name":"岡田保育園","province":"東京都","city":"大島町","address":"大島町岡田字小堀73-1","lat":34.787152,"lon":139.3802},{"name":"差木地保育園","province":"東京都","city":"大島町","address":"大島町差木地2","lat":34.688425,"lon":139.403019},{"name":"波浮保育園","province":"東京都","city":"大島町","address":"大島町波浮港17","lat":34.694188,"lon":139.44046},{"name":"島しょ保健所大島出張所","province":"東京都","city":"大島町","address":"大島町元町字馬の背275-4","lat":34.756841,"lon":139.358125},{"name":"島しょ保健所大島出張所","province":"東京都","city":"大島町","address":"大島町元町字馬の背275-4","lat":34.75655,"lon":139.35907},{"name":"北ノ山保育園","province":"東京都","city":"大島町","address":"大島町元町字地の岡65-10","lat":34.774697,"lon":139.36173},{"name":"元町保育園","province":"東京都","city":"大島町","address":"大島町元町字長沢344-1","lat":34.754052,"lon":139.361297},{"name":"岡田保育園","province":"東京都","city":"大島町","address":"大島町岡田字小堀73-1","lat":34.787152,"lon":139.3802},{"name":"差木地保育園","province":"東京都","city":"大島町","address":"大島町差木地2","lat":34.688425,"lon":139.403019},{"name":"波浮保育園","province":"東京都","city":"大島町","address":"大島町波浮港17","lat":34.694188,"lon":139.44046},{"name":"島しょ保健所大島出張所","province":"東京都","city":"大島町","address":"大島町元町字馬の背275-4","lat":34.756841,"lon":139.358125},{"name":"島しょ保健所大島出張所","province":"東京都","city":"大島町","address":"大島町元町字馬の背275-4","lat":34.75655,"lon":139.35907},{"name":"北ノ山保育園","province":"東京都","city":"大島町","address":"大島町元町字地の岡65-10","lat":34.774697,"lon":139.36173},{"name":"元町保育園","province":"東京都","city":"大島町","address":"大島町元町字長沢344-1","lat":34.754052,"lon":139.361297},{"name":"岡田保育園","province":"東京都","city":"大島町","address":"大島町岡田字小堀73-1","lat":34.787152,"lon":139.3802},{"name":"差木地保育園","province":"東京都","city":"大島町","address":"大島町差木地2","lat":34.688425,"lon":139.403019},{"name":"波浮保育園","province":"東京都","city":"大島町","address":"大島町波浮港17","lat":34.694188,"lon":139.44046},{"name":"島しょ保健所大島出張所","province":"東京都","city":"大島町","address":"大島町元町字馬の背275-4","lat":34.756841,"lon":139.358125},{"name":"島しょ保健所大島出張所","province":"東京都","city":"大島町","address":"大島町元町字馬の背275-4","lat":34.75655,"lon":139.35907},{"name":"北ノ山保育園","province":"東京都","city":"大島町","address":"大島町元町字地の岡65-10","lat":34.774697,"lon":139.36173},{"name":"元町保育園","province":"東京都","city":"大島町","address":"大島町元町字長沢344-1","lat":34.754052,"lon":139.361297},{"name":"岡田保育園","province":"東京都","city":"大島町","address":"大島町岡田字小堀73-1","lat":34.787152,"lon":139.3802},{"name":"差木地保育園","province":"東京都","city":"大島町","address":"大島町差木地2","lat":34.688425,"lon":139.403019},{"name":"波浮保育園","province":"東京都","city":"大島町","address":"大島町波浮港17","lat":34.694188,"lon":139.44046},{"name":"島しょ保健所大島出張所","province":"東京都","city":"大島町","address":"大島町元町字馬の背275-4","lat":34.756841,"lon":139.358125},{"name":"島しょ保健所大島出張所","province":"東京都","city":"大島町","address":"大島町元町字馬の背275-4","lat":34.75655,"lon":139.35907},{"name":"北ノ山保育園","province":"東京都","city":"大島町","address":"大島町元町字地の岡65-10","lat":34.774697,"lon":139.36173},{"name":"元町保育園","province":"東京都","city":"大島町","address":"大島町元町字長沢344-1","lat":34.754052,"lon":139.361297},{"name":"岡田保育園","province":"東京都","city":"大島町","address":"大島町岡田字小堀73-1","lat":34.787152,"lon":139.3802},{"name":"差木地保育園","province":"東京都","city":"大島町","address":"大島町差木地2","lat":34.688425,"lon":139.403019},{"name":"波浮保育園","province":"東京都","city":"大島町","address":"大島町波浮港17","lat":34.694188,"lon":139.44046},{"name":"島しょ保健所大島出張所","province":"東京都","city":"大島町","address":"大島町元町字馬の背275-4","lat":34.756841,"lon":139.358125},{"name":"島しょ保健所大島出張所","province":"東京都","city":"大島町","address":"大島町元町字馬の背275-4","lat":34.75655,"lon":139.35907},{"name":"北ノ山保育園","province":"東京都","city":"大島町","address":"大島町元町字地の岡65-10","lat":34.774697,"lon":139.36173},{"name":"元町保育園","province":"東京都","city":"大島町","address":"大島町元町字長沢344-1","lat":34.754052,"lon":139.361297},{"name":"岡田保育園","province":"東京都","city":"大島町","address":"大島町岡田字小堀73-1","lat":34.787152,"lon":139.3802},{"name":"差木地保育園","province":"東京都","city":"大島町","address":"大島町差木地2","lat":34.688425,"lon":139.403019},{"name":"波浮保育園","province":"東京都","city":"大島町","address":"大島町波浮港17","lat":34.694188,"lon":139.44046},{"name":"島しょ保健所大島出張所","province":"東京都","city":"大島町","address":"大島町元町字馬の背275-4","lat":34.756841,"lon":139.358125},{"name":"島しょ保健所大島出張所","province":"東京都","city":"大島町","address":"大島町元町字馬の背275-4","lat":34.75655,"lon":139.35907},{"name":"北ノ山保育園","province":"東京都","city":"大島町","address":"大島町元町字地の岡65-10","lat":34.774697,"lon":139.36173},{"name":"元町保育園","province":"東京都","city":"大島町","address":"大島町元町字長沢344-1","lat":34.754052,"lon":139.361297},{"name":"岡田保育園","province":"東京都","city":"大島町","address":"大島町岡田字小堀73-1","lat":34.787152,"lon":139.3802},{"name":"差木地保育園","province":"東京都","city":"大島町","address":"大島町差木地2","lat":34.688425,"lon":139.403019},{"name":"波浮保育園","province":"東京都","city":"大島町","address":"大島町波浮港17","lat":34.694188,"lon":139.44046},{"name":"島しょ保健所大島出張所","province":"東京都","city":"大島町","address":"大島町元町字馬の背275-4","lat":34.756841,"lon":139.358125},{"name":"島しょ保健所大島出張所","province":"東京都","city":"大島町","address":"大島町元町字馬の背275-4","lat":34.75655,"lon":139.35907},{"name":"北ノ山保育園","province":"東京都","city":"大島町","address":"大島町元町字地の岡65-10","lat":34.774697,"lon":139.36173},{"name":"元町保育園","province":"東京都","city":"大島町","address":"大島町元町字長沢344-1","lat":34.754052,"lon":139.361297},{"name":"岡田保育園","province":"東京都","city":"大島町","address":"大島町岡田字小堀73-1","lat":34.787152,"lon":139.3802},{"name":"差木地保育園","province":"東京都","city":"大島町","address":"大島町差木地2","lat":34.688425,"lon":139.403019},{"name":"波浮保育園","province":"東京都","city":"大島町","address":"大島町波浮港17","lat":34.694188,"lon":139.44046},{"name":"島しょ保健所大島出張所","province":"東京都","city":"大島町","address":"大島町元町字馬の背275-4","lat":34.756841,"lon":139.358125},{"name":"島しょ保健所大島出張所","province":"東京都","city":"大島町","address":"大島町元町字馬の背275-4","lat":34.75655,"lon":139.35907},{"name":"北ノ山保育園","province":"東京都","city":"大島町","address":"大島町元町字地の岡65-10","lat":34.774697,"lon":139.36173},{"name":"元町保育園","province":"東京都","city":"大島町","address":"大島町元町字長沢344-1","lat":34.754052,"lon":139.361297},{"name":"岡田保育園","province":"東京都","city":"大島町","address":"大島町岡田字小堀73-1","lat":34.787152,"lon":139.3802},{"name":"差木地保育園","province":"東京都","city":"大島町","address":"大島町差木地2","lat":34.688425,"lon":139.403019},{"name":"波浮保育園","province":"東京都","city":"大島町","address":"大島町波浮港17","lat":34.694188,"lon":139.44046},{"name":"島しょ保健所大島出張所","province":"東京都","city":"大島町","address":"大島町元町字馬の背275-4","lat":34.756841,"lon":139.358125},{"name":"島しょ保健所大島出張所","province":"東京都","city":"大島町","address":"大島町元町字馬の背275-4","lat":34.75655,"lon":139.35907},{"name":"北ノ山保育園","province":"東京都","city":"大島町","address":"大島町元町字地の岡65-10","lat":34.774697,"lon":139.36173},{"name":"元町保育園","province":"東京都","city":"大島町","address":"大島町元町字長沢344-1","lat":34.754052,"lon":139.361297},{"name":"岡田保育園","province":"東京都","city":"大島町","address":"大島町岡田字小堀73-1","lat":34.787152,"lon":139.3802},{"name":"差木地保育園","province":"東京都","city":"大島町","address":"大島町差木地2","lat":34.688425,"lon":139.403019},{"name":"波浮保育園","province":"東京都","city":"大島町","address":"大島町波浮港17","lat":34.694188,"lon":139.44046},{"name":"島しょ保健所大島出張所","province":"東京都","city":"大島町","address":"大島町元町字馬の背275-4","lat":34.756841,"lon":139.358125},{"name":"島しょ保健所大島出張所","province":"東京都","city":"大島町","address":"大島町元町字馬の背275-4","lat":34.75655,"lon":139.35907},{"name":"北ノ山保育園","province":"東京都","city":"大島町","address":"大島町元町字地の岡65-10","lat":34.774697,"lon":139.36173},{"name":"元町保育園","province":"東京都","city":"大島町","address":"大島町元町字長沢344-1","lat":34.754052,"lon":139.361297},{"name":"岡田保育園","province":"東京都","city":"大島町","address":"大島町岡田字小堀73-1","lat":34.787152,"lon":139.3802},{"name":"差木地保育園","province":"東京都","city":"大島町","address":"大島町差木地2","lat":34.688425,"lon":139.403019},{"name":"波浮保育園","province":"東京都","city":"大島町","address":"大島町波浮港17","lat":34.694188,"lon":139.44046},{"name":"島しょ保健所大島出張所","province":"東京都","city":"大島町","address":"大島町元町字馬の背275-4","lat":34.756841,"lon":139.358125},{"name":"島しょ保健所大島出張所","province":"東京都","city":"大島町","address":"大島町元町字馬の背275-4","lat":34.75655,"lon":139.35907},{"name":"北ノ山保育園","province":"東京都","city":"大島町","address":"大島町元町字地の岡65-10","lat":34.774697,"lon":139.36173},{"name":"元町保育園","province":"東京都","city":"大島町","address":"大島町元町字長沢344-1","lat":34.754052,"lon":139.361297},{"name":"岡田保育園","province":"東京都","city":"大島町","address":"大島町岡田字小堀73-1","lat":34.787152,"lon":139.3802},{"name":"差木地保育園","province":"東京都","city":"大島町","address":"大島町差木地2","lat":34.688425,"lon":139.403019},{"name":"波浮保育園","province":"東京都","city":"大島町","address":"大島町波浮港17","lat":34.694188,"lon":139.44046},{"name":"島しょ保健所大島出張所","province":"東京都","city":"大島町","address":"大島町元町字馬の背275-4","lat":34.756841,"lon":139.358125},{"name":"島しょ保健所大島出張所","province":"東京都","city":"大島町","address":"大島町元町字馬の背275-4","lat":34.75655,"lon":139.35907},{"name":"北ノ山保育園","province":"東京都","city":"大島町","address":"大島町元町字地の岡65-10","lat":34.774697,"lon":139.36173},{"name":"元町保育園","province":"東京都","city":"大島町","address":"大島町元町字長沢344-1","lat":34.754052,"lon":139.361297},{"name":"岡田保育園","province":"東京都","city":"大島町","address":"大島町岡田字小堀73-1","lat":34.787152,"lon":139.3802},{"name":"差木地保育園","province":"東京都","city":"大島町","address":"大島町差木地2","lat":34.688425,"lon":139.403019},{"name":"波浮保育園","province":"東京都","city":"大島町","address":"大島町波浮港17","lat":34.694188,"lon":139.44046},{"name":"島しょ保健所大島出張所","province":"東京都","city":"大島町","address":"大島町元町字馬の背275-4","lat":34.756841,"lon":139.358125},{"name":"島しょ保健所大島出張所","province":"東京都","city":"大島町","address":"大島町元町字馬の背275-4","lat":34.75655,"lon":139.35907},{"name":"北ノ山保育園","province":"東京都","city":"大島町","address":"大島町元町字地の岡65-10","lat":34.774697,"lon":139.36173},{"name":"元町保育園","province":"東京都","city":"大島町","address":"大島町元町字長沢344-1","lat":34.754052,"lon":139.361297},{"name":"岡田保育園","province":"東京都","city":"大島町","address":"大島町岡田字小堀73-1","lat":34.787152,"lon":139.3802},{"name":"差木地保育園","province":"東京都","city":"大島町","address":"大島町差木地2","lat":34.688425,"lon":139.403019},{"name":"波浮保育園","province":"東京都","city":"大島町","address":"大島町波浮港17","lat":34.694188,"lon":139.44046},{"name":"島しょ保健所大島出張所","province":"東京都","city":"大島町","address":"大島町元町字馬の背275-4","lat":34.756841,"lon":139.358125},{"name":"島しょ保健所大島出張所","province":"東京都","city":"大島町","address":"大島町元町字馬の背275-4","lat":34.75655,"lon":139.35907},{"name":"北ノ山保育園","province":"東京都","city":"大島町","address":"大島町元町字地の岡65-10","lat":34.774697,"lon":139.36173},{"name":"元町保育園","province":"東京都","city":"大島町","address":"大島町元町字長沢344-1","lat":34.754052,"lon":139.361297},{"name":"岡田保育園","province":"東京都","city":"大島町","address":"大島町岡田字小堀73-1","lat":34.787152,"lon":139.3802},{"name":"差木地保育園","province":"東京都","city":"大島町","address":"大島町差木地2","lat":34.688425,"lon":139.403019},{"name":"波浮保育園","province":"東京都","city":"大島町","address":"大島町波浮港17","lat":34.694188,"lon":139.44046},{"name":"島しょ保健所大島出張所","province":"東京都","city":"大島町","address":"大島町元町字馬の背275-4","lat":34.756841,"lon":139.358125},{"name":"島しょ保健所大島出張所","province":"東京都","city":"大島町","address":"大島町元町字馬の背275-4","lat":34.75655,"lon":139.35907},{"name":"北ノ山保育園","province":"東京都","city":"大島町","address":"大島町元町字地の岡65-10","lat":34.774697,"lon":139.36173},{"name":"元町保育園","province":"東京都","city":"大島町","address":"大島町元町字長沢344-1","lat":34.754052,"lon":139.361297},{"name":"岡田保育園","province":"東京都","city":"大島町","address":"大島町岡田字小堀73-1","lat":34.787152,"lon":139.3802},{"name":"差木地保育園","province":"東京都","city":"大島町","address":"大島町差木地2","lat":34.688425,"lon":139.403019},{"name":"波浮保育園","province":"東京都","city":"大島町","address":"大島町波浮港17","lat":34.694188,"lon":139.44046},{"name":"島しょ保健所大島出張所","province":"東京都","city":"大島町","address":"大島町元町字馬の背275-4","lat":34.756841,"lon":139.358125},{"name":"島しょ保健所大島出張所","province":"東京都","city":"大島町","address":"大島町元町字馬の背275-4","lat":34.75655,"lon":139.35907},{"name":"北ノ山保育園","province":"東京都","city":"大島町","address":"大島町元町字地の岡65-10","lat":34.774697,"lon":139.36173},{"name":"元町保育園","province":"東京都","city":"大島町","address":"大島町元町字長沢344-1","lat":34.754052,"lon":139.361297},{"name":"岡田保育園","province":"東京都","city":"大島町","address":"大島町岡田字小堀73-1","lat":34.787152,"lon":139.3802},{"name":"差木地保育園","province":"東京都","city":"大島町","address":"大島町差木地2","lat":34.688425,"lon":139.403019},{"name":"波浮保育園","province":"東京都","city":"大島町","address":"大島町波浮港17","lat":34.694188,"lon":139.44046},{"name":"島しょ保健所大島出張所","province":"東京都","city":"大島町","address":"大島町元町字馬の背275-4","lat":34.756841,"lon":139.358125},{"name":"島しょ保健所大島出張所","province":"東京都","city":"大島町","address":"大島町元町字馬の背275-4","lat":34.75655,"lon":139.35907},{"name":"北ノ山保育園","province":"東京都","city":"大島町","address":"大島町元町字地の岡65-10","lat":34.774697,"lon":139.36173},{"name":"元町保育園","province":"東京都","city":"大島町","address":"大島町元町字長沢344-1","lat":34.754052,"lon":139.361297},{"name":"岡田保育園","province":"東京都","city":"大島町","address":"大島町岡田字小堀73-1","lat":34.787152,"lon":139.3802},{"name":"差木地保育園","province":"東京都","city":"大島町","address":"大島町差木地2","lat":34.688425,"lon":139.403019},{"name":"波浮保育園","province":"東京都","city":"大島町","address":"大島町波浮港17","lat":34.694188,"lon":139.44046},{"name":"島しょ保健所大島出張所","province":"東京都","city":"大島町","address":"大島町元町字馬の背275-4","lat":34.756841,"lon":139.358125},{"name":"島しょ保健所大島出張所","province":"東京都","city":"大島町","address":"大島町元町字馬の背275-4","lat":34.75655,"lon":139.35907},{"name":"北ノ山保育園","province":"東京都","city":"大島町","address":"大島町元町字地の岡65-10","lat":34.774697,"lon":139.36173},{"name":"元町保育園","province":"東京都","city":"大島町","address":"大島町元町字長沢344-1","lat":34.754052,"lon":139.361297},{"name":"岡田保育園","province":"東京都","city":"大島町","address":"大島町岡田字小堀73-1","lat":34.787152,"lon":139.3802},{"name":"差木地保育園","province":"東京都","city":"大島町","address":"大島町差木地2","lat":34.688425,"lon":139.403019},{"name":"波浮保育園","province":"東京都","city":"大島町","address":"大島町波浮港17","lat":34.694188,"lon":139.44046},{"name":"島しょ保健所大島出張所","province":"東京都","city":"大島町","address":"大島町元町字馬の背275-4","lat":34.756841,"lon":139.358125},{"name":"島しょ保健所大島出張所","province":"東京都","city":"大島町","address":"大島町元町字馬の背275-4","lat":34.75655,"lon":139.35907},{"name":"北ノ山保育園","province":"東京都","city":"大島町","address":"大島町元町字地の岡65-10","lat":34.774697,"lon":139.36173},{"name":"元町保育園","province":"東京都","city":"大島町","address":"大島町元町字長沢344-1","lat":34.754052,"lon":139.361297},{"name":"岡田保育園","province":"東京都","city":"大島町","address":"大島町岡田字小堀73-1","lat":34.787152,"lon":139.3802},{"name":"差木地保育園","province":"東京都","city":"大島町","address":"大島町差木地2","lat":34.688425,"lon":139.403019},{"name":"波浮保育園","province":"東京都","city":"大島町","address":"大島町波浮港17","lat":34.694188,"lon":139.44046},{"name":"島しょ保健所大島出張所","province":"東京都","city":"大島町","address":"大島町元町字馬の背275-4","lat":34.756841,"lon":139.358125},{"name":"島しょ保健所大島出張所","province":"東京都","city":"大島町","address":"大島町元町字馬の背275-4","lat":34.75655,"lon":139.35907},{"name":"北ノ山保育園","province":"東京都","city":"大島町","address":"大島町元町字地の岡65-10","lat":34.774697,"lon":139.36173},{"name":"元町保育園","province":"東京都","city":"大島町","address":"大島町元町字長沢344-1","lat":34.754052,"lon":139.361297},{"name":"岡田保育園","province":"東京都","city":"大島町","address":"大島町岡田字小堀73-1","lat":34.787152,"lon":139.3802},{"name":"差木地保育園","province":"東京都","city":"大島町","address":"大島町差木地2","lat":34.688425,"lon":139.403019},{"name":"波浮保育園","province":"東京都","city":"大島町","address":"大島町波浮港17","lat":34.694188,"lon":139.44046},{"name":"島しょ保健所大島出張所","province":"東京都","city":"大島町","address":"大島町元町字馬の背275-4","lat":34.756841,"lon":139.358125},{"name":"島しょ保健所大島出張所","province":"東京都","city":"大島町","address":"大島町元町字馬の背275-4","lat":34.75655,"lon":139.35907},{"name":"北ノ山保育園","province":"東京都","city":"大島町","address":"大島町元町字地の岡65-10","lat":34.774697,"lon":139.36173},{"name":"元町保育園","province":"東京都","city":"大島町","address":"大島町元町字長沢344-1","lat":34.754052,"lon":139.361297},{"name":"岡田保育園","province":"東京都","city":"大島町","address":"大島町岡田字小堀73-1","lat":34.787152,"lon":139.3802},{"name":"差木地保育園","province":"東京都","city":"大島町","address":"大島町差木地2","lat":34.688425,"lon":139.403019},{"name":"波浮保育園","province":"東京都","city":"大島町","address":"大島町波浮港17","lat":34.694188,"lon":139.44046},{"name":"島しょ保健所大島出張所","province":"東京都","city":"大島町","address":"大島町元町字馬の背275-4","lat":34.756841,"lon":139.358125},{"name":"島しょ保健所大島出張所","province":"東京都","city":"大島町","address":"大島町元町字馬の背275-4","lat":34.75655,"lon":139.35907},{"name":"北ノ山保育園","province":"東京都","city":"大島町","address":"大島町元町字地の岡65-10","lat":34.774697,"lon":139.36173},{"name":"元町保育園","province":"東京都","city":"大島町","address":"大島町元町字長沢344-1","lat":34.754052,"lon":139.361297},{"name":"岡田保育園","province":"東京都","city":"大島町","address":"大島町岡田字小堀73-1","lat":34.787152,"lon":139.3802},{"name":"差木地保育園","province":"東京都","city":"大島町","address":"大島町差木地2","lat":34.688425,"lon":139.403019},{"name":"波浮保育園","province":"東京都","city":"大島町","address":"大島町波浮港17","lat":34.694188,"lon":139.44046},{"name":"島しょ保健所大島出張所","province":"東京都","city":"大島町","address":"大島町元町字馬の背275-4","lat":34.756841,"lon":139.358125},{"name":"島しょ保健所大島出張所","province":"東京都","city":"大島町","address":"大島町元町字馬の背275-4","lat":34.75655,"lon":139.35907},{"name":"北ノ山保育園","province":"東京都","city":"大島町","address":"大島町元町字地の岡65-10","lat":34.774697,"lon":139.36173},{"name":"元町保育園","province":"東京都","city":"大島町","address":"大島町元町字長沢344-1","lat":34.754052,"lon":139.361297},{"name":"岡田保育園","province":"東京都","city":"大島町","address":"大島町岡田字小堀73-1","lat":34.787152,"lon":139.3802},{"name":"差木地保育園","province":"東京都","city":"大島町","address":"大島町差木地2","lat":34.688425,"lon":139.403019},{"name":"波浮保育園","province":"東京都","city":"大島町","address":"大島町波浮港17","lat":34.694188,"lon":139.44046},{"name":"島しょ保健所大島出張所","province":"東京都","city":"大島町","address":"大島町元町字馬の背275-4","lat":34.756841,"lon":139.358125},{"name":"島しょ保健所大島出張所","province":"東京都","city":"大島町","address":"大島町元町字馬の背275-4","lat":34.75655,"lon":139.35907},{"name":"北ノ山保育園","province":"東京都","city":"大島町","address":"大島町元町字地の岡65-10","lat":34.774697,"lon":139.36173},{"name":"元町保育園","province":"東京都","city":"大島町","address":"大島町元町字長沢344-1","lat":34.754052,"lon":139.361297},{"name":"岡田保育園","province":"東京都","city":"大島町","address":"大島町岡田字小堀73-1","lat":34.787152,"lon":139.3802},{"name":"差木地保育園","province":"東京都","city":"大島町","address":"大島町差木地2","lat":34.688425,"lon":139.403019},{"name":"波浮保育園","province":"東京都","city":"大島町","address":"大島町波浮港17","lat":34.694188,"lon":139.44046},{"name":"島しょ保健所大島出張所","province":"東京都","city":"大島町","address":"大島町元町字馬の背275-4","lat":34.756841,"lon":139.358125},{"name":"島しょ保健所大島出張所","province":"東京都","city":"大島町","address":"大島町元町字馬の背275-4","lat":34.75655,"lon":139.35907},{"name":"北ノ山保育園","province":"東京都","city":"大島町","address":"大島町元町字地の岡65-10","lat":34.774697,"lon":139.36173},{"name":"元町保育園","province":"東京都","city":"大島町","address":"大島町元町字長沢344-1","lat":34.754052,"lon":139.361297},{"name":"岡田保育園","province":"東京都","city":"大島町","address":"大島町岡田字小堀73-1","lat":34.787152,"lon":139.3802},{"name":"差木地保育園","province":"東京都","city":"大島町","address":"大島町差木地2","lat":34.688425,"lon":139.403019},{"name":"波浮保育園","province":"東京都","city":"大島町","address":"大島町波浮港17","lat":34.694188,"lon":139.44046},{"name":"島しょ保健所大島出張所","province":"東京都","city":"大島町","address":"大島町元町字馬の背275-4","lat":34.756841,"lon":139.358125},{"name":"島しょ保健所大島出張所","province":"東京都","city":"大島町","address":"大島町元町字馬の背275-4","lat":34.75655,"lon":139.35907},{"name":"北ノ山保育園","province":"東京都","city":"大島町","address":"大島町元町字地の岡65-10","lat":34.774697,"lon":139.36173},{"name":"元町保育園","province":"東京都","city":"大島町","address":"大島町元町字長沢344-1","lat":34.754052,"lon":139.361297},{"name":"岡田保育園","province":"東京都","city":"大島町","address":"大島町岡田字小堀73-1","lat":34.787152,"lon":139.3802},{"name":"差木地保育園","province":"東京都","city":"大島町","address":"大島町差木地2","lat":34.688425,"lon":139.403019},{"name":"波浮保育園","province":"東京都","city":"大島町","address":"大島町波浮港17","lat":34.694188,"lon":139.44046},{"name":"島しょ保健所大島出張所","province":"東京都","city":"大島町","address":"大島町元町字馬の背275-4","lat":34.756841,"lon":139.358125},{"name":"島しょ保健所大島出張所","province":"東京都","city":"大島町","address":"大島町元町字馬の背275-4","lat":34.75655,"lon":139.35907},{"name":"北ノ山保育園","province":"東京都","city":"大島町","address":"大島町元町字地の岡65-10","lat":34.774697,"lon":139.36173},{"name":"元町保育園","province":"東京都","city":"大島町","address":"大島町元町字長沢344-1","lat":34.754052,"lon":139.361297},{"name":"岡田保育園","province":"東京都","city":"大島町","address":"大島町岡田字小堀73-1","lat":34.787152,"lon":139.3802},{"name":"差木地保育園","province":"東京都","city":"大島町","address":"大島町差木地2","lat":34.688425,"lon":139.403019},{"name":"波浮保育園","province":"東京都","city":"大島町","address":"大島町波浮港17","lat":34.694188,"lon":139.44046},{"name":"島しょ保健所大島出張所","province":"東京都","city":"大島町","address":"大島町元町字馬の背275-4","lat":34.756841,"lon":139.358125},{"name":"島しょ保健所大島出張所","province":"東京都","city":"大島町","address":"大島町元町字馬の背275-4","lat":34.75655,"lon":139.35907},{"name":"北ノ山保育園","province":"東京都","city":"大島町","address":"大島町元町字地の岡65-10","lat":34.774697,"lon":139.36173},{"name":"元町保育園","province":"東京都","city":"大島町","address":"大島町元町字長沢344-1","lat":34.754052,"lon":139.361297},{"name":"岡田保育園","province":"東京都","city":"大島町","address":"大島町岡田字小堀73-1","lat":34.787152,"lon":139.3802},{"name":"差木地保育園","province":"東京都","city":"大島町","address":"大島町差木地2","lat":34.688425,"lon":139.403019},{"name":"波浮保育園","province":"東京都","city":"大島町","address":"大島町波浮港17","lat":34.694188,"lon":139.44046},{"name":"島しょ保健所大島出張所","province":"東京都","city":"大島町","address":"大島町元町字馬の背275-4","lat":34.756841,"lon":139.358125},{"name":"島しょ保健所大島出張所","province":"東京都","city":"大島町","address":"大島町元町字馬の背275-4","lat":34.75655,"lon":139.35907},{"name":"北ノ山保育園","province":"東京都","city":"大島町","address":"大島町元町字地の岡65-10","lat":34.774697,"lon":139.36173},{"name":"元町保育園","province":"東京都","city":"大島町","address":"大島町元町字長沢344-1","lat":34.754052,"lon":139.361297},{"name":"岡田保育園","province":"東京都","city":"大島町","address":"大島町岡田字小堀73-1","lat":34.787152,"lon":139.3802},{"name":"差木地保育園","province":"東京都","city":"大島町","address":"大島町差木地2","lat":34.688425,"lon":139.403019},{"name":"波浮保育園","province":"東京都","city":"大島町","address":"大島町波浮港17","lat":34.694188,"lon":139.44046},{"name":"島しょ保健所大島出張所","province":"東京都","city":"大島町","address":"大島町元町字馬の背275-4","lat":34.756841,"lon":139.358125},{"name":"島しょ保健所大島出張所","province":"東京都","city":"大島町","address":"大島町元町字馬の背275-4","lat":34.75655,"lon":139.35907},{"name":"北ノ山保育園","province":"東京都","city":"大島町","address":"大島町元町字地の岡65-10","lat":34.774697,"lon":139.36173},{"name":"元町保育園","province":"東京都","city":"大島町","address":"大島町元町字長沢344-1","lat":34.754052,"lon":139.361297},{"name":"岡田保育園","province":"東京都","city":"大島町","address":"大島町岡田字小堀73-1","lat":34.787152,"lon":139.3802},{"name":"差木地保育園","province":"東京都","city":"大島町","address":"大島町差木地2","lat":34.688425,"lon":139.403019},{"name":"波浮保育園","province":"東京都","city":"大島町","address":"大島町波浮港17","lat":34.694188,"lon":139.44046},{"name":"島しょ保健所大島出張所","province":"東京都","city":"大島町","address":"大島町元町字馬の背275-4","lat":34.756841,"lon":139.358125},{"name":"島しょ保健所大島出張所","province":"東京都","city":"大島町","address":"大島町元町字馬の背275-4","lat":34.75655,"lon":139.35907},{"name":"北ノ山保育園","province":"東京都","city":"大島町","address":"大島町元町字地の岡65-10","lat":34.774697,"lon":139.36173},{"name":"元町保育園","province":"東京都","city":"大島町","address":"大島町元町字長沢344-1","lat":34.754052,"lon":139.361297},{"name":"岡田保育園","province":"東京都","city":"大島町","address":"大島町岡田字小堀73-1","lat":34.787152,"lon":139.3802},{"name":"差木地保育園","province":"東京都","city":"大島町","address":"大島町差木地2","lat":34.688425,"lon":139.403019},{"name":"波浮保育園","province":"東京都","city":"大島町","address":"大島町波浮港17","lat":34.694188,"lon":139.44046},{"name":"島しょ保健所大島出張所","province":"東京都","city":"大島町","address":"大島町元町字馬の背275-4","lat":34.756841,"lon":139.358125},{"name":"島しょ保健所大島出張所","province":"東京都","city":"大島町","address":"大島町元町字馬の背275-4","lat":34.75655,"lon":139.35907},{"name":"北ノ山保育園","province":"東京都","city":"大島町","address":"大島町元町字地の岡65-10","lat":34.774697,"lon":139.36173},{"name":"元町保育園","province":"東京都","city":"大島町","address":"大島町元町字長沢344-1","lat":34.754052,"lon":139.361297},{"name":"岡田保育園","province":"東京都","city":"大島町","address":"大島町岡田字小堀73-1","lat":34.787152,"lon":139.3802},{"name":"差木地保育園","province":"東京都","city":"大島町","address":"大島町差木地2","lat":34.688425,"lon":139.403019},{"name":"波浮保育園","province":"東京都","city":"大島町","address":"大島町波浮港17","lat":34.694188,"lon":139.44046},{"name":"島しょ保健所大島出張所","province":"東京都","city":"大島町","address":"大島町元町字馬の背275-4","lat":34.756841,"lon":139.358125},{"name":"島しょ保健所大島出張所","province":"東京都","city":"大島町","address":"大島町元町字馬の背275-4","lat":34.75655,"lon":139.35907},{"name":"北ノ山保育園","province":"東京都","city":"大島町","address":"大島町元町字地の岡65-10","lat":34.774697,"lon":139.36173},{"name":"元町保育園","province":"東京都","city":"大島町","address":"大島町元町字長沢344-1","lat":34.754052,"lon":139.361297},{"name":"岡田保育園","province":"東京都","city":"大島町","address":"大島町岡田字小堀73-1","lat":34.787152,"lon":139.3802},{"name":"差木地保育園","province":"東京都","city":"大島町","address":"大島町差木地2","lat":34.688425,"lon":139.403019},{"name":"波浮保育園","province":"東京都","city":"大島町","address":"大島町波浮港17","lat":34.694188,"lon":139.44046},{"name":"島しょ保健所大島出張所","province":"東京都","city":"大島町","address":"大島町元町字馬の背275-4","lat":34.756841,"lon":139.358125},{"name":"島しょ保健所大島出張所","province":"東京都","city":"大島町","address":"大島町元町字馬の背275-4","lat":34.75655,"lon":139.35907},{"name":"北ノ山保育園","province":"東京都","city":"大島町","address":"大島町元町字地の岡65-10","lat":34.774697,"lon":139.36173},{"name":"元町保育園","province":"東京都","city":"大島町","address":"大島町元町字長沢344-1","lat":34.754052,"lon":139.361297},{"name":"岡田保育園","province":"東京都","city":"大島町","address":"大島町岡田字小堀73-1","lat":34.787152,"lon":139.3802},{"name":"差木地保育園","province":"東京都","city":"大島町","address":"大島町差木地2","lat":34.688425,"lon":139.403019},{"name":"波浮保育園","province":"東京都","city":"大島町","address":"大島町波浮港17","lat":34.694188,"lon":139.44046},{"name":"島しょ保健所大島出張所","province":"東京都","city":"大島町","address":"大島町元町字馬の背275-4","lat":34.756841,"lon":139.358125},{"name":"島しょ保健所大島出張所","province":"東京都","city":"大島町","address":"大島町元町字馬の背275-4","lat":34.75655,"lon":139.35907},{"name":"北ノ山保育園","province":"東京都","city":"大島町","address":"大島町元町字地の岡65-10","lat":34.774697,"lon":139.36173},{"name":"元町保育園","province":"東京都","city":"大島町","address":"大島町元町字長沢344-1","lat":34.754052,"lon":139.361297},{"name":"岡田保育園","province":"東京都","city":"大島町","address":"大島町岡田字小堀73-1","lat":34.787152,"lon":139.3802},{"name":"差木地保育園","province":"東京都","city":"大島町","address":"大島町差木地2","lat":34.688425,"lon":139.403019},{"name":"波浮保育園","province":"東京都","city":"大島町","address":"大島町波浮港17","lat":34.694188,"lon":139.44046},{"name":"島しょ保健所大島出張所","province":"東京都","city":"大島町","address":"大島町元町字馬の背275-4","lat":34.756841,"lon":139.358125},{"name":"島しょ保健所大島出張所","province":"東京都","city":"大島町","address":"大島町元町字馬の背275-4","lat":34.75655,"lon":139.35907},{"name":"北ノ山保育園","province":"東京都","city":"大島町","address":"大島町元町字地の岡65-10","lat":34.774697,"lon":139.36173},{"name":"元町保育園","province":"東京都","city":"大島町","address":"大島町元町字長沢344-1","lat":34.754052,"lon":139.361297},{"name":"岡田保育園","province":"東京都","city":"大島町","address":"大島町岡田字小堀73-1","lat":34.787152,"lon":139.3802},{"name":"差木地保育園","province":"東京都","city":"大島町","address":"大島町差木地2","lat":34.688425,"lon":139.403019},{"name":"波浮保育園","province":"東京都","city":"大島町","address":"大島町波浮港17","lat":34.694188,"lon":139.44046},{"name":"島しょ保健所大島出張所","province":"東京都","city":"大島町","address":"大島町元町字馬の背275-4","lat":34.756841,"lon":139.358125},{"name":"島しょ保健所大島出張所","province":"東京都","city":"大島町","address":"大島町元町字馬の背275-4","lat":34.75655,"lon":139.35907},{"name":"北ノ山保育園","province":"東京都","city":"大島町","address":"大島町元町字地の岡65-10","lat":34.774697,"lon":139.36173},{"name":"元町保育園","province":"東京都","city":"大島町","address":"大島町元町字長沢344-1","lat":34.754052,"lon":139.361297},{"name":"岡田保育園","province":"東京都","city":"大島町","address":"大島町岡田字小堀73-1","lat":34.787152,"lon":139.3802},{"name":"差木地保育園","province":"東京都","city":"大島町","address":"大島町差木地2","lat":34.688425,"lon":139.403019},{"name":"波浮保育園","province":"東京都","city":"大島町","address":"大島町波浮港17","lat":34.694188,"lon":139.44046},{"name":"島しょ保健所大島出張所","province":"東京都","city":"大島町","address":"大島町元町字馬の背275-4","lat":34.756841,"lon":139.358125},{"name":"島しょ保健所大島出張所","province":"東京都","city":"大島町","address":"大島町元町字馬の背275-4","lat":34.75655,"lon":139.35907},{"name":"北ノ山保育園","province":"東京都","city":"大島町","address":"大島町元町字地の岡65-10","lat":34.774697,"lon":139.36173},{"name":"元町保育園","province":"東京都","city":"大島町","address":"大島町元町字長沢344-1","lat":34.754052,"lon":139.361297},{"name":"岡田保育園","province":"東京都","city":"大島町","address":"大島町岡田字小堀73-1","lat":34.787152,"lon":139.3802},{"name":"差木地保育園","province":"東京都","city":"大島町","address":"大島町差木地2","lat":34.688425,"lon":139.403019},{"name":"波浮保育園","province":"東京都","city":"大島町","address":"大島町波浮港17","lat":34.694188,"lon":139.44046},{"name":"島しょ保健所大島出張所","province":"東京都","city":"大島町","address":"大島町元町字馬の背275-4","lat":34.756841,"lon":139.358125},{"name":"島しょ保健所大島出張所","province":"東京都","city":"大島町","address":"大島町元町字馬の背275-4","lat":34.75655,"lon":139.35907},{"name":"北ノ山保育園","province":"東京都","city":"大島町","address":"大島町元町字地の岡65-10","lat":34.774697,"lon":139.36173},{"name":"元町保育園","province":"東京都","city":"大島町","address":"大島町元町字長沢344-1","lat":34.754052,"lon":139.361297},{"name":"岡田保育園","province":"東京都","city":"大島町","address":"大島町岡田字小堀73-1","lat":34.787152,"lon":139.3802},{"name":"差木地保育園","province":"東京都","city":"大島町","address":"大島町差木地2","lat":34.688425,"lon":139.403019},{"name":"波浮保育園","province":"東京都","city":"大島町","address":"大島町波浮港17","lat":34.694188,"lon":139.44046},{"name":"島しょ保健所大島出張所","province":"東京都","city":"大島町","address":"大島町元町字馬の背275-4","lat":34.756841,"lon":139.358125},{"name":"島しょ保健所大島出張所","province":"東京都","city":"大島町","address":"大島町元町字馬の背275-4","lat":34.75655,"lon":139.35907},{"name":"北ノ山保育園","province":"東京都","city":"大島町","address":"大島町元町字地の岡65-10","lat":34.774697,"lon":139.36173},{"name":"元町保育園","province":"東京都","city":"大島町","address":"大島町元町字長沢344-1","lat":34.754052,"lon":139.361297},{"name":"岡田保育園","province":"東京都","city":"大島町","address":"大島町岡田字小堀73-1","lat":34.787152,"lon":139.3802},{"name":"差木地保育園","province":"東京都","city":"大島町","address":"大島町差木地2","lat":34.688425,"lon":139.403019},{"name":"波浮保育園","province":"東京都","city":"大島町","address":"大島町波浮港17","lat":34.694188,"lon":139.44046},{"name":"島しょ保健所大島出張所","province":"東京都","city":"大島町","address":"大島町元町字馬の背275-4","lat":34.756841,"lon":139.358125},{"name":"島しょ保健所大島出張所","province":"東京都","city":"大島町","address":"大島町元町字馬の背275-4","lat":34.75655,"lon":139.35907},{"name":"北ノ山保育園","province":"東京都","city":"大島町","address":"大島町元町字地の岡65-10","lat":34.774697,"lon":139.36173},{"name":"元町保育園","province":"東京都","city":"大島町","address":"大島町元町字長沢344-1","lat":34.754052,"lon":139.361297},{"name":"岡田保育園","province":"東京都","city":"大島町","address":"大島町岡田字小堀73-1","lat":34.787152,"lon":139.3802},{"name":"差木地保育園","province":"東京都","city":"大島町","address":"大島町差木地2","lat":34.688425,"lon":139.403019},{"name":"波浮保育園","province":"東京都","city":"大島町","address":"大島町波浮港17","lat":34.694188,"lon":139.44046},{"name":"島しょ保健所大島出張所","province":"東京都","city":"大島町","address":"大島町元町字馬の背275-4","lat":34.756841,"lon":139.358125},{"name":"島しょ保健所大島出張所","province":"東京都","city":"大島町","address":"大島町元町字馬の背275-4","lat":34.75655,"lon":139.35907},{"name":"北ノ山保育園","province":"東京都","city":"大島町","address":"大島町元町字地の岡65-10","lat":34.774697,"lon":139.36173},{"name":"元町保育園","province":"東京都","city":"大島町","address":"大島町元町字長沢344-1","lat":34.754052,"lon":139.361297},{"name":"岡田保育園","province":"東京都","city":"大島町","address":"大島町岡田字小堀73-1","lat":34.787152,"lon":139.3802},{"name":"差木地保育園","province":"東京都","city":"大島町","address":"大島町差木地2","lat":34.688425,"lon":139.403019},{"name":"波浮保育園","province":"東京都","city":"大島町","address":"大島町波浮港17","lat":34.694188,"lon":139.44046},{"name":"島しょ保健所大島出張所","province":"東京都","city":"大島町","address":"大島町元町字馬の背275-4","lat":34.756841,"lon":139.358125},{"name":"島しょ保健所大島出張所","province":"東京都","city":"大島町","address":"大島町元町字馬の背275-4","lat":34.75655,"lon":139.35907},{"name":"北ノ山保育園","province":"東京都","city":"大島町","address":"大島町元町字地の岡65-10","lat":34.774697,"lon":139.36173},{"name":"元町保育園","province":"東京都","city":"大島町","address":"大島町元町字長沢344-1","lat":34.754052,"lon":139.361297},{"name":"岡田保育園","province":"東京都","city":"大島町","address":"大島町岡田字小堀73-1","lat":34.787152,"lon":139.3802},{"name":"差木地保育園","province":"東京都","city":"大島町","address":"大島町差木地2","lat":34.688425,"lon":139.403019},{"name":"波浮保育園","province":"東京都","city":"大島町","address":"大島町波浮港17","lat":34.694188,"lon":139.44046},{"name":"島しょ保健所大島出張所","province":"東京都","city":"大島町","address":"大島町元町字馬の背275-4","lat":34.756841,"lon":139.358125},{"name":"島しょ保健所大島出張所","province":"東京都","city":"大島町","address":"大島町元町字馬の背275-4","lat":34.75655,"lon":139.35907},{"name":"北ノ山保育園","province":"東京都","city":"大島町","address":"大島町元町字地の岡65-10","lat":34.774697,"lon":139.36173},{"name":"元町保育園","province":"東京都","city":"大島町","address":"大島町元町字長沢344-1","lat":34.754052,"lon":139.361297},{"name":"岡田保育園","province":"東京都","city":"大島町","address":"大島町岡田字小堀73-1","lat":34.787152,"lon":139.3802},{"name":"差木地保育園","province":"東京都","city":"大島町","address":"大島町差木地2","lat":34.688425,"lon":139.403019},{"name":"波浮保育園","province":"東京都","city":"大島町","address":"大島町波浮港17","lat":34.694188,"lon":139.44046},{"name":"島しょ保健所大島出張所","province":"東京都","city":"大島町","address":"大島町元町字馬の背275-4","lat":34.756841,"lon":139.358125},{"name":"島しょ保健所大島出張所","province":"東京都","city":"大島町","address":"大島町元町字馬の背275-4","lat":34.75655,"lon":139.35907}]}