{"keyword":"商品","data":[{"name":"大島藤倉学園","province":"東京都","city":"大島町","address":"大島町元町字馬の背128","lat":34.763757,"lon":139.360686},{"name":"大島恵の園","province":"東京都","city":"大島町","address":"大島町差木地1","lat":34.690608,"lon":139.420234},{"name":"第２大島恵の園","province":"東京都","city":"大島町","address":"大島町差木地1","lat":34.690608,"lon":139.420234},{"name":"大島社会福祉協議会","province":"東京都","city":"大島町","address":"大島町元町2-1-4","lat":34.74958,"lon":139.355506},{"name":"大島町子ども家庭支援センター","province":"東京都","city":"大島町","address":"大島町野増字大宮","lat":34.733749,"lon":139.356854},{"name":"大島町けんこうセンター","province":"東京都","city":"大島町","address":"大島町岡田字沢立111-1","lat":34.782708,"lon":139.382367},{"name":"東京都大島支庁舎","province":"東京都","city":"大島町","address":"東京都大島町元町","lat":34.757454,"lon":139.357449},{"name":"大島公園椿園","province":"東京都","city":"大島町","address":"東京都大島町泉津","lat":34.763817,"lon":139.432882},{"name":"大島公園椿園","province":"東京都","city":"大島町","address":"東京都大島町泉津","lat":34.762335,"lon":139.433199},{"name":"大島公園椿園","province":"東京都","city":"大島町","address":"東京都大島町泉津","lat":34.762084,"lon":139.434043},{"name":"大島公園椿園","province":"東京都","city":"大島町","address":"東京都大島町泉津","lat":34.762193,"lon":139.434251},{"name":"海のふるさと村","province":"東京都","city":"大島町","address":"東京都大島町泉津","lat":34.744533,"lon":139.445267},{"name":"オタイネ浜園地","province":"東京都","city":"大島町","address":"東京都大島町波浮港","lat":34.701997,"lon":139.44438},{"name":"大島仲の原園地","province":"東京都","city":"大島町","address":"東京都大島町元町","lat":34.757134,"lon":139.351232},{"name":"大島泉浜園地","province":"東京都","city":"大島町","address":"東京都大島町元町","lat":34.767026,"lon":139.351608},{"name":"大島野田浜園地","province":"東京都","city":"大島町","address":"東京都大島町岡田","lat":34.796111,"lon":139.361255},{"name":"大島公園動物園","province":"東京都","city":"大島町","address":"東京都大島町泉津","lat":34.760698,"lon":139.435405},{"name":"大島御神火茶屋園地","province":"東京都","city":"大島町","address":"東京都大島町野増","lat":34.73772,"lon":139.379782},{"name":"大島御神火茶屋園地","province":"東京都","city":"大島町","address":"東京都大島町野増","lat":34.737821,"lon":139.380277},{"name":"大島公園動物園","province":"東京都","city":"大島町","address":"東京都大島町泉津","lat":34.761394,"lon":139.434495},{"name":"ヨウゴシ岬園地","province":"東京都","city":"大島町","address":"東京都大島町岡田","lat":34.786873,"lon":139.401554},{"name":"トウシキ野営場","province":"東京都","city":"大島町","address":"東京都大島町差木地","lat":34.681259,"lon":139.429782},{"name":"椿公園","province":"東京都","city":"大島町","address":"東京都大島町元町","lat":34.737595,"lon":139.358467},{"name":"メモリアル公園管理棟","province":"東京都","city":"大島町","address":"東京都大島町元町","lat":34.74549,"lon":139.365363},{"name":"野田浜園地公衆便所","province":"東京都","city":"大島町","address":"東京都大島町岡田","lat":34.79612,"lon":139.361269},{"name":"仲の原園地","province":"東京都","city":"大島町","address":"東京都大島町元町","lat":34.757134,"lon":139.351232},{"name":"オタイネ浜園地","province":"東京都","city":"大島町","address":"東京都大島町波浮港","lat":34.70201,"lon":139.444409},{"name":"波浮港鉄砲場","province":"東京都","city":"大島町","address":"東京都大島町波浮港","lat":34.686037,"lon":139.442721},{"name":"三原山展望避難休憩舎","province":"東京都","city":"大島町","address":"東京都大島町野増","lat":34.73839,"lon":139.380413},{"name":"弘法浜サンセットプール","province":"東京都","city":"大島町","address":"東京都大島町元町2丁目20","lat":34.745061,"lon":139.355535},{"name":"大島けんこうセンター","province":"東京都","city":"大島町","address":"東京都大島町岡田沢立（字）111-1","lat":34.78270795,"lon":139.38236697},{"name":"大島社会福祉協議会","province":"東京都","city":"大島町","address":"大島町元町2-1-4","lat":34.74951,"lon":139.35573},{"name":"大島支庁","province":"東京都","city":"大島町","address":"大島町元町字オンダシ222-1","lat":34.75751,"lon":139.35737},{"name":"大島けんこうセンター","province":"東京都","city":"大島町","address":"大島町岡田字沢立111-1","lat":34.78303,"lon":139.38251},{"name":"大島町子ども家庭支援センター","province":"東京都","city":"大島町","address":"大島町元町字丸塚548-1","lat":34.76086,"lon":139.37244},{"name":"大島支庁","province":"東京都","city":"大島町","address":"大島町元町字赤禿90-14","lat":34.76086,"lon":139.37244},{"name":"大島けんこうセンター","province":"東京都","city":"大島町","address":"大島町岡田字沢立111-1","lat":34.782708,"lon":139.382367},{"name":"大島町子ども家庭支援センター","province":"東京都","city":"大島町","address":"大島町野増字大宮","lat":34.7169,"lon":139.37723},{"name":"大島町火葬場","province":"東京都","city":"大島町","address":"東京都大島町元町黒まま（字）352-3","lat":34.75322759,"lon":139.36510537},{"name":"大島支庁","province":"東京都","city":"大島町","address":"大島町元町字オンダシ222-1","lat":34.757485,"lon":139.35765},{"name":"大島町野増清掃工場","province":"東京都","city":"大島町","address":"大島町野増字クヅアラ638-1","lat":34.715286,"lon":139.357788},{"name":"大島藤倉学園","province":"東京都","city":"大島町","address":"大島町元町字馬の背128","lat":34.763757,"lon":139.360686},{"name":"大島恵の園","province":"東京都","city":"大島町","address":"大島町差木地1","lat":34.690608,"lon":139.420234},{"name":"第２大島恵の園","province":"東京都","city":"大島町","address":"大島町差木地1","lat":34.690608,"lon":139.420234},{"name":"大島町子ども家庭支援センター","province":"東京都","city":"大島町","address":"大島町野増字大宮","lat":34.733749,"lon":139.356854},{"name":"大島町けんこうセンター","province":"東京都","city":"大島町","address":"大島町岡田字沢立111-1","lat":34.782708,"lon":139.382367},{"name":"東京都大島支庁舎","province":"東京都","city":"大島町","address":"東京都大島町元町","lat":34.757454,"lon":139.357449},{"name":"大島公園椿園","province":"東京都","city":"大島町","address":"東京都大島町泉津","lat":34.763817,"lon":139.432882},{"name":"大島公園椿園","province":"東京都","city":"大島町","address":"東京都大島町泉津","lat":34.762335,"lon":139.433199},{"name":"大島公園椿園","province":"東京都","city":"大島町","address":"東京都大島町泉津","lat":34.762084,"lon":139.434043},{"name":"大島公園椿園","province":"東京都","city":"大島町","address":"東京都大島町泉津","lat":34.762193,"lon":139.434251},{"name":"海のふるさと村","province":"東京都","city":"大島町","address":"東京都大島町泉津","lat":34.744533,"lon":139.445267},{"name":"オタイネ浜園地","province":"東京都","city":"大島町","address":"東京都大島町波浮港","lat":34.701997,"lon":139.44438},{"name":"大島仲の原園地","province":"東京都","city":"大島町","address":"東京都大島町元町","lat":34.757134,"lon":139.351232},{"name":"大島泉浜園地","province":"東京都","city":"大島町","address":"東京都大島町元町","lat":34.767026,"lon":139.351608},{"name":"大島野田浜園地","province":"東京都","city":"大島町","address":"東京都大島町岡田","lat":34.796111,"lon":139.361255},{"name":"大島公園動物園","province":"東京都","city":"大島町","address":"東京都大島町泉津","lat":34.760698,"lon":139.435405},{"name":"大島御神火茶屋園地","province":"東京都","city":"大島町","address":"東京都大島町野増","lat":34.73772,"lon":139.379782},{"name":"大島御神火茶屋園地","province":"東京都","city":"大島町","address":"東京都大島町野増","lat":34.737821,"lon":139.380277},{"name":"大島公園動物園","province":"東京都","city":"大島町","address":"東京都大島町泉津","lat":34.761394,"lon":139.434495},{"name":"ヨウゴシ岬園地","province":"東京都","city":"大島町","address":"東京都大島町岡田","lat":34.786873,"lon":139.401554},{"name":"トウシキ野営場","province":"東京都","city":"大島町","address":"東京都大島町差木地","lat":34.681259,"lon":139.429782},{"name":"椿公園","province":"東京都","city":"大島町","address":"東京都大島町元町","lat":34.737595,"lon":139.358467},{"name":"メモリアル公園管理棟","province":"東京都","city":"大島町","address":"東京都大島町元町","lat":34.74549,"lon":139.365363},{"name":"野田浜園地公衆便所","province":"東京都","city":"大島町","address":"東京都大島町岡田","lat":34.79612,"lon":139.361269},{"name":"仲の原園地","province":"東京都","city":"大島町","address":"東京都大島町元町","lat":34.757134,"lon":139.351232},{"name":"オタイネ浜園地","province":"東京都","city":"大島町","address":"東京都大島町波浮港","lat":34.70201,"lon":139.444409},{"name":"波浮港鉄砲場","province":"東京都","city":"大島町","address":"東京都大島町波浮港","lat":34.686037,"lon":139.442721},{"name":"三原山展望避難休憩舎","province":"東京都","city":"大島町","address":"東京都大島町野増","lat":34.73839,"lon":139.380413},{"name":"弘法浜サンセットプール","province":"東京都","city":"大島町","address":"東京都大島町元町2丁目20","lat":34.745061,"lon":139.355535},{"name":"大島けんこうセンター","province":"東京都","city":"大島町","address":"東京都大島町岡田沢立（字）111-1","lat":34.78270795,"lon":139.38236697},{"name":"大島支庁","province":"東京都","city":"大島町","address":"大島町元町字オンダシ222-1","lat":34.75751,"lon":139.35737},{"name":"大島けんこうセンター","province":"東京都","city":"大島町","address":"大島町岡田字沢立111-1","lat":34.78303,"lon":139.38251},{"name":"大島町子ども家庭支援センター","province":"東京都","city":"大島町","address":"大島町元町字丸塚548-1","lat":34.76086,"lon":139.37244},{"name":"大島支庁","province":"東京都","city":"大島町","address":"大島町元町字赤禿90-14","lat":34.76086,"lon":139.37244},{"name":"大島けんこうセンター","province":"東京都","city":"大島町","address":"大島町岡田字沢立111-1","lat":34.782708,"lon":139.382367},{"name":"大島町子ども家庭支援センター","province":"東京都","city":"大島町","address":"大島町野増字大宮","lat":34.7169,"lon":139.37723},{"name":"大島支庁","province":"東京都","city":"大島町","address":"大島町元町字オンダシ222-1","lat":34.757485,"lon":139.35765},{"name":"大島藤倉学園","province":"東京都","city":"大島町","address":"大島町元町字馬の背128","lat":34.763757,"lon":139.360686},{"name":"大島恵の園","province":"東京都","city":"大島町","address":"大島町差木地1","lat":34.690608,"lon":139.420234},{"name":"第２大島恵の園","province":"東京都","city":"大島町","address":"大島町差木地1","lat":34.690608,"lon":139.420234},{"name":"大島支庁","province":"東京都","city":"大島町","address":"大島町元町字オンダシ222-1","lat":34.75751,"lon":139.35737},{"name":"大島支庁","province":"東京都","city":"大島町","address":"大島町元町字赤禿90-14","lat":34.76086,"lon":139.37244},{"name":"大島支庁","province":"東京都","city":"大島町","address":"大島町元町字オンダシ222-1","lat":34.757485,"lon":139.35765},{"name":"大島藤倉学園","province":"東京都","city":"大島町","address":"大島町元町字馬の背128","lat":34.763757,"lon":139.360686},{"name":"大島恵の園","province":"東京都","city":"大島町","address":"大島町差木地1","lat":34.690608,"lon":139.420234},{"name":"第２大島恵の園","province":"東京都","city":"大島町","address":"大島町差木地1","lat":34.690608,"lon":139.420234},{"name":"大島支庁","province":"東京都","city":"大島町","address":"大島町元町字オンダシ222-1","lat":34.75751,"lon":139.35737},{"name":"大島支庁","province":"東京都","city":"大島町","address":"大島町元町字赤禿90-14","lat":34.76086,"lon":139.37244},{"name":"大島支庁","province":"東京都","city":"大島町","address":"大島町元町字オンダシ222-1","lat":34.757485,"lon":139.35765},{"name":"大島藤倉学園","province":"東京都","city":"大島町","address":"大島町元町字馬の背128","lat":34.763757,"lon":139.360686},{"name":"大島恵の園","province":"東京都","city":"大島町","address":"大島町差木地1","lat":34.690608,"lon":139.420234},{"name":"第２大島恵の園","province":"東京都","city":"大島町","address":"大島町差木地1","lat":34.690608,"lon":139.420234},{"name":"大島支庁","province":"東京都","city":"大島町","address":"大島町元町字オンダシ222-1","lat":34.75751,"lon":139.35737},{"name":"大島支庁","province":"東京都","city":"大島町","address":"大島町元町字赤禿90-14","lat":34.76086,"lon":139.37244},{"name":"大島支庁","province":"東京都","city":"大島町","address":"大島町元町字オンダシ222-1","lat":34.757485,"lon":139.35765},{"name":"大島藤倉学園","province":"東京都","city":"大島町","address":"大島町元町字馬の背128","lat":34.763757,"lon":139.360686},{"name":"大島恵の園","province":"東京都","city":"大島町","address":"大島町差木地1","lat":34.690608,"lon":139.420234},{"name":"第２大島恵の園","province":"東京都","city":"大島町","address":"大島町差木地1","lat":34.690608,"lon":139.420234},{"name":"大島支庁","province":"東京都","city":"大島町","address":"大島町元町字オンダシ222-1","lat":34.75751,"lon":139.35737},{"name":"大島支庁","province":"東京都","city":"大島町","address":"大島町元町字赤禿90-14","lat":34.76086,"lon":139.37244},{"name":"大島支庁","province":"東京都","city":"大島町","address":"大島町元町字オンダシ222-1","lat":34.757485,"lon":139.35765},{"name":"大島藤倉学園","province":"東京都","city":"大島町","address":"大島町元町字馬の背128","lat":34.763757,"lon":139.360686},{"name":"大島恵の園","province":"東京都","city":"大島町","address":"大島町差木地1","lat":34.690608,"lon":139.420234},{"name":"第２大島恵の園","province":"東京都","city":"大島町","address":"大島町差木地1","lat":34.690608,"lon":139.420234},{"name":"大島支庁","province":"東京都","city":"大島町","address":"大島町元町字オンダシ222-1","lat":34.75751,"lon":139.35737},{"name":"大島支庁","province":"東京都","city":"大島町","address":"大島町元町字赤禿90-14","lat":34.76086,"lon":139.37244},{"name":"大島支庁","province":"東京都","city":"大島町","address":"大島町元町字オンダシ222-1","lat":34.757485,"lon":139.35765},{"name":"大島藤倉学園","province":"東京都","city":"大島町","address":"大島町元町字馬の背128","lat":34.763757,"lon":139.360686},{"name":"大島恵の園","province":"東京都","city":"大島町","address":"大島町差木地1","lat":34.690608,"lon":139.420234},{"name":"第２大島恵の園","province":"東京都","city":"大島町","address":"大島町差木地1","lat":34.690608,"lon":139.420234},{"name":"大島支庁","province":"東京都","city":"大島町","address":"大島町元町字オンダシ222-1","lat":34.75751,"lon":139.35737},{"name":"大島支庁","province":"東京都","city":"大島町","address":"大島町元町字赤禿90-14","lat":34.76086,"lon":139.37244},{"name":"大島支庁","province":"東京都","city":"大島町","address":"大島町元町字オンダシ222-1","lat":34.757485,"lon":139.35765},{"name":"大島藤倉学園","province":"東京都","city":"大島町","address":"大島町元町字馬の背128","lat":34.763757,"lon":139.360686},{"name":"大島恵の園","province":"東京都","city":"大島町","address":"大島町差木地1","lat":34.690608,"lon":139.420234},{"name":"第２大島恵の園","province":"東京都","city":"大島町","address":"大島町差木地1","lat":34.690608,"lon":139.420234},{"name":"大島支庁","province":"東京都","city":"大島町","address":"大島町元町字オンダシ222-1","lat":34.75751,"lon":139.35737},{"name":"大島支庁","province":"東京都","city":"大島町","address":"大島町元町字赤禿90-14","lat":34.76086,"lon":139.37244},{"name":"大島支庁","province":"東京都","city":"大島町","address":"大島町元町字オンダシ222-1","lat":34.757485,"lon":139.35765},{"name":"大島藤倉学園","province":"東京都","city":"大島町","address":"大島町元町字馬の背128","lat":34.763757,"lon":139.360686},{"name":"大島恵の園","province":"東京都","city":"大島町","address":"大島町差木地1","lat":34.690608,"lon":139.420234},{"name":"第２大島恵の園","province":"東京都","city":"大島町","address":"大島町差木地1","lat":34.690608,"lon":139.420234},{"name":"大島支庁","province":"東京都","city":"大島町","address":"大島町元町字オンダシ222-1","lat":34.75751,"lon":139.35737},{"name":"大島支庁","province":"東京都","city":"大島町","address":"大島町元町字赤禿90-14","lat":34.76086,"lon":139.37244},{"name":"大島支庁","province":"東京都","city":"大島町","address":"大島町元町字オンダシ222-1","lat":34.757485,"lon":139.35765},{"name":"大島藤倉学園","province":"東京都","city":"大島町","address":"大島町元町字馬の背128","lat":34.763757,"lon":139.360686},{"name":"大島恵の園","province":"東京都","city":"大島町","address":"大島町差木地1","lat":34.690608,"lon":139.420234},{"name":"第２大島恵の園","province":"東京都","city":"大島町","address":"大島町差木地1","lat":34.690608,"lon":139.420234},{"name":"大島支庁","province":"東京都","city":"大島町","address":"大島町元町字オンダシ222-1","lat":34.75751,"lon":139.35737},{"name":"大島支庁","province":"東京都","city":"大島町","address":"大島町元町字赤禿90-14","lat":34.76086,"lon":139.37244},{"name":"大島支庁","province":"東京都","city":"大島町","address":"大島町元町字オンダシ222-1","lat":34.757485,"lon":139.35765},{"name":"大島藤倉学園","province":"東京都","city":"大島町","address":"大島町元町字馬の背128","lat":34.763757,"lon":139.360686},{"name":"大島恵の園","province":"東京都","city":"大島町","address":"大島町差木地1","lat":34.690608,"lon":139.420234},{"name":"第２大島恵の園","province":"東京都","city":"大島町","address":"大島町差木地1","lat":34.690608,"lon":139.420234},{"name":"大島支庁","province":"東京都","city":"大島町","address":"大島町元町字オンダシ222-1","lat":34.75751,"lon":139.35737},{"name":"大島支庁","province":"東京都","city":"大島町","address":"大島町元町字赤禿90-14","lat":34.76086,"lon":139.37244},{"name":"大島支庁","province":"東京都","city":"大島町","address":"大島町元町字オンダシ222-1","lat":34.757485,"lon":139.35765},{"name":"大島藤倉学園","province":"東京都","city":"大島町","address":"大島町元町字馬の背128","lat":34.763757,"lon":139.360686},{"name":"大島恵の園","province":"東京都","city":"大島町","address":"大島町差木地1","lat":34.690608,"lon":139.420234},{"name":"第２大島恵の園","province":"東京都","city":"大島町","address":"大島町差木地1","lat":34.690608,"lon":139.420234},{"name":"大島支庁","province":"東京都","city":"大島町","address":"大島町元町字オンダシ222-1","lat":34.75751,"lon":139.35737},{"name":"大島支庁","province":"東京都","city":"大島町","address":"大島町元町字赤禿90-14","lat":34.76086,"lon":139.37244},{"name":"大島支庁","province":"東京都","city":"大島町","address":"大島町元町字オンダシ222-1","lat":34.757485,"lon":139.35765},{"name":"大島藤倉学園","province":"東京都","city":"大島町","address":"大島町元町字馬の背128","lat":34.763757,"lon":139.360686},{"name":"大島恵の園","province":"東京都","city":"大島町","address":"大島町差木地1","lat":34.690608,"lon":139.420234},{"name":"第２大島恵の園","province":"東京都","city":"大島町","address":"大島町差木地1","lat":34.690608,"lon":139.420234},{"name":"大島支庁","province":"東京都","city":"大島町","address":"大島町元町字オンダシ222-1","lat":34.75751,"lon":139.35737},{"name":"大島支庁","province":"東京都","city":"大島町","address":"大島町元町字赤禿90-14","lat":34.76086,"lon":139.37244},{"name":"大島支庁","province":"東京都","city":"大島町","address":"大島町元町字オンダシ222-1","lat":34.757485,"lon":139.35765},{"name":"大島藤倉学園","province":"東京都","city":"大島町","address":"大島町元町字馬の背128","lat":34.763757,"lon":139.360686},{"name":"大島恵の園","province":"東京都","city":"大島町","address":"大島町差木地1","lat":34.690608,"lon":139.420234},{"name":"第２大島恵の園","province":"東京都","city":"大島町","address":"大島町差木地1","lat":34.690608,"lon":139.420234},{"name":"大島支庁","province":"東京都","city":"大島町","address":"大島町元町字オンダシ222-1","lat":34.75751,"lon":139.35737},{"name":"大島支庁","province":"東京都","city":"大島町","address":"大島町元町字赤禿90-14","lat":34.76086,"lon":139.37244},{"name":"大島支庁","province":"東京都","city":"大島町","address":"大島町元町字オンダシ222-1","lat":34.757485,"lon":139.35765},{"name":"大島藤倉学園","province":"東京都","city":"大島町","address":"大島町元町字馬の背128","lat":34.763757,"lon":139.360686},{"name":"大島恵の園","province":"東京都","city":"大島町","address":"大島町差木地1","lat":34.690608,"lon":139.420234},{"name":"第２大島恵の園","province":"東京都","city":"大島町","address":"大島町差木地1","lat":34.690608,"lon":139.420234},{"name":"大島支庁","province":"東京都","city":"大島町","address":"大島町元町字オンダシ222-1","lat":34.75751,"lon":139.35737},{"name":"大島支庁","province":"東京都","city":"大島町","address":"大島町元町字赤禿90-14","lat":34.76086,"lon":139.37244},{"name":"大島支庁","province":"東京都","city":"大島町","address":"大島町元町字オンダシ222-1","lat":34.757485,"lon":139.35765},{"name":"大島藤倉学園","province":"東京都","city":"大島町","address":"大島町元町字馬の背128","lat":34.763757,"lon":139.360686},{"name":"大島恵の園","province":"東京都","city":"大島町","address":"大島町差木地1","lat":34.690608,"lon":139.420234},{"name":"第２大島恵の園","province":"東京都","city":"大島町","address":"大島町差木地1","lat":34.690608,"lon":139.420234},{"name":"大島支庁","province":"東京都","city":"大島町","address":"大島町元町字オンダシ222-1","lat":34.75751,"lon":139.35737},{"name":"大島支庁","province":"東京都","city":"大島町","address":"大島町元町字赤禿90-14","lat":34.76086,"lon":139.37244},{"name":"大島支庁","province":"東京都","city":"大島町","address":"大島町元町字オンダシ222-1","lat":34.757485,"lon":139.35765},{"name":"大島藤倉学園","province":"東京都","city":"大島町","address":"大島町元町字馬の背128","lat":34.763757,"lon":139.360686},{"name":"大島恵の園","province":"東京都","city":"大島町","address":"大島町差木地1","lat":34.690608,"lon":139.420234},{"name":"第２大島恵の園","province":"東京都","city":"大島町","address":"大島町差木地1","lat":34.690608,"lon":139.420234},{"name":"大島支庁","province":"東京都","city":"大島町","address":"大島町元町字オンダシ222-1","lat":34.75751,"lon":139.35737},{"name":"大島支庁","province":"東京都","city":"大島町","address":"大島町元町字赤禿90-14","lat":34.76086,"lon":139.37244},{"name":"大島支庁","province":"東京都","city":"大島町","address":"大島町元町字オンダシ222-1","lat":34.757485,"lon":139.35765},{"name":"大島藤倉学園","province":"東京都","city":"大島町","address":"大島町元町字馬の背128","lat":34.763757,"lon":139.360686},{"name":"大島恵の園","province":"東京都","city":"大島町","address":"大島町差木地1","lat":34.690608,"lon":139.420234},{"name":"第２大島恵の園","province":"東京都","city":"大島町","address":"大島町差木地1","lat":34.690608,"lon":139.420234},{"name":"大島支庁","province":"東京都","city":"大島町","address":"大島町元町字オンダシ222-1","lat":34.75751,"lon":139.35737},{"name":"大島支庁","province":"東京都","city":"大島町","address":"大島町元町字赤禿90-14","lat":34.76086,"lon":139.37244},{"name":"大島支庁","province":"東京都","city":"大島町","address":"大島町元町字オンダシ222-1","lat":34.757485,"lon":139.35765},{"name":"大島藤倉学園","province":"東京都","city":"大島町","address":"大島町元町字馬の背128","lat":34.763757,"lon":139.360686},{"name":"大島恵の園","province":"東京都","city":"大島町","address":"大島町差木地1","lat":34.690608,"lon":139.420234},{"name":"第２大島恵の園","province":"東京都","city":"大島町","address":"大島町差木地1","lat":34.690608,"lon":139.420234},{"name":"大島支庁","province":"東京都","city":"大島町","address":"大島町元町字オンダシ222-1","lat":34.75751,"lon":139.35737},{"name":"大島支庁","province":"東京都","city":"大島町","address":"大島町元町字赤禿90-14","lat":34.76086,"lon":139.37244},{"name":"大島支庁","province":"東京都","city":"大島町","address":"大島町元町字オンダシ222-1","lat":34.757485,"lon":139.35765},{"name":"大島藤倉学園","province":"東京都","city":"大島町","address":"大島町元町字馬の背128","lat":34.763757,"lon":139.360686},{"name":"大島恵の園","province":"東京都","city":"大島町","address":"大島町差木地1","lat":34.690608,"lon":139.420234},{"name":"第２大島恵の園","province":"東京都","city":"大島町","address":"大島町差木地1","lat":34.690608,"lon":139.420234},{"name":"大島支庁","province":"東京都","city":"大島町","address":"大島町元町字オンダシ222-1","lat":34.75751,"lon":139.35737},{"name":"大島支庁","province":"東京都","city":"大島町","address":"大島町元町字赤禿90-14","lat":34.76086,"lon":139.37244},{"name":"大島支庁","province":"東京都","city":"大島町","address":"大島町元町字オンダシ222-1","lat":34.757485,"lon":139.35765},{"name":"大島藤倉学園","province":"東京都","city":"大島町","address":"大島町元町字馬の背128","lat":34.763757,"lon":139.360686},{"name":"大島恵の園","province":"東京都","city":"大島町","address":"大島町差木地1","lat":34.690608,"lon":139.420234},{"name":"第２大島恵の園","province":"東京都","city":"大島町","address":"大島町差木地1","lat":34.690608,"lon":139.420234},{"name":"大島支庁","province":"東京都","city":"大島町","address":"大島町元町字オンダシ222-1","lat":34.75751,"lon":139.35737},{"name":"大島支庁","province":"東京都","city":"大島町","address":"大島町元町字赤禿90-14","lat":34.76086,"lon":139.37244},{"name":"大島支庁","province":"東京都","city":"大島町","address":"大島町元町字オンダシ222-1","lat":34.757485,"lon":139.35765},{"name":"大島藤倉学園","province":"東京都","city":"大島町","address":"大島町元町字馬の背128","lat":34.763757,"lon":139.360686},{"name":"大島恵の園","province":"東京都","city":"大島町","address":"大島町差木地1","lat":34.690608,"lon":139.420234},{"name":"第２大島恵の園","province":"東京都","city":"大島町","address":"大島町差木地1","lat":34.690608,"lon":139.420234},{"name":"大島支庁","province":"東京都","city":"大島町","address":"大島町元町字オンダシ222-1","lat":34.75751,"lon":139.35737},{"name":"大島支庁","province":"東京都","city":"大島町","address":"大島町元町字赤禿90-14","lat":34.76086,"lon":139.37244},{"name":"大島支庁","province":"東京都","city":"大島町","address":"大島町元町字オンダシ222-1","lat":34.757485,"lon":139.35765},{"name":"大島藤倉学園","province":"東京都","city":"大島町","address":"大島町元町字馬の背128","lat":34.763757,"lon":139.360686},{"name":"大島恵の園","province":"東京都","city":"大島町","address":"大島町差木地1","lat":34.690608,"lon":139.420234},{"name":"第２大島恵の園","province":"東京都","city":"大島町","address":"大島町差木地1","lat":34.690608,"lon":139.420234},{"name":"大島支庁","province":"東京都","city":"大島町","address":"大島町元町字オンダシ222-1","lat":34.75751,"lon":139.35737},{"name":"大島支庁","province":"東京都","city":"大島町","address":"大島町元町字赤禿90-14","lat":34.76086,"lon":139.37244},{"name":"大島支庁","province":"東京都","city":"大島町","address":"大島町元町字オンダシ222-1","lat":34.757485,"lon":139.35765},{"name":"大島藤倉学園","province":"東京都","city":"大島町","address":"大島町元町字馬の背128","lat":34.763757,"lon":139.360686},{"name":"大島恵の園","province":"東京都","city":"大島町","address":"大島町差木地1","lat":34.690608,"lon":139.420234},{"name":"第２大島恵の園","province":"東京都","city":"大島町","address":"大島町差木地1","lat":34.690608,"lon":139.420234},{"name":"大島支庁","province":"東京都","city":"大島町","address":"大島町元町字オンダシ222-1","lat":34.75751,"lon":139.35737},{"name":"大島支庁","province":"東京都","city":"大島町","address":"大島町元町字赤禿90-14","lat":34.76086,"lon":139.37244},{"name":"大島支庁","province":"東京都","city":"大島町","address":"大島町元町字オンダシ222-1","lat":34.757485,"lon":139.35765},{"name":"大島藤倉学園","province":"東京都","city":"大島町","address":"大島町元町字馬の背128","lat":34.763757,"lon":139.360686},{"name":"大島恵の園","province":"東京都","city":"大島町","address":"大島町差木地1","lat":34.690608,"lon":139.420234},{"name":"第２大島恵の園","province":"東京都","city":"大島町","address":"大島町差木地1","lat":34.690608,"lon":139.420234},{"name":"大島支庁","province":"東京都","city":"大島町","address":"大島町元町字オンダシ222-1","lat":34.75751,"lon":139.35737},{"name":"大島支庁","province":"東京都","city":"大島町","address":"大島町元町字赤禿90-14","lat":34.76086,"lon":139.37244},{"name":"大島支庁","province":"東京都","city":"大島町","address":"大島町元町字オンダシ222-1","lat":34.757485,"lon":139.35765},{"name":"大島藤倉学園","province":"東京都","city":"大島町","address":"大島町元町字馬の背128","lat":34.763757,"lon":139.360686},{"name":"大島恵の園","province":"東京都","city":"大島町","address":"大島町差木地1","lat":34.690608,"lon":139.420234},{"name":"第２大島恵の園","province":"東京都","city":"大島町","address":"大島町差木地1","lat":34.690608,"lon":139.420234},{"name":"大島支庁","province":"東京都","city":"大島町","address":"大島町元町字オンダシ222-1","lat":34.75751,"lon":139.35737},{"name":"大島支庁","province":"東京都","city":"大島町","address":"大島町元町字赤禿90-14","lat":34.76086,"lon":139.37244},{"name":"大島支庁","province":"東京都","city":"大島町","address":"大島町元町字オンダシ222-1","lat":34.757485,"lon":139.35765},{"name":"大島藤倉学園","province":"東京都","city":"大島町","address":"大島町元町字馬の背128","lat":34.763757,"lon":139.360686},{"name":"大島恵の園","province":"東京都","city":"大島町","address":"大島町差木地1","lat":34.690608,"lon":139.420234},{"name":"第２大島恵の園","province":"東京都","city":"大島町","address":"大島町差木地1","lat":34.690608,"lon":139.420234},{"name":"大島支庁","province":"東京都","city":"大島町","address":"大島町元町字オンダシ222-1","lat":34.75751,"lon":139.35737},{"name":"大島支庁","province":"東京都","city":"大島町","address":"大島町元町字赤禿90-14","lat":34.76086,"lon":139.37244},{"name":"大島支庁","province":"東京都","city":"大島町","address":"大島町元町字オンダシ222-1","lat":34.757485,"lon":139.35765},{"name":"大島藤倉学園","province":"東京都","city":"大島町","address":"大島町元町字馬の背128","lat":34.763757,"lon":139.360686},{"name":"大島恵の園","province":"東京都","city":"大島町","address":"大島町差木地1","lat":34.690608,"lon":139.420234},{"name":"第２大島恵の園","province":"東京都","city":"大島町","address":"大島町差木地1","lat":34.690608,"lon":139.420234},{"name":"大島支庁","province":"東京都","city":"大島町","address":"大島町元町字オンダシ222-1","lat":34.75751,"lon":139.35737},{"name":"大島支庁","province":"東京都","city":"大島町","address":"大島町元町字赤禿90-14","lat":34.76086,"lon":139.37244},{"name":"大島支庁","province":"東京都","city":"大島町","address":"大島町元町字オンダシ222-1","lat":34.757485,"lon":139.35765},{"name":"大島藤倉学園","province":"東京都","city":"大島町","address":"大島町元町字馬の背128","lat":34.763757,"lon":139.360686},{"name":"大島恵の園","province":"東京都","city":"大島町","address":"大島町差木地1","lat":34.690608,"lon":139.420234},{"name":"第２大島恵の園","province":"東京都","city":"大島町","address":"大島町差木地1","lat":34.690608,"lon":139.420234},{"name":"大島支庁","province":"東京都","city":"大島町","address":"大島町元町字オンダシ222-1","lat":34.75751,"lon":139.35737},{"name":"大島支庁","province":"東京都","city":"大島町","address":"大島町元町字赤禿90-14","lat":34.76086,"lon":139.37244},{"name":"大島支庁","province":"東京都","city":"大島町","address":"大島町元町字オンダシ222-1","lat":34.757485,"lon":139.35765},{"name":"大島藤倉学園","province":"東京都","city":"大島町","address":"大島町元町字馬の背128","lat":34.763757,"lon":139.360686},{"name":"大島恵の園","province":"東京都","city":"大島町","address":"大島町差木地1","lat":34.690608,"lon":139.420234},{"name":"第２大島恵の園","province":"東京都","city":"大島町","address":"大島町差木地1","lat":34.690608,"lon":139.420234},{"name":"大島支庁","province":"東京都","city":"大島町","address":"大島町元町字オンダシ222-1","lat":34.75751,"lon":139.35737},{"name":"大島支庁","province":"東京都","city":"大島町","address":"大島町元町字赤禿90-14","lat":34.76086,"lon":139.37244},{"name":"大島支庁","province":"東京都","city":"大島町","address":"大島町元町字オンダシ222-1","lat":34.757485,"lon":139.35765},{"name":"大島藤倉学園","province":"東京都","city":"大島町","address":"大島町元町字馬の背128","lat":34.763757,"lon":139.360686},{"name":"大島恵の園","province":"東京都","city":"大島町","address":"大島町差木地1","lat":34.690608,"lon":139.420234},{"name":"第２大島恵の園","province":"東京都","city":"大島町","address":"大島町差木地1","lat":34.690608,"lon":139.420234},{"name":"大島支庁","province":"東京都","city":"大島町","address":"大島町元町字オンダシ222-1","lat":34.75751,"lon":139.35737},{"name":"大島支庁","province":"東京都","city":"大島町","address":"大島町元町字赤禿90-14","lat":34.76086,"lon":139.37244},{"name":"大島支庁","province":"東京都","city":"大島町","address":"大島町元町字オンダシ222-1","lat":34.757485,"lon":139.35765},{"name":"大島藤倉学園","province":"東京都","city":"大島町","address":"大島町元町字馬の背128","lat":34.763757,"lon":139.360686},{"name":"大島恵の園","province":"東京都","city":"大島町","address":"大島町差木地1","lat":34.690608,"lon":139.420234},{"name":"第２大島恵の園","province":"東京都","city":"大島町","address":"大島町差木地1","lat":34.690608,"lon":139.420234},{"name":"大島支庁","province":"東京都","city":"大島町","address":"大島町元町字オンダシ222-1","lat":34.75751,"lon":139.35737},{"name":"大島支庁","province":"東京都","city":"大島町","address":"大島町元町字赤禿90-14","lat":34.76086,"lon":139.37244},{"name":"大島支庁","province":"東京都","city":"大島町","address":"大島町元町字オンダシ222-1","lat":34.757485,"lon":139.35765},{"name":"大島藤倉学園","province":"東京都","city":"大島町","address":"大島町元町字馬の背128","lat":34.763757,"lon":139.360686},{"name":"大島恵の園","province":"東京都","city":"大島町","address":"大島町差木地1","lat":34.690608,"lon":139.420234},{"name":"第２大島恵の園","province":"東京都","city":"大島町","address":"大島町差木地1","lat":34.690608,"lon":139.420234},{"name":"大島支庁","province":"東京都","city":"大島町","address":"大島町元町字オンダシ222-1","lat":34.75751,"lon":139.35737},{"name":"大島支庁","province":"東京都","city":"大島町","address":"大島町元町字赤禿90-14","lat":34.76086,"lon":139.37244},{"name":"大島支庁","province":"東京都","city":"大島町","address":"大島町元町字オンダシ222-1","lat":34.757485,"lon":139.35765},{"name":"大島藤倉学園","province":"東京都","city":"大島町","address":"大島町元町字馬の背128","lat":34.763757,"lon":139.360686},{"name":"大島恵の園","province":"東京都","city":"大島町","address":"大島町差木地1","lat":34.690608,"lon":139.420234},{"name":"第２大島恵の園","province":"東京都","city":"大島町","address":"大島町差木地1","lat":34.690608,"lon":139.420234},{"name":"大島支庁","province":"東京都","city":"大島町","address":"大島町元町字オンダシ222-1","lat":34.75751,"lon":139.35737},{"name":"大島支庁","province":"東京都","city":"大島町","address":"大島町元町字赤禿90-14","lat":34.76086,"lon":139.37244},{"name":"大島支庁","province":"東京都","city":"大島町","address":"大島町元町字オンダシ222-1","lat":34.757485,"lon":139.35765},{"name":"大島藤倉学園","province":"東京都","city":"大島町","address":"大島町元町字馬の背128","lat":34.763757,"lon":139.360686},{"name":"大島恵の園","province":"東京都","city":"大島町","address":"大島町差木地1","lat":34.690608,"lon":139.420234},{"name":"第２大島恵の園","province":"東京都","city":"大島町","address":"大島町差木地1","lat":34.690608,"lon":139.420234},{"name":"大島支庁","province":"東京都","city":"大島町","address":"大島町元町字オンダシ222-1","lat":34.75751,"lon":139.35737},{"name":"大島支庁","province":"東京都","city":"大島町","address":"大島町元町字赤禿90-14","lat":34.76086,"lon":139.37244},{"name":"大島支庁","province":"東京都","city":"大島町","address":"大島町元町字オンダシ222-1","lat":34.757485,"lon":139.35765},{"name":"大島藤倉学園","province":"東京都","city":"大島町","address":"大島町元町字馬の背128","lat":34.763757,"lon":139.360686},{"name":"大島恵の園","province":"東京都","city":"大島町","address":"大島町差木地1","lat":34.690608,"lon":139.420234},{"name":"第２大島恵の園","province":"東京都","city":"大島町","address":"大島町差木地1","lat":34.690608,"lon":139.420234},{"name":"大島支庁","province":"東京都","city":"大島町","address":"大島町元町字オンダシ222-1","lat":34.75751,"lon":139.35737},{"name":"大島支庁","province":"東京都","city":"大島町","address":"大島町元町字赤禿90-14","lat":34.76086,"lon":139.37244},{"name":"大島支庁","province":"東京都","city":"大島町","address":"大島町元町字オンダシ222-1","lat":34.757485,"lon":139.35765},{"name":"大島藤倉学園","province":"東京都","city":"大島町","address":"大島町元町字馬の背128","lat":34.763757,"lon":139.360686},{"name":"大島恵の園","province":"東京都","city":"大島町","address":"大島町差木地1","lat":34.690608,"lon":139.420234},{"name":"第２大島恵の園","province":"東京都","city":"大島町","address":"大島町差木地1","lat":34.690608,"lon":139.420234},{"name":"大島支庁","province":"東京都","city":"大島町","address":"大島町元町字オンダシ222-1","lat":34.75751,"lon":139.35737},{"name":"大島支庁","province":"東京都","city":"大島町","address":"大島町元町字赤禿90-14","lat":34.76086,"lon":139.37244},{"name":"大島支庁","province":"東京都","city":"大島町","address":"大島町元町字オンダシ222-1","lat":34.757485,"lon":139.35765},{"name":"大島藤倉学園","province":"東京都","city":"大島町","address":"大島町元町字馬の背128","lat":34.763757,"lon":139.360686},{"name":"大島恵の園","province":"東京都","city":"大島町","address":"大島町差木地1","lat":34.690608,"lon":139.420234},{"name":"第２大島恵の園","province":"東京都","city":"大島町","address":"大島町差木地1","lat":34.690608,"lon":139.420234},{"name":"大島支庁","province":"東京都","city":"大島町","address":"大島町元町字オンダシ222-1","lat":34.75751,"lon":139.35737},{"name":"大島支庁","province":"東京都","city":"大島町","address":"大島町元町字赤禿90-14","lat":34.76086,"lon":139.37244},{"name":"大島支庁","province":"東京都","city":"大島町","address":"大島町元町字オンダシ222-1","lat":34.757485,"lon":139.35765},{"name":"大島藤倉学園","province":"東京都","city":"大島町","address":"大島町元町字馬の背128","lat":34.763757,"lon":139.360686},{"name":"大島恵の園","province":"東京都","city":"大島町","address":"大島町差木地1","lat":34.690608,"lon":139.420234},{"name":"第２大島恵の園","province":"東京都","city":"大島町","address":"大島町差木地1","lat":34.690608,"lon":139.420234},{"name":"大島支庁","province":"東京都","city":"大島町","address":"大島町元町字オンダシ222-1","lat":34.75751,"lon":139.35737},{"name":"大島支庁","province":"東京都","city":"大島町","address":"大島町元町字赤禿90-14","lat":34.76086,"lon":139.37244},{"name":"大島支庁","province":"東京都","city":"大島町","address":"大島町元町字オンダシ222-1","lat":34.757485,"lon":139.35765},{"name":"大島藤倉学園","province":"東京都","city":"大島町","address":"大島町元町字馬の背128","lat":34.763757,"lon":139.360686},{"name":"大島恵の園","province":"東京都","city":"大島町","address":"大島町差木地1","lat":34.690608,"lon":139.420234},{"name":"第２大島恵の園","province":"東京都","city":"大島町","address":"大島町差木地1","lat":34.690608,"lon":139.420234},{"name":"大島支庁","province":"東京都","city":"大島町","address":"大島町元町字オンダシ222-1","lat":34.75751,"lon":139.35737},{"name":"大島支庁","province":"東京都","city":"大島町","address":"大島町元町字赤禿90-14","lat":34.76086,"lon":139.37244},{"name":"大島支庁","province":"東京都","city":"大島町","address":"大島町元町字オンダシ222-1","lat":34.757485,"lon":139.35765},{"name":"大島藤倉学園","province":"東京都","city":"大島町","address":"大島町元町字馬の背128","lat":34.763757,"lon":139.360686},{"name":"大島恵の園","province":"東京都","city":"大島町","address":"大島町差木地1","lat":34.690608,"lon":139.420234},{"name":"第２大島恵の園","province":"東京都","city":"大島町","address":"大島町差木地1","lat":34.690608,"lon":139.420234},{"name":"大島支庁","province":"東京都","city":"大島町","address":"大島町元町字オンダシ222-1","lat":34.75751,"lon":139.35737},{"name":"大島支庁","province":"東京都","city":"大島町","address":"大島町元町字赤禿90-14","lat":34.76086,"lon":139.37244},{"name":"大島支庁","province":"東京都","city":"大島町","address":"大島町元町字オンダシ222-1","lat":34.757485,"lon":139.35765},{"name":"大島藤倉学園","province":"東京都","city":"大島町","address":"大島町元町字馬の背128","lat":34.763757,"lon":139.360686},{"name":"大島恵の園","province":"東京都","city":"大島町","address":"大島町差木地1","lat":34.690608,"lon":139.420234},{"name":"第２大島恵の園","province":"東京都","city":"大島町","address":"大島町差木地1","lat":34.690608,"lon":139.420234},{"name":"大島支庁","province":"東京都","city":"大島町","address":"大島町元町字オンダシ222-1","lat":34.75751,"lon":139.35737},{"name":"大島支庁","province":"東京都","city":"大島町","address":"大島町元町字赤禿90-14","lat":34.76086,"lon":139.37244},{"name":"大島支庁","province":"東京都","city":"大島町","address":"大島町元町字オンダシ222-1","lat":34.757485,"lon":139.35765},{"name":"大島藤倉学園","province":"東京都","city":"大島町","address":"大島町元町字馬の背128","lat":34.763757,"lon":139.360686},{"name":"大島恵の園","province":"東京都","city":"大島町","address":"大島町差木地1","lat":34.690608,"lon":139.420234},{"name":"第２大島恵の園","province":"東京都","city":"大島町","address":"大島町差木地1","lat":34.690608,"lon":139.420234},{"name":"大島支庁","province":"東京都","city":"大島町","address":"大島町元町字オンダシ222-1","lat":34.75751,"lon":139.35737},{"name":"大島支庁","province":"東京都","city":"大島町","address":"大島町元町字赤禿90-14","lat":34.76086,"lon":139.37244},{"name":"大島支庁","province":"東京都","city":"大島町","address":"大島町元町字オンダシ222-1","lat":34.757485,"lon":139.35765},{"name":"大島藤倉学園","province":"東京都","city":"大島町","address":"大島町元町字馬の背128","lat":34.763757,"lon":139.360686},{"name":"大島恵の園","province":"東京都","city":"大島町","address":"大島町差木地1","lat":34.690608,"lon":139.420234},{"name":"第２大島恵の園","province":"東京都","city":"大島町","address":"大島町差木地1","lat":34.690608,"lon":139.420234},{"name":"大島支庁","province":"東京都","city":"大島町","address":"大島町元町字オンダシ222-1","lat":34.75751,"lon":139.35737},{"name":"大島支庁","province":"東京都","city":"大島町","address":"大島町元町字赤禿90-14","lat":34.76086,"lon":139.37244},{"name":"大島支庁","province":"東京都","city":"大島町","address":"大島町元町字オンダシ222-1","lat":34.757485,"lon":139.35765},{"name":"大島藤倉学園","province":"東京都","city":"大島町","address":"大島町元町字馬の背128","lat":34.763757,"lon":139.360686},{"name":"大島恵の園","province":"東京都","city":"大島町","address":"大島町差木地1","lat":34.690608,"lon":139.420234},{"name":"第２大島恵の園","province":"東京都","city":"大島町","address":"大島町差木地1","lat":34.690608,"lon":139.420234},{"name":"大島支庁","province":"東京都","city":"大島町","address":"大島町元町字オンダシ222-1","lat":34.75751,"lon":139.35737},{"name":"大島支庁","province":"東京都","city":"大島町","address":"大島町元町字赤禿90-14","lat":34.76086,"lon":139.37244},{"name":"大島支庁","province":"東京都","city":"大島町","address":"大島町元町字オンダシ222-1","lat":34.757485,"lon":139.35765},{"name":"大島藤倉学園","province":"東京都","city":"大島町","address":"大島町元町字馬の背128","lat":34.763757,"lon":139.360686},{"name":"大島恵の園","province":"東京都","city":"大島町","address":"大島町差木地1","lat":34.690608,"lon":139.420234},{"name":"第２大島恵の園","province":"東京都","city":"大島町","address":"大島町差木地1","lat":34.690608,"lon":139.420234},{"name":"大島支庁","province":"東京都","city":"大島町","address":"大島町元町字オンダシ222-1","lat":34.75751,"lon":139.35737},{"name":"大島支庁","province":"東京都","city":"大島町","address":"大島町元町字赤禿90-14","lat":34.76086,"lon":139.37244},{"name":"大島支庁","province":"東京都","city":"大島町","address":"大島町元町字オンダシ222-1","lat":34.757485,"lon":139.35765},{"name":"大島藤倉学園","province":"東京都","city":"大島町","address":"大島町元町字馬の背128","lat":34.763757,"lon":139.360686},{"name":"大島恵の園","province":"東京都","city":"大島町","address":"大島町差木地1","lat":34.690608,"lon":139.420234},{"name":"第２大島恵の園","province":"東京都","city":"大島町","address":"大島町差木地1","lat":34.690608,"lon":139.420234},{"name":"大島支庁","province":"東京都","city":"大島町","address":"大島町元町字オンダシ222-1","lat":34.75751,"lon":139.35737},{"name":"大島支庁","province":"東京都","city":"大島町","address":"大島町元町字赤禿90-14","lat":34.76086,"lon":139.37244},{"name":"大島支庁","province":"東京都","city":"大島町","address":"大島町元町字オンダシ222-1","lat":34.757485,"lon":139.35765},{"name":"大島藤倉学園","province":"東京都","city":"大島町","address":"大島町元町字馬の背128","lat":34.763757,"lon":139.360686},{"name":"大島恵の園","province":"東京都","city":"大島町","address":"大島町差木地1","lat":34.690608,"lon":139.420234},{"name":"第２大島恵の園","province":"東京都","city":"大島町","address":"大島町差木地1","lat":34.690608,"lon":139.420234},{"name":"大島支庁","province":"東京都","city":"大島町","address":"大島町元町字オンダシ222-1","lat":34.75751,"lon":139.35737},{"name":"大島支庁","province":"東京都","city":"大島町","address":"大島町元町字赤禿90-14","lat":34.76086,"lon":139.37244},{"name":"大島支庁","province":"東京都","city":"大島町","address":"大島町元町字オンダシ222-1","lat":34.757485,"lon":139.35765},{"name":"大島藤倉学園","province":"東京都","city":"大島町","address":"大島町元町字馬の背128","lat":34.763757,"lon":139.360686},{"name":"大島恵の園","province":"東京都","city":"大島町","address":"大島町差木地1","lat":34.690608,"lon":139.420234},{"name":"第２大島恵の園","province":"東京都","city":"大島町","address":"大島町差木地1","lat":34.690608,"lon":139.420234},{"name":"大島支庁","province":"東京都","city":"大島町","address":"大島町元町字オンダシ222-1","lat":34.75751,"lon":139.35737},{"name":"大島支庁","province":"東京都","city":"大島町","address":"大島町元町字赤禿90-14","lat":34.76086,"lon":139.37244},{"name":"大島支庁","province":"東京都","city":"大島町","address":"大島町元町字オンダシ222-1","lat":34.757485,"lon":139.35765},{"name":"大島藤倉学園","province":"東京都","city":"大島町","address":"大島町元町字馬の背128","lat":34.763757,"lon":139.360686},{"name":"大島恵の園","province":"東京都","city":"大島町","address":"大島町差木地1","lat":34.690608,"lon":139.420234},{"name":"第２大島恵の園","province":"東京都","city":"大島町","address":"大島町差木地1","lat":34.690608,"lon":139.420234},{"name":"大島支庁","province":"東京都","city":"大島町","address":"大島町元町字オンダシ222-1","lat":34.75751,"lon":139.35737},{"name":"大島支庁","province":"東京都","city":"大島町","address":"大島町元町字赤禿90-14","lat":34.76086,"lon":139.37244},{"name":"大島支庁","province":"東京都","city":"大島町","address":"大島町元町字オンダシ222-1","lat":34.757485,"lon":139.35765},{"name":"大島藤倉学園","province":"東京都","city":"大島町","address":"大島町元町字馬の背128","lat":34.763757,"lon":139.360686},{"name":"大島恵の園","province":"東京都","city":"大島町","address":"大島町差木地1","lat":34.690608,"lon":139.420234},{"name":"第２大島恵の園","province":"東京都","city":"大島町","address":"大島町差木地1","lat":34.690608,"lon":139.420234},{"name":"大島支庁","province":"東京都","city":"大島町","address":"大島町元町字オンダシ222-1","lat":34.75751,"lon":139.35737},{"name":"大島支庁","province":"東京都","city":"大島町","address":"大島町元町字赤禿90-14","lat":34.76086,"lon":139.37244},{"name":"大島支庁","province":"東京都","city":"大島町","address":"大島町元町字オンダシ222-1","lat":34.757485,"lon":139.35765},{"name":"大島藤倉学園","province":"東京都","city":"大島町","address":"大島町元町字馬の背128","lat":34.763757,"lon":139.360686},{"name":"大島恵の園","province":"東京都","city":"大島町","address":"大島町差木地1","lat":34.690608,"lon":139.420234},{"name":"第２大島恵の園","province":"東京都","city":"大島町","address":"大島町差木地1","lat":34.690608,"lon":139.420234},{"name":"大島支庁","province":"東京都","city":"大島町","address":"大島町元町字オンダシ222-1","lat":34.75751,"lon":139.35737},{"name":"大島支庁","province":"東京都","city":"大島町","address":"大島町元町字赤禿90-14","lat":34.76086,"lon":139.37244},{"name":"大島支庁","province":"東京都","city":"大島町","address":"大島町元町字オンダシ222-1","lat":34.757485,"lon":139.35765},{"name":"大島藤倉学園","province":"東京都","city":"大島町","address":"大島町元町字馬の背128","lat":34.763757,"lon":139.360686},{"name":"大島恵の園","province":"東京都","city":"大島町","address":"大島町差木地1","lat":34.690608,"lon":139.420234},{"name":"第２大島恵の園","province":"東京都","city":"大島町","address":"大島町差木地1","lat":34.690608,"lon":139.420234},{"name":"大島支庁","province":"東京都","city":"大島町","address":"大島町元町字オンダシ222-1","lat":34.75751,"lon":139.35737},{"name":"大島支庁","province":"東京都","city":"大島町","address":"大島町元町字赤禿90-14","lat":34.76086,"lon":139.37244},{"name":"大島支庁","province":"東京都","city":"大島町","address":"大島町元町字オンダシ222-1","lat":34.757485,"lon":139.35765},{"name":"大島藤倉学園","province":"東京都","city":"大島町","address":"大島町元町字馬の背128","lat":34.763757,"lon":139.360686},{"name":"大島恵の園","province":"東京都","city":"大島町","address":"大島町差木地1","lat":34.690608,"lon":139.420234},{"name":"第２大島恵の園","province":"東京都","city":"大島町","address":"大島町差木地1","lat":34.690608,"lon":139.420234},{"name":"大島支庁","province":"東京都","city":"大島町","address":"大島町元町字オンダシ222-1","lat":34.75751,"lon":139.35737},{"name":"大島支庁","province":"東京都","city":"大島町","address":"大島町元町字赤禿90-14","lat":34.76086,"lon":139.37244},{"name":"大島支庁","province":"東京都","city":"大島町","address":"大島町元町字オンダシ222-1","lat":34.757485,"lon":139.35765}]}