{"keyword":"戸数","data":[{"name":"大島社会福祉協議会","province":"東京都","city":"大島町","address":"大島町元町2-1-4","lat":34.74958,"lon":139.355506},{"name":"大島社会福祉協議会","province":"東京都","city":"大島町","address":"大島町元町2-1-4","lat":34.74951,"lon":139.35573},{"name":"大島町地域包括支援センター","province":"東京都","city":"大島町","address":"大島町元町字地の岡45番1","lat":34.770538,"lon":139.366913},{"name":"大島町役場住民課介護保険係","province":"東京都","city":"大島町","address":"大島町元町1-1-14","lat":34.750118,"lon":139.355286},{"name":"大島社会福祉協議会","province":"東京都","city":"大島町","address":"大島町元町2-1-4","lat":34.749512,"lon":139.355728},{"name":"大島警察署","province":"東京都","city":"大島町","address":"大島町元町1-15-6","lat":34.753006,"lon":139.354507},{"name":"大島町役場観光産業課水産商工係","province":"東京都","city":"大島町","address":"大島町元町1-1-14","lat":34.750118,"lon":139.355286},{"name":"大島町火葬場","province":"東京都","city":"大島町","address":"東京都大島町元町黒まま（字）352-3","lat":34.75322759,"lon":139.36510537},{"name":"大島町役場","province":"東京都","city":"大島町","address":"大島町元町1-1-14","lat":34.750153,"lon":139.355511},{"name":"東京都大島支庁","province":"東京都","city":"大島町","address":"大島町元町字オンダシ222-1","lat":34.757486,"lon":139.357651},{"name":"東京都大島支庁総務課","province":"東京都","city":"大島町","address":"大島町元町字オンダシ222-1","lat":34.757486,"lon":139.357651},{"name":"東京都大島支庁総務課（福祉担当）","province":"東京都","city":"大島町","address":"大島町元町字オンダシ222-1","lat":34.757486,"lon":139.357651},{"name":"東京都大島支庁産業課","province":"東京都","city":"大島町","address":"大島町元町字オンダシ222-1","lat":34.757486,"lon":139.357651},{"name":"東京都大島支庁土木課","province":"東京都","city":"大島町","address":"大島町元町字オンダシ222-1","lat":34.757486,"lon":139.357651},{"name":"東京都大島支庁港湾課","province":"東京都","city":"大島町","address":"大島町元町字オンダシ222-1","lat":34.757486,"lon":139.357651},{"name":"東京都大島支庁大島港湾空港管理事務所","province":"東京都","city":"大島町","address":"大島町元町字北の山270","lat":34.782519,"lon":139.363327},{"name":"東京都大島支庁大島公園事務所","province":"東京都","city":"大島町","address":"大島町泉津字福重2","lat":34.761133,"lon":139.43446},{"name":"東京都教育庁大島出張所","province":"東京都","city":"大島町","address":"大島町元町字オンダシ222-1","lat":34.757485,"lon":139.35765},{"name":"東京都島しょ保健所大島出張所","province":"東京都","city":"大島町","address":"大島町元町字馬の背275-4","lat":34.756842,"lon":139.358126},{"name":"島しょ農林水産総合センター大島事業所（水産）","province":"東京都","city":"大島町","address":"大島町波浮港18","lat":34.684806,"lon":139.437424},{"name":"島しょ農林水産総合センター大島事業所（農業）","province":"東京都","city":"大島町","address":"大島町元町小清水273-1","lat":34.758549,"lon":139.361164},{"name":"東京都立大島高等学校","province":"東京都","city":"大島町","address":"大島町元町字八重の水127","lat":34.765449,"lon":139.359906},{"name":"東京都立大島海洋国際高等学校","province":"東京都","city":"大島町","address":"大島町差木地字下原996","lat":34.681949,"lon":139.432619},{"name":"東京都海区漁業調整委員会大島分室","province":"東京都","city":"大島町","address":"大島町元町字オンダシ222-1","lat":34.757485,"lon":139.35765},{"name":"警視庁大島警察署","province":"東京都","city":"大島町","address":"大島町元町1-15-6","lat":34.752784,"lon":139.354974},{"name":"東京都栽培漁業センター","province":"東京都","city":"大島町","address":"大島町元町字和泉99-5","lat":34.769048,"lon":139.352981},{"name":"伊豆大島簡易裁判所","province":"東京都","city":"大島町","address":"大島町元町字家の上445-10","lat":34.749828,"lon":139.363783},{"name":"伊豆大島区検察庁","province":"東京都","city":"大島町","address":"大島町元町字家の上445-9","lat":34.749811,"lon":139.363192},{"name":"東京大学地震研究所　伊豆大島火山観測所","province":"東京都","city":"大島町","address":"大島町元町字黒まま346","lat":34.75428,"lon":139.362597},{"name":"気象庁　伊豆大島火山防災連絡事務所","province":"東京都","city":"大島町","address":"大島町元町1-1-14(大島町役場内)","lat":34.750255,"lon":139.355384},{"name":"東京航空地方気象台　大島航空気象観測所","province":"東京都","city":"大島町","address":"大島町元町字北の山270-1(大島空港内)","lat":34.783191,"lon":139.363547},{"name":"東京航空局大島空港出張所","province":"東京都","city":"大島町","address":"大島町元町字北の山270-1","lat":34.783191,"lon":139.363547},{"name":"新島区検察庁","province":"東京都","city":"大島町","address":"大島町元町字家の上445-9","lat":34.749811,"lon":139.363192},{"name":"環境省伊豆諸島自然保護官事務所","province":"東京都","city":"大島町","address":"大島町元町字家の上445-9","lat":34.749811,"lon":139.363192},{"name":"大島町役場","province":"東京都","city":"大島町","address":"東京都大島町元町1-1-14","lat":34.7502,"lon":139.35515},{"name":"大島町野増清掃工場","province":"東京都","city":"大島町","address":"大島町野増字クヅアラ638-1","lat":34.715286,"lon":139.357788},{"name":"大島社会福祉協議会","province":"東京都","city":"大島町","address":"大島町元町2-1-4","lat":34.74958,"lon":139.355506},{"name":"大島社会福祉協議会","province":"東京都","city":"大島町","address":"大島町元町2-1-4","lat":34.74951,"lon":139.35573},{"name":"大島町地域包括支援センター","province":"東京都","city":"大島町","address":"大島町元町字地の岡45番1","lat":34.770538,"lon":139.366913},{"name":"大島町役場住民課介護保険係","province":"東京都","city":"大島町","address":"大島町元町1-1-14","lat":34.750118,"lon":139.355286},{"name":"大島社会福祉協議会","province":"東京都","city":"大島町","address":"大島町元町2-1-4","lat":34.749512,"lon":139.355728},{"name":"大島警察署","province":"東京都","city":"大島町","address":"大島町元町1-15-6","lat":34.753006,"lon":139.354507},{"name":"大島町役場観光産業課水産商工係","province":"東京都","city":"大島町","address":"大島町元町1-1-14","lat":34.750118,"lon":139.355286},{"name":"大島町火葬場","province":"東京都","city":"大島町","address":"東京都大島町元町黒まま（字）352-3","lat":34.75322759,"lon":139.36510537},{"name":"大島町野増清掃工場","province":"東京都","city":"大島町","address":"大島町野増字クヅアラ638-1","lat":34.715286,"lon":139.357788},{"name":"大島町地域包括支援センター","province":"東京都","city":"大島町","address":"大島町元町字地の岡45番1","lat":34.770538,"lon":139.366913},{"name":"大島町役場住民課介護保険係","province":"東京都","city":"大島町","address":"大島町元町1-1-14","lat":34.750118,"lon":139.355286},{"name":"大島社会福祉協議会","province":"東京都","city":"大島町","address":"大島町元町2-1-4","lat":34.749512,"lon":139.355728},{"name":"大島警察署","province":"東京都","city":"大島町","address":"大島町元町1-15-6","lat":34.753006,"lon":139.354507},{"name":"大島町役場観光産業課水産商工係","province":"東京都","city":"大島町","address":"大島町元町1-1-14","lat":34.750118,"lon":139.355286},{"name":"大島町地域包括支援センター","province":"東京都","city":"大島町","address":"大島町元町字地の岡45番1","lat":34.770538,"lon":139.366913},{"name":"大島町役場住民課介護保険係","province":"東京都","city":"大島町","address":"大島町元町1-1-14","lat":34.750118,"lon":139.355286},{"name":"大島社会福祉協議会","province":"東京都","city":"大島町","address":"大島町元町2-1-4","lat":34.749512,"lon":139.355728},{"name":"大島警察署","province":"東京都","city":"大島町","address":"大島町元町1-15-6","lat":34.753006,"lon":139.354507},{"name":"大島町役場観光産業課水産商工係","province":"東京都","city":"大島町","address":"大島町元町1-1-14","lat":34.750118,"lon":139.355286},{"name":"大島町地域包括支援センター","province":"東京都","city":"大島町","address":"大島町元町字地の岡45番1","lat":34.770538,"lon":139.366913},{"name":"大島町役場住民課介護保険係","province":"東京都","city":"大島町","address":"大島町元町1-1-14","lat":34.750118,"lon":139.355286},{"name":"大島社会福祉協議会","province":"東京都","city":"大島町","address":"大島町元町2-1-4","lat":34.749512,"lon":139.355728},{"name":"大島警察署","province":"東京都","city":"大島町","address":"大島町元町1-15-6","lat":34.753006,"lon":139.354507},{"name":"大島町役場観光産業課水産商工係","province":"東京都","city":"大島町","address":"大島町元町1-1-14","lat":34.750118,"lon":139.355286},{"name":"大島町地域包括支援センター","province":"東京都","city":"大島町","address":"大島町元町字地の岡45番1","lat":34.770538,"lon":139.366913},{"name":"大島町役場住民課介護保険係","province":"東京都","city":"大島町","address":"大島町元町1-1-14","lat":34.750118,"lon":139.355286},{"name":"大島社会福祉協議会","province":"東京都","city":"大島町","address":"大島町元町2-1-4","lat":34.749512,"lon":139.355728},{"name":"大島警察署","province":"東京都","city":"大島町","address":"大島町元町1-15-6","lat":34.753006,"lon":139.354507},{"name":"大島町役場観光産業課水産商工係","province":"東京都","city":"大島町","address":"大島町元町1-1-14","lat":34.750118,"lon":139.355286},{"name":"大島町地域包括支援センター","province":"東京都","city":"大島町","address":"大島町元町字地の岡45番1","lat":34.770538,"lon":139.366913},{"name":"大島町役場住民課介護保険係","province":"東京都","city":"大島町","address":"大島町元町1-1-14","lat":34.750118,"lon":139.355286},{"name":"大島社会福祉協議会","province":"東京都","city":"大島町","address":"大島町元町2-1-4","lat":34.749512,"lon":139.355728},{"name":"大島警察署","province":"東京都","city":"大島町","address":"大島町元町1-15-6","lat":34.753006,"lon":139.354507},{"name":"大島町役場観光産業課水産商工係","province":"東京都","city":"大島町","address":"大島町元町1-1-14","lat":34.750118,"lon":139.355286},{"name":"大島町地域包括支援センター","province":"東京都","city":"大島町","address":"大島町元町字地の岡45番1","lat":34.770538,"lon":139.366913},{"name":"大島町役場住民課介護保険係","province":"東京都","city":"大島町","address":"大島町元町1-1-14","lat":34.750118,"lon":139.355286},{"name":"大島社会福祉協議会","province":"東京都","city":"大島町","address":"大島町元町2-1-4","lat":34.749512,"lon":139.355728},{"name":"大島警察署","province":"東京都","city":"大島町","address":"大島町元町1-15-6","lat":34.753006,"lon":139.354507},{"name":"大島町役場観光産業課水産商工係","province":"東京都","city":"大島町","address":"大島町元町1-1-14","lat":34.750118,"lon":139.355286},{"name":"大島町地域包括支援センター","province":"東京都","city":"大島町","address":"大島町元町字地の岡45番1","lat":34.770538,"lon":139.366913},{"name":"大島町役場住民課介護保険係","province":"東京都","city":"大島町","address":"大島町元町1-1-14","lat":34.750118,"lon":139.355286},{"name":"大島社会福祉協議会","province":"東京都","city":"大島町","address":"大島町元町2-1-4","lat":34.749512,"lon":139.355728},{"name":"大島警察署","province":"東京都","city":"大島町","address":"大島町元町1-15-6","lat":34.753006,"lon":139.354507},{"name":"大島町役場観光産業課水産商工係","province":"東京都","city":"大島町","address":"大島町元町1-1-14","lat":34.750118,"lon":139.355286},{"name":"大島町地域包括支援センター","province":"東京都","city":"大島町","address":"大島町元町字地の岡45番1","lat":34.770538,"lon":139.366913},{"name":"大島町役場住民課介護保険係","province":"東京都","city":"大島町","address":"大島町元町1-1-14","lat":34.750118,"lon":139.355286},{"name":"大島社会福祉協議会","province":"東京都","city":"大島町","address":"大島町元町2-1-4","lat":34.749512,"lon":139.355728},{"name":"大島警察署","province":"東京都","city":"大島町","address":"大島町元町1-15-6","lat":34.753006,"lon":139.354507},{"name":"大島町役場観光産業課水産商工係","province":"東京都","city":"大島町","address":"大島町元町1-1-14","lat":34.750118,"lon":139.355286},{"name":"大島町地域包括支援センター","province":"東京都","city":"大島町","address":"大島町元町字地の岡45番1","lat":34.770538,"lon":139.366913},{"name":"大島町役場住民課介護保険係","province":"東京都","city":"大島町","address":"大島町元町1-1-14","lat":34.750118,"lon":139.355286},{"name":"大島社会福祉協議会","province":"東京都","city":"大島町","address":"大島町元町2-1-4","lat":34.749512,"lon":139.355728},{"name":"大島警察署","province":"東京都","city":"大島町","address":"大島町元町1-15-6","lat":34.753006,"lon":139.354507},{"name":"大島町役場観光産業課水産商工係","province":"東京都","city":"大島町","address":"大島町元町1-1-14","lat":34.750118,"lon":139.355286},{"name":"大島町地域包括支援センター","province":"東京都","city":"大島町","address":"大島町元町字地の岡45番1","lat":34.770538,"lon":139.366913},{"name":"大島町役場住民課介護保険係","province":"東京都","city":"大島町","address":"大島町元町1-1-14","lat":34.750118,"lon":139.355286},{"name":"大島社会福祉協議会","province":"東京都","city":"大島町","address":"大島町元町2-1-4","lat":34.749512,"lon":139.355728},{"name":"大島警察署","province":"東京都","city":"大島町","address":"大島町元町1-15-6","lat":34.753006,"lon":139.354507},{"name":"大島町役場観光産業課水産商工係","province":"東京都","city":"大島町","address":"大島町元町1-1-14","lat":34.750118,"lon":139.355286},{"name":"大島町地域包括支援センター","province":"東京都","city":"大島町","address":"大島町元町字地の岡45番1","lat":34.770538,"lon":139.366913},{"name":"大島町役場住民課介護保険係","province":"東京都","city":"大島町","address":"大島町元町1-1-14","lat":34.750118,"lon":139.355286},{"name":"大島社会福祉協議会","province":"東京都","city":"大島町","address":"大島町元町2-1-4","lat":34.749512,"lon":139.355728},{"name":"大島警察署","province":"東京都","city":"大島町","address":"大島町元町1-15-6","lat":34.753006,"lon":139.354507},{"name":"大島町役場観光産業課水産商工係","province":"東京都","city":"大島町","address":"大島町元町1-1-14","lat":34.750118,"lon":139.355286},{"name":"大島町地域包括支援センター","province":"東京都","city":"大島町","address":"大島町元町字地の岡45番1","lat":34.770538,"lon":139.366913},{"name":"大島町役場住民課介護保険係","province":"東京都","city":"大島町","address":"大島町元町1-1-14","lat":34.750118,"lon":139.355286},{"name":"大島社会福祉協議会","province":"東京都","city":"大島町","address":"大島町元町2-1-4","lat":34.749512,"lon":139.355728},{"name":"大島警察署","province":"東京都","city":"大島町","address":"大島町元町1-15-6","lat":34.753006,"lon":139.354507},{"name":"大島町役場観光産業課水産商工係","province":"東京都","city":"大島町","address":"大島町元町1-1-14","lat":34.750118,"lon":139.355286},{"name":"大島町地域包括支援センター","province":"東京都","city":"大島町","address":"大島町元町字地の岡45番1","lat":34.770538,"lon":139.366913},{"name":"大島町役場住民課介護保険係","province":"東京都","city":"大島町","address":"大島町元町1-1-14","lat":34.750118,"lon":139.355286},{"name":"大島社会福祉協議会","province":"東京都","city":"大島町","address":"大島町元町2-1-4","lat":34.749512,"lon":139.355728},{"name":"大島警察署","province":"東京都","city":"大島町","address":"大島町元町1-15-6","lat":34.753006,"lon":139.354507},{"name":"大島町役場観光産業課水産商工係","province":"東京都","city":"大島町","address":"大島町元町1-1-14","lat":34.750118,"lon":139.355286},{"name":"大島町地域包括支援センター","province":"東京都","city":"大島町","address":"大島町元町字地の岡45番1","lat":34.770538,"lon":139.366913},{"name":"大島町役場住民課介護保険係","province":"東京都","city":"大島町","address":"大島町元町1-1-14","lat":34.750118,"lon":139.355286},{"name":"大島社会福祉協議会","province":"東京都","city":"大島町","address":"大島町元町2-1-4","lat":34.749512,"lon":139.355728},{"name":"大島警察署","province":"東京都","city":"大島町","address":"大島町元町1-15-6","lat":34.753006,"lon":139.354507},{"name":"大島町役場観光産業課水産商工係","province":"東京都","city":"大島町","address":"大島町元町1-1-14","lat":34.750118,"lon":139.355286},{"name":"大島町地域包括支援センター","province":"東京都","city":"大島町","address":"大島町元町字地の岡45番1","lat":34.770538,"lon":139.366913},{"name":"大島町役場住民課介護保険係","province":"東京都","city":"大島町","address":"大島町元町1-1-14","lat":34.750118,"lon":139.355286},{"name":"大島社会福祉協議会","province":"東京都","city":"大島町","address":"大島町元町2-1-4","lat":34.749512,"lon":139.355728},{"name":"大島警察署","province":"東京都","city":"大島町","address":"大島町元町1-15-6","lat":34.753006,"lon":139.354507},{"name":"大島町役場観光産業課水産商工係","province":"東京都","city":"大島町","address":"大島町元町1-1-14","lat":34.750118,"lon":139.355286},{"name":"大島町地域包括支援センター","province":"東京都","city":"大島町","address":"大島町元町字地の岡45番1","lat":34.770538,"lon":139.366913},{"name":"大島町役場住民課介護保険係","province":"東京都","city":"大島町","address":"大島町元町1-1-14","lat":34.750118,"lon":139.355286},{"name":"大島社会福祉協議会","province":"東京都","city":"大島町","address":"大島町元町2-1-4","lat":34.749512,"lon":139.355728},{"name":"大島警察署","province":"東京都","city":"大島町","address":"大島町元町1-15-6","lat":34.753006,"lon":139.354507},{"name":"大島町役場観光産業課水産商工係","province":"東京都","city":"大島町","address":"大島町元町1-1-14","lat":34.750118,"lon":139.355286},{"name":"大島町地域包括支援センター","province":"東京都","city":"大島町","address":"大島町元町字地の岡45番1","lat":34.770538,"lon":139.366913},{"name":"大島町役場住民課介護保険係","province":"東京都","city":"大島町","address":"大島町元町1-1-14","lat":34.750118,"lon":139.355286},{"name":"大島社会福祉協議会","province":"東京都","city":"大島町","address":"大島町元町2-1-4","lat":34.749512,"lon":139.355728},{"name":"大島警察署","province":"東京都","city":"大島町","address":"大島町元町1-15-6","lat":34.753006,"lon":139.354507},{"name":"大島町役場観光産業課水産商工係","province":"東京都","city":"大島町","address":"大島町元町1-1-14","lat":34.750118,"lon":139.355286},{"name":"大島町地域包括支援センター","province":"東京都","city":"大島町","address":"大島町元町字地の岡45番1","lat":34.770538,"lon":139.366913},{"name":"大島町役場住民課介護保険係","province":"東京都","city":"大島町","address":"大島町元町1-1-14","lat":34.750118,"lon":139.355286},{"name":"大島社会福祉協議会","province":"東京都","city":"大島町","address":"大島町元町2-1-4","lat":34.749512,"lon":139.355728},{"name":"大島警察署","province":"東京都","city":"大島町","address":"大島町元町1-15-6","lat":34.753006,"lon":139.354507},{"name":"大島町役場観光産業課水産商工係","province":"東京都","city":"大島町","address":"大島町元町1-1-14","lat":34.750118,"lon":139.355286},{"name":"大島町地域包括支援センター","province":"東京都","city":"大島町","address":"大島町元町字地の岡45番1","lat":34.770538,"lon":139.366913},{"name":"大島町役場住民課介護保険係","province":"東京都","city":"大島町","address":"大島町元町1-1-14","lat":34.750118,"lon":139.355286},{"name":"大島社会福祉協議会","province":"東京都","city":"大島町","address":"大島町元町2-1-4","lat":34.749512,"lon":139.355728},{"name":"大島警察署","province":"東京都","city":"大島町","address":"大島町元町1-15-6","lat":34.753006,"lon":139.354507},{"name":"大島町役場観光産業課水産商工係","province":"東京都","city":"大島町","address":"大島町元町1-1-14","lat":34.750118,"lon":139.355286}]}