{"keyword":"週","data":[{"name":"大島社会福祉協議会","province":"東京都","city":"大島町","address":"大島町元町2-1-4","lat":34.74958,"lon":139.355506},{"name":"銅鏡","province":"東京都","city":"大島町","address":"東京都大島町野増字大宮","lat":34.733749,"lon":139.356854},{"name":"銅鏡","province":"東京都","city":"大島町","address":"東京都大島町元町字地の岡30-2","lat":34.773758,"lon":139.358314},{"name":"差木地の大クス","province":"東京都","city":"大島町","address":"東京都大島町差木地2","lat":34.688425,"lon":139.403019},{"name":"野増大宮のシイ樹叢","province":"東京都","city":"大島町","address":"東京都大島町野増字大宮","lat":34.733749,"lon":139.356854},{"name":"大島町図書館","province":"東京都","city":"大島町","address":"東京都大島町元町丸塚（字）548-1","lat":34.74691712,"lon":139.3620587},{"name":"大島社会福祉協議会","province":"東京都","city":"大島町","address":"大島町元町2-1-4","lat":34.74951,"lon":139.35573},{"name":"大島町火葬場","province":"東京都","city":"大島町","address":"東京都大島町元町黒まま（字）352-3","lat":34.75322759,"lon":139.36510537},{"name":"大島のサクラ株","province":"東京都","city":"大島町","address":"東京都大島町泉津","lat":34.78307496,"lon":139.41375561},{"name":"カモシカ","province":"東京都","city":"大島町","address":"東京都大島町泉津","lat":34.78307496,"lon":139.41375561},{"name":"シイノキ山のシイノキ群叢","province":"東京都","city":"大島町","address":"東京都大島町泉津","lat":34.78307496,"lon":139.41375561},{"name":"大島海浜植物群落","province":"東京都","city":"大島町","address":"東京都大島町泉津","lat":34.78307496,"lon":139.41375561},{"name":"オジロワシ","province":"東京都","city":"大島町","address":"東京都大島町泉津","lat":34.78307496,"lon":139.41375561},{"name":"コクガン","province":"東京都","city":"大島町","address":"東京都大島町泉津","lat":34.78307496,"lon":139.41375561},{"name":"マガン","province":"東京都","city":"大島町","address":"東京都大島町泉津","lat":34.78307496,"lon":139.41375561},{"name":"鉄砲場の岩陰遺跡","province":"東京都","city":"大島町","address":"東京都大島町泉津","lat":34.78307496,"lon":139.41375561},{"name":"大島下高洞遺跡","province":"東京都","city":"大島町","address":"東京都大島町元町","lat":34.75069975,"lon":139.35458395},{"name":"大島竜の口遺跡","province":"東京都","city":"大島町","address":"東京都大島町野増","lat":34.73029943,"lon":139.35466575},{"name":"役行者窟","province":"東京都","city":"大島町","address":"東京都大島町泉津","lat":34.78307496,"lon":139.41375561},{"name":"秋広平六墓","province":"東京都","city":"大島町","address":"東京都大島町波浮港","lat":34.68677239,"lon":139.44189881},{"name":"差木地の大クス","province":"東京都","city":"大島町","address":"東京都大島町差木地","lat":34.68312246,"lon":139.41394612},{"name":"潮吹の鼻","province":"東京都","city":"大島町","address":"東京都大島町泉津","lat":34.78307496,"lon":139.41375561},{"name":"おたいね浦の岩脈と筆島","province":"東京都","city":"大島町","address":"東京都大島町波浮港","lat":34.68677239,"lon":139.44189881},{"name":"野増大宮神社の十二座神楽","province":"東京都","city":"大島町","address":"東京都大島町野増大宮上手（字）","lat":34.73296069,"lon":139.37116714},{"name":"カラスバト","province":"東京都","city":"大島町","address":"東京都大島町泉津","lat":34.78307496,"lon":139.41375561},{"name":"元町のハマンカー（南井戸）","province":"東京都","city":"大島町","address":"東京都大島町元町","lat":34.75069975,"lon":139.35458395},{"name":"赤穂義士　間瀬定八の墓","province":"東京都","city":"大島町","address":"東京都大島町元町","lat":34.75069975,"lon":139.35458395},{"name":"力士　大島伝吉の碑（勇鑑石とも）","province":"東京都","city":"大島町","address":"東京都大島町岡田","lat":34.78878237,"lon":139.39285739},{"name":"粟本佐次朗記念碑（テリコの碑）","province":"東京都","city":"大島町","address":"東京都大島町岡田","lat":34.78878237,"lon":139.39285739},{"name":"波浮港開港碑","province":"東京都","city":"大島町","address":"東京都大島町波浮港","lat":34.68677239,"lon":139.44189881},{"name":"＊?泉津公民館","province":"東京都","city":"大島町","address":"大島町泉津字川之原15番","lat":34.783281,"lon":139.412804},{"name":"＊?北の山公民館","province":"東京都","city":"大島町","address":"大島町元町字佐吾右衛門野地7番4","lat":34.776968,"lon":139.36096},{"name":"＊?野増公民館","province":"東京都","city":"大島町","address":"大島町野増5番地","lat":34.728885,"lon":139.353623},{"name":"＊?伊豆大島火山博物館","province":"東京都","city":"大島町","address":"大島町元町字神田屋敷617","lat":34.743999,"lon":139.360024},{"name":"＊?郷土資料館","province":"東京都","city":"大島町","address":"大島町元町字地の岡30番2","lat":34.773678,"lon":139.358458},{"name":"大島町図書館","province":"東京都","city":"大島町","address":"大島町元町1-15","lat":34.753087,"lon":139.354149},{"name":"大島町野増清掃工場","province":"東京都","city":"大島町","address":"大島町野増字クヅアラ638-1","lat":34.715286,"lon":139.357788},{"name":"大島社会福祉協議会","province":"東京都","city":"大島町","address":"大島町元町2-1-4","lat":34.74958,"lon":139.355506},{"name":"銅鏡","province":"東京都","city":"大島町","address":"東京都大島町野増字大宮","lat":34.733749,"lon":139.356854},{"name":"銅鏡","province":"東京都","city":"大島町","address":"東京都大島町元町字地の岡30-2","lat":34.773758,"lon":139.358314},{"name":"差木地の大クス","province":"東京都","city":"大島町","address":"東京都大島町差木地2","lat":34.688425,"lon":139.403019},{"name":"野増大宮のシイ樹叢","province":"東京都","city":"大島町","address":"東京都大島町野増字大宮","lat":34.733749,"lon":139.356854},{"name":"大島町図書館","province":"東京都","city":"大島町","address":"東京都大島町元町丸塚（字）548-1","lat":34.74691712,"lon":139.3620587},{"name":"大島社会福祉協議会","province":"東京都","city":"大島町","address":"大島町元町2-1-4","lat":34.74951,"lon":139.35573},{"name":"大島町火葬場","province":"東京都","city":"大島町","address":"東京都大島町元町黒まま（字）352-3","lat":34.75322759,"lon":139.36510537},{"name":"大島のサクラ株","province":"東京都","city":"大島町","address":"東京都大島町泉津","lat":34.78307496,"lon":139.41375561},{"name":"カモシカ","province":"東京都","city":"大島町","address":"東京都大島町泉津","lat":34.78307496,"lon":139.41375561},{"name":"シイノキ山のシイノキ群叢","province":"東京都","city":"大島町","address":"東京都大島町泉津","lat":34.78307496,"lon":139.41375561},{"name":"大島海浜植物群落","province":"東京都","city":"大島町","address":"東京都大島町泉津","lat":34.78307496,"lon":139.41375561},{"name":"オジロワシ","province":"東京都","city":"大島町","address":"東京都大島町泉津","lat":34.78307496,"lon":139.41375561},{"name":"コクガン","province":"東京都","city":"大島町","address":"東京都大島町泉津","lat":34.78307496,"lon":139.41375561},{"name":"マガン","province":"東京都","city":"大島町","address":"東京都大島町泉津","lat":34.78307496,"lon":139.41375561},{"name":"鉄砲場の岩陰遺跡","province":"東京都","city":"大島町","address":"東京都大島町泉津","lat":34.78307496,"lon":139.41375561},{"name":"大島下高洞遺跡","province":"東京都","city":"大島町","address":"東京都大島町元町","lat":34.75069975,"lon":139.35458395},{"name":"大島竜の口遺跡","province":"東京都","city":"大島町","address":"東京都大島町野増","lat":34.73029943,"lon":139.35466575},{"name":"役行者窟","province":"東京都","city":"大島町","address":"東京都大島町泉津","lat":34.78307496,"lon":139.41375561},{"name":"秋広平六墓","province":"東京都","city":"大島町","address":"東京都大島町波浮港","lat":34.68677239,"lon":139.44189881},{"name":"差木地の大クス","province":"東京都","city":"大島町","address":"東京都大島町差木地","lat":34.68312246,"lon":139.41394612},{"name":"潮吹の鼻","province":"東京都","city":"大島町","address":"東京都大島町泉津","lat":34.78307496,"lon":139.41375561},{"name":"おたいね浦の岩脈と筆島","province":"東京都","city":"大島町","address":"東京都大島町波浮港","lat":34.68677239,"lon":139.44189881},{"name":"野増大宮神社の十二座神楽","province":"東京都","city":"大島町","address":"東京都大島町野増大宮上手（字）","lat":34.73296069,"lon":139.37116714},{"name":"カラスバト","province":"東京都","city":"大島町","address":"東京都大島町泉津","lat":34.78307496,"lon":139.41375561},{"name":"元町のハマンカー（南井戸）","province":"東京都","city":"大島町","address":"東京都大島町元町","lat":34.75069975,"lon":139.35458395},{"name":"赤穂義士　間瀬定八の墓","province":"東京都","city":"大島町","address":"東京都大島町元町","lat":34.75069975,"lon":139.35458395},{"name":"力士　大島伝吉の碑（勇鑑石とも）","province":"東京都","city":"大島町","address":"東京都大島町岡田","lat":34.78878237,"lon":139.39285739},{"name":"粟本佐次朗記念碑（テリコの碑）","province":"東京都","city":"大島町","address":"東京都大島町岡田","lat":34.78878237,"lon":139.39285739},{"name":"波浮港開港碑","province":"東京都","city":"大島町","address":"東京都大島町波浮港","lat":34.68677239,"lon":139.44189881},{"name":"＊?泉津公民館","province":"東京都","city":"大島町","address":"大島町泉津字川之原15番","lat":34.783281,"lon":139.412804},{"name":"＊?北の山公民館","province":"東京都","city":"大島町","address":"大島町元町字佐吾右衛門野地7番4","lat":34.776968,"lon":139.36096},{"name":"＊?野増公民館","province":"東京都","city":"大島町","address":"大島町野増5番地","lat":34.728885,"lon":139.353623},{"name":"＊?伊豆大島火山博物館","province":"東京都","city":"大島町","address":"大島町元町字神田屋敷617","lat":34.743999,"lon":139.360024},{"name":"＊?郷土資料館","province":"東京都","city":"大島町","address":"大島町元町字地の岡30番2","lat":34.773678,"lon":139.358458},{"name":"大島町図書館","province":"東京都","city":"大島町","address":"大島町元町1-15","lat":34.753087,"lon":139.354149},{"name":"大島町野増清掃工場","province":"東京都","city":"大島町","address":"大島町野増字クヅアラ638-1","lat":34.715286,"lon":139.357788},{"name":"大島社会福祉協議会","province":"東京都","city":"大島町","address":"大島町元町2-1-4","lat":34.74958,"lon":139.355506},{"name":"銅鏡","province":"東京都","city":"大島町","address":"東京都大島町野増字大宮","lat":34.733749,"lon":139.356854},{"name":"銅鏡","province":"東京都","city":"大島町","address":"東京都大島町元町字地の岡30-2","lat":34.773758,"lon":139.358314},{"name":"差木地の大クス","province":"東京都","city":"大島町","address":"東京都大島町差木地2","lat":34.688425,"lon":139.403019},{"name":"野増大宮のシイ樹叢","province":"東京都","city":"大島町","address":"東京都大島町野増字大宮","lat":34.733749,"lon":139.356854},{"name":"大島町図書館","province":"東京都","city":"大島町","address":"東京都大島町元町丸塚（字）548-1","lat":34.74691712,"lon":139.3620587},{"name":"大島社会福祉協議会","province":"東京都","city":"大島町","address":"大島町元町2-1-4","lat":34.74951,"lon":139.35573},{"name":"大島のサクラ株","province":"東京都","city":"大島町","address":"東京都大島町泉津","lat":34.78307496,"lon":139.41375561},{"name":"カモシカ","province":"東京都","city":"大島町","address":"東京都大島町泉津","lat":34.78307496,"lon":139.41375561},{"name":"シイノキ山のシイノキ群叢","province":"東京都","city":"大島町","address":"東京都大島町泉津","lat":34.78307496,"lon":139.41375561},{"name":"大島海浜植物群落","province":"東京都","city":"大島町","address":"東京都大島町泉津","lat":34.78307496,"lon":139.41375561},{"name":"オジロワシ","province":"東京都","city":"大島町","address":"東京都大島町泉津","lat":34.78307496,"lon":139.41375561},{"name":"コクガン","province":"東京都","city":"大島町","address":"東京都大島町泉津","lat":34.78307496,"lon":139.41375561},{"name":"マガン","province":"東京都","city":"大島町","address":"東京都大島町泉津","lat":34.78307496,"lon":139.41375561},{"name":"鉄砲場の岩陰遺跡","province":"東京都","city":"大島町","address":"東京都大島町泉津","lat":34.78307496,"lon":139.41375561},{"name":"大島下高洞遺跡","province":"東京都","city":"大島町","address":"東京都大島町元町","lat":34.75069975,"lon":139.35458395},{"name":"大島竜の口遺跡","province":"東京都","city":"大島町","address":"東京都大島町野増","lat":34.73029943,"lon":139.35466575},{"name":"役行者窟","province":"東京都","city":"大島町","address":"東京都大島町泉津","lat":34.78307496,"lon":139.41375561},{"name":"秋広平六墓","province":"東京都","city":"大島町","address":"東京都大島町波浮港","lat":34.68677239,"lon":139.44189881},{"name":"差木地の大クス","province":"東京都","city":"大島町","address":"東京都大島町差木地","lat":34.68312246,"lon":139.41394612},{"name":"潮吹の鼻","province":"東京都","city":"大島町","address":"東京都大島町泉津","lat":34.78307496,"lon":139.41375561},{"name":"おたいね浦の岩脈と筆島","province":"東京都","city":"大島町","address":"東京都大島町波浮港","lat":34.68677239,"lon":139.44189881},{"name":"野増大宮神社の十二座神楽","province":"東京都","city":"大島町","address":"東京都大島町野増大宮上手（字）","lat":34.73296069,"lon":139.37116714},{"name":"カラスバト","province":"東京都","city":"大島町","address":"東京都大島町泉津","lat":34.78307496,"lon":139.41375561},{"name":"元町のハマンカー（南井戸）","province":"東京都","city":"大島町","address":"東京都大島町元町","lat":34.75069975,"lon":139.35458395},{"name":"赤穂義士　間瀬定八の墓","province":"東京都","city":"大島町","address":"東京都大島町元町","lat":34.75069975,"lon":139.35458395},{"name":"力士　大島伝吉の碑（勇鑑石とも）","province":"東京都","city":"大島町","address":"東京都大島町岡田","lat":34.78878237,"lon":139.39285739},{"name":"粟本佐次朗記念碑（テリコの碑）","province":"東京都","city":"大島町","address":"東京都大島町岡田","lat":34.78878237,"lon":139.39285739},{"name":"波浮港開港碑","province":"東京都","city":"大島町","address":"東京都大島町波浮港","lat":34.68677239,"lon":139.44189881},{"name":"＊?泉津公民館","province":"東京都","city":"大島町","address":"大島町泉津字川之原15番","lat":34.783281,"lon":139.412804},{"name":"＊?北の山公民館","province":"東京都","city":"大島町","address":"大島町元町字佐吾右衛門野地7番4","lat":34.776968,"lon":139.36096},{"name":"＊?野増公民館","province":"東京都","city":"大島町","address":"大島町野増5番地","lat":34.728885,"lon":139.353623},{"name":"＊?伊豆大島火山博物館","province":"東京都","city":"大島町","address":"大島町元町字神田屋敷617","lat":34.743999,"lon":139.360024},{"name":"＊?郷土資料館","province":"東京都","city":"大島町","address":"大島町元町字地の岡30番2","lat":34.773678,"lon":139.358458},{"name":"大島町図書館","province":"東京都","city":"大島町","address":"大島町元町1-15","lat":34.753087,"lon":139.354149},{"name":"大島町野増清掃工場","province":"東京都","city":"大島町","address":"大島町野増字クヅアラ638-1","lat":34.715286,"lon":139.357788},{"name":"大島社会福祉協議会","province":"東京都","city":"大島町","address":"大島町元町2-1-4","lat":34.74958,"lon":139.355506},{"name":"銅鏡","province":"東京都","city":"大島町","address":"東京都大島町野増字大宮","lat":34.733749,"lon":139.356854},{"name":"銅鏡","province":"東京都","city":"大島町","address":"東京都大島町元町字地の岡30-2","lat":34.773758,"lon":139.358314},{"name":"差木地の大クス","province":"東京都","city":"大島町","address":"東京都大島町差木地2","lat":34.688425,"lon":139.403019},{"name":"野増大宮のシイ樹叢","province":"東京都","city":"大島町","address":"東京都大島町野増字大宮","lat":34.733749,"lon":139.356854},{"name":"大島町図書館","province":"東京都","city":"大島町","address":"東京都大島町元町丸塚（字）548-1","lat":34.74691712,"lon":139.3620587},{"name":"大島社会福祉協議会","province":"東京都","city":"大島町","address":"大島町元町2-1-4","lat":34.74951,"lon":139.35573},{"name":"大島のサクラ株","province":"東京都","city":"大島町","address":"東京都大島町泉津","lat":34.78307496,"lon":139.41375561},{"name":"カモシカ","province":"東京都","city":"大島町","address":"東京都大島町泉津","lat":34.78307496,"lon":139.41375561},{"name":"シイノキ山のシイノキ群叢","province":"東京都","city":"大島町","address":"東京都大島町泉津","lat":34.78307496,"lon":139.41375561},{"name":"大島海浜植物群落","province":"東京都","city":"大島町","address":"東京都大島町泉津","lat":34.78307496,"lon":139.41375561},{"name":"オジロワシ","province":"東京都","city":"大島町","address":"東京都大島町泉津","lat":34.78307496,"lon":139.41375561},{"name":"コクガン","province":"東京都","city":"大島町","address":"東京都大島町泉津","lat":34.78307496,"lon":139.41375561},{"name":"マガン","province":"東京都","city":"大島町","address":"東京都大島町泉津","lat":34.78307496,"lon":139.41375561},{"name":"鉄砲場の岩陰遺跡","province":"東京都","city":"大島町","address":"東京都大島町泉津","lat":34.78307496,"lon":139.41375561},{"name":"大島下高洞遺跡","province":"東京都","city":"大島町","address":"東京都大島町元町","lat":34.75069975,"lon":139.35458395},{"name":"大島竜の口遺跡","province":"東京都","city":"大島町","address":"東京都大島町野増","lat":34.73029943,"lon":139.35466575},{"name":"役行者窟","province":"東京都","city":"大島町","address":"東京都大島町泉津","lat":34.78307496,"lon":139.41375561},{"name":"秋広平六墓","province":"東京都","city":"大島町","address":"東京都大島町波浮港","lat":34.68677239,"lon":139.44189881},{"name":"差木地の大クス","province":"東京都","city":"大島町","address":"東京都大島町差木地","lat":34.68312246,"lon":139.41394612},{"name":"潮吹の鼻","province":"東京都","city":"大島町","address":"東京都大島町泉津","lat":34.78307496,"lon":139.41375561},{"name":"おたいね浦の岩脈と筆島","province":"東京都","city":"大島町","address":"東京都大島町波浮港","lat":34.68677239,"lon":139.44189881},{"name":"野増大宮神社の十二座神楽","province":"東京都","city":"大島町","address":"東京都大島町野増大宮上手（字）","lat":34.73296069,"lon":139.37116714},{"name":"カラスバト","province":"東京都","city":"大島町","address":"東京都大島町泉津","lat":34.78307496,"lon":139.41375561},{"name":"元町のハマンカー（南井戸）","province":"東京都","city":"大島町","address":"東京都大島町元町","lat":34.75069975,"lon":139.35458395},{"name":"赤穂義士　間瀬定八の墓","province":"東京都","city":"大島町","address":"東京都大島町元町","lat":34.75069975,"lon":139.35458395},{"name":"力士　大島伝吉の碑（勇鑑石とも）","province":"東京都","city":"大島町","address":"東京都大島町岡田","lat":34.78878237,"lon":139.39285739},{"name":"粟本佐次朗記念碑（テリコの碑）","province":"東京都","city":"大島町","address":"東京都大島町岡田","lat":34.78878237,"lon":139.39285739},{"name":"波浮港開港碑","province":"東京都","city":"大島町","address":"東京都大島町波浮港","lat":34.68677239,"lon":139.44189881},{"name":"＊?泉津公民館","province":"東京都","city":"大島町","address":"大島町泉津字川之原15番","lat":34.783281,"lon":139.412804},{"name":"＊?北の山公民館","province":"東京都","city":"大島町","address":"大島町元町字佐吾右衛門野地7番4","lat":34.776968,"lon":139.36096},{"name":"＊?野増公民館","province":"東京都","city":"大島町","address":"大島町野増5番地","lat":34.728885,"lon":139.353623},{"name":"＊?伊豆大島火山博物館","province":"東京都","city":"大島町","address":"大島町元町字神田屋敷617","lat":34.743999,"lon":139.360024},{"name":"＊?郷土資料館","province":"東京都","city":"大島町","address":"大島町元町字地の岡30番2","lat":34.773678,"lon":139.358458},{"name":"大島町図書館","province":"東京都","city":"大島町","address":"大島町元町1-15","lat":34.753087,"lon":139.354149},{"name":"大島町野増清掃工場","province":"東京都","city":"大島町","address":"大島町野増字クヅアラ638-1","lat":34.715286,"lon":139.357788},{"name":"銅鏡","province":"東京都","city":"大島町","address":"東京都大島町野増字大宮","lat":34.733749,"lon":139.356854},{"name":"銅鏡","province":"東京都","city":"大島町","address":"東京都大島町元町字地の岡30-2","lat":34.773758,"lon":139.358314},{"name":"差木地の大クス","province":"東京都","city":"大島町","address":"東京都大島町差木地2","lat":34.688425,"lon":139.403019},{"name":"野増大宮のシイ樹叢","province":"東京都","city":"大島町","address":"東京都大島町野増字大宮","lat":34.733749,"lon":139.356854},{"name":"大島町図書館","province":"東京都","city":"大島町","address":"東京都大島町元町丸塚（字）548-1","lat":34.74691712,"lon":139.3620587},{"name":"大島のサクラ株","province":"東京都","city":"大島町","address":"東京都大島町泉津","lat":34.78307496,"lon":139.41375561},{"name":"カモシカ","province":"東京都","city":"大島町","address":"東京都大島町泉津","lat":34.78307496,"lon":139.41375561},{"name":"シイノキ山のシイノキ群叢","province":"東京都","city":"大島町","address":"東京都大島町泉津","lat":34.78307496,"lon":139.41375561},{"name":"大島海浜植物群落","province":"東京都","city":"大島町","address":"東京都大島町泉津","lat":34.78307496,"lon":139.41375561},{"name":"オジロワシ","province":"東京都","city":"大島町","address":"東京都大島町泉津","lat":34.78307496,"lon":139.41375561},{"name":"コクガン","province":"東京都","city":"大島町","address":"東京都大島町泉津","lat":34.78307496,"lon":139.41375561},{"name":"マガン","province":"東京都","city":"大島町","address":"東京都大島町泉津","lat":34.78307496,"lon":139.41375561},{"name":"鉄砲場の岩陰遺跡","province":"東京都","city":"大島町","address":"東京都大島町泉津","lat":34.78307496,"lon":139.41375561},{"name":"大島下高洞遺跡","province":"東京都","city":"大島町","address":"東京都大島町元町","lat":34.75069975,"lon":139.35458395},{"name":"大島竜の口遺跡","province":"東京都","city":"大島町","address":"東京都大島町野増","lat":34.73029943,"lon":139.35466575},{"name":"役行者窟","province":"東京都","city":"大島町","address":"東京都大島町泉津","lat":34.78307496,"lon":139.41375561},{"name":"秋広平六墓","province":"東京都","city":"大島町","address":"東京都大島町波浮港","lat":34.68677239,"lon":139.44189881},{"name":"差木地の大クス","province":"東京都","city":"大島町","address":"東京都大島町差木地","lat":34.68312246,"lon":139.41394612},{"name":"潮吹の鼻","province":"東京都","city":"大島町","address":"東京都大島町泉津","lat":34.78307496,"lon":139.41375561},{"name":"おたいね浦の岩脈と筆島","province":"東京都","city":"大島町","address":"東京都大島町波浮港","lat":34.68677239,"lon":139.44189881},{"name":"野増大宮神社の十二座神楽","province":"東京都","city":"大島町","address":"東京都大島町野増大宮上手（字）","lat":34.73296069,"lon":139.37116714},{"name":"カラスバト","province":"東京都","city":"大島町","address":"東京都大島町泉津","lat":34.78307496,"lon":139.41375561},{"name":"元町のハマンカー（南井戸）","province":"東京都","city":"大島町","address":"東京都大島町元町","lat":34.75069975,"lon":139.35458395},{"name":"赤穂義士　間瀬定八の墓","province":"東京都","city":"大島町","address":"東京都大島町元町","lat":34.75069975,"lon":139.35458395},{"name":"力士　大島伝吉の碑（勇鑑石とも）","province":"東京都","city":"大島町","address":"東京都大島町岡田","lat":34.78878237,"lon":139.39285739},{"name":"粟本佐次朗記念碑（テリコの碑）","province":"東京都","city":"大島町","address":"東京都大島町岡田","lat":34.78878237,"lon":139.39285739},{"name":"波浮港開港碑","province":"東京都","city":"大島町","address":"東京都大島町波浮港","lat":34.68677239,"lon":139.44189881},{"name":"＊?泉津公民館","province":"東京都","city":"大島町","address":"大島町泉津字川之原15番","lat":34.783281,"lon":139.412804},{"name":"＊?北の山公民館","province":"東京都","city":"大島町","address":"大島町元町字佐吾右衛門野地7番4","lat":34.776968,"lon":139.36096},{"name":"＊?野増公民館","province":"東京都","city":"大島町","address":"大島町野増5番地","lat":34.728885,"lon":139.353623},{"name":"＊?伊豆大島火山博物館","province":"東京都","city":"大島町","address":"大島町元町字神田屋敷617","lat":34.743999,"lon":139.360024},{"name":"＊?郷土資料館","province":"東京都","city":"大島町","address":"大島町元町字地の岡30番2","lat":34.773678,"lon":139.358458},{"name":"大島町図書館","province":"東京都","city":"大島町","address":"大島町元町1-15","lat":34.753087,"lon":139.354149},{"name":"大島町野増清掃工場","province":"東京都","city":"大島町","address":"大島町野増字クヅアラ638-1","lat":34.715286,"lon":139.357788},{"name":"銅鏡","province":"東京都","city":"大島町","address":"東京都大島町野増字大宮","lat":34.733749,"lon":139.356854},{"name":"銅鏡","province":"東京都","city":"大島町","address":"東京都大島町元町字地の岡30-2","lat":34.773758,"lon":139.358314},{"name":"差木地の大クス","province":"東京都","city":"大島町","address":"東京都大島町差木地2","lat":34.688425,"lon":139.403019},{"name":"野増大宮のシイ樹叢","province":"東京都","city":"大島町","address":"東京都大島町野増字大宮","lat":34.733749,"lon":139.356854},{"name":"大島町図書館","province":"東京都","city":"大島町","address":"東京都大島町元町丸塚（字）548-1","lat":34.74691712,"lon":139.3620587},{"name":"大島のサクラ株","province":"東京都","city":"大島町","address":"東京都大島町泉津","lat":34.78307496,"lon":139.41375561},{"name":"カモシカ","province":"東京都","city":"大島町","address":"東京都大島町泉津","lat":34.78307496,"lon":139.41375561},{"name":"シイノキ山のシイノキ群叢","province":"東京都","city":"大島町","address":"東京都大島町泉津","lat":34.78307496,"lon":139.41375561},{"name":"大島海浜植物群落","province":"東京都","city":"大島町","address":"東京都大島町泉津","lat":34.78307496,"lon":139.41375561},{"name":"オジロワシ","province":"東京都","city":"大島町","address":"東京都大島町泉津","lat":34.78307496,"lon":139.41375561},{"name":"コクガン","province":"東京都","city":"大島町","address":"東京都大島町泉津","lat":34.78307496,"lon":139.41375561},{"name":"マガン","province":"東京都","city":"大島町","address":"東京都大島町泉津","lat":34.78307496,"lon":139.41375561},{"name":"鉄砲場の岩陰遺跡","province":"東京都","city":"大島町","address":"東京都大島町泉津","lat":34.78307496,"lon":139.41375561},{"name":"大島下高洞遺跡","province":"東京都","city":"大島町","address":"東京都大島町元町","lat":34.75069975,"lon":139.35458395},{"name":"大島竜の口遺跡","province":"東京都","city":"大島町","address":"東京都大島町野増","lat":34.73029943,"lon":139.35466575},{"name":"役行者窟","province":"東京都","city":"大島町","address":"東京都大島町泉津","lat":34.78307496,"lon":139.41375561},{"name":"秋広平六墓","province":"東京都","city":"大島町","address":"東京都大島町波浮港","lat":34.68677239,"lon":139.44189881},{"name":"差木地の大クス","province":"東京都","city":"大島町","address":"東京都大島町差木地","lat":34.68312246,"lon":139.41394612},{"name":"潮吹の鼻","province":"東京都","city":"大島町","address":"東京都大島町泉津","lat":34.78307496,"lon":139.41375561},{"name":"おたいね浦の岩脈と筆島","province":"東京都","city":"大島町","address":"東京都大島町波浮港","lat":34.68677239,"lon":139.44189881},{"name":"野増大宮神社の十二座神楽","province":"東京都","city":"大島町","address":"東京都大島町野増大宮上手（字）","lat":34.73296069,"lon":139.37116714},{"name":"カラスバト","province":"東京都","city":"大島町","address":"東京都大島町泉津","lat":34.78307496,"lon":139.41375561},{"name":"元町のハマンカー（南井戸）","province":"東京都","city":"大島町","address":"東京都大島町元町","lat":34.75069975,"lon":139.35458395},{"name":"赤穂義士　間瀬定八の墓","province":"東京都","city":"大島町","address":"東京都大島町元町","lat":34.75069975,"lon":139.35458395},{"name":"力士　大島伝吉の碑（勇鑑石とも）","province":"東京都","city":"大島町","address":"東京都大島町岡田","lat":34.78878237,"lon":139.39285739},{"name":"粟本佐次朗記念碑（テリコの碑）","province":"東京都","city":"大島町","address":"東京都大島町岡田","lat":34.78878237,"lon":139.39285739},{"name":"波浮港開港碑","province":"東京都","city":"大島町","address":"東京都大島町波浮港","lat":34.68677239,"lon":139.44189881},{"name":"＊?泉津公民館","province":"東京都","city":"大島町","address":"大島町泉津字川之原15番","lat":34.783281,"lon":139.412804},{"name":"＊?北の山公民館","province":"東京都","city":"大島町","address":"大島町元町字佐吾右衛門野地7番4","lat":34.776968,"lon":139.36096},{"name":"＊?野増公民館","province":"東京都","city":"大島町","address":"大島町野増5番地","lat":34.728885,"lon":139.353623},{"name":"＊?伊豆大島火山博物館","province":"東京都","city":"大島町","address":"大島町元町字神田屋敷617","lat":34.743999,"lon":139.360024},{"name":"＊?郷土資料館","province":"東京都","city":"大島町","address":"大島町元町字地の岡30番2","lat":34.773678,"lon":139.358458},{"name":"大島町図書館","province":"東京都","city":"大島町","address":"大島町元町1-15","lat":34.753087,"lon":139.354149},{"name":"大島町野増清掃工場","province":"東京都","city":"大島町","address":"大島町野増字クヅアラ638-1","lat":34.715286,"lon":139.357788},{"name":"銅鏡","province":"東京都","city":"大島町","address":"東京都大島町野増字大宮","lat":34.733749,"lon":139.356854},{"name":"銅鏡","province":"東京都","city":"大島町","address":"東京都大島町元町字地の岡30-2","lat":34.773758,"lon":139.358314},{"name":"差木地の大クス","province":"東京都","city":"大島町","address":"東京都大島町差木地2","lat":34.688425,"lon":139.403019},{"name":"野増大宮のシイ樹叢","province":"東京都","city":"大島町","address":"東京都大島町野増字大宮","lat":34.733749,"lon":139.356854},{"name":"大島町図書館","province":"東京都","city":"大島町","address":"東京都大島町元町丸塚（字）548-1","lat":34.74691712,"lon":139.3620587},{"name":"大島のサクラ株","province":"東京都","city":"大島町","address":"東京都大島町泉津","lat":34.78307496,"lon":139.41375561},{"name":"カモシカ","province":"東京都","city":"大島町","address":"東京都大島町泉津","lat":34.78307496,"lon":139.41375561},{"name":"シイノキ山のシイノキ群叢","province":"東京都","city":"大島町","address":"東京都大島町泉津","lat":34.78307496,"lon":139.41375561},{"name":"大島海浜植物群落","province":"東京都","city":"大島町","address":"東京都大島町泉津","lat":34.78307496,"lon":139.41375561},{"name":"オジロワシ","province":"東京都","city":"大島町","address":"東京都大島町泉津","lat":34.78307496,"lon":139.41375561},{"name":"コクガン","province":"東京都","city":"大島町","address":"東京都大島町泉津","lat":34.78307496,"lon":139.41375561},{"name":"マガン","province":"東京都","city":"大島町","address":"東京都大島町泉津","lat":34.78307496,"lon":139.41375561},{"name":"鉄砲場の岩陰遺跡","province":"東京都","city":"大島町","address":"東京都大島町泉津","lat":34.78307496,"lon":139.41375561},{"name":"大島下高洞遺跡","province":"東京都","city":"大島町","address":"東京都大島町元町","lat":34.75069975,"lon":139.35458395},{"name":"大島竜の口遺跡","province":"東京都","city":"大島町","address":"東京都大島町野増","lat":34.73029943,"lon":139.35466575},{"name":"役行者窟","province":"東京都","city":"大島町","address":"東京都大島町泉津","lat":34.78307496,"lon":139.41375561},{"name":"秋広平六墓","province":"東京都","city":"大島町","address":"東京都大島町波浮港","lat":34.68677239,"lon":139.44189881},{"name":"差木地の大クス","province":"東京都","city":"大島町","address":"東京都大島町差木地","lat":34.68312246,"lon":139.41394612},{"name":"潮吹の鼻","province":"東京都","city":"大島町","address":"東京都大島町泉津","lat":34.78307496,"lon":139.41375561},{"name":"おたいね浦の岩脈と筆島","province":"東京都","city":"大島町","address":"東京都大島町波浮港","lat":34.68677239,"lon":139.44189881},{"name":"野増大宮神社の十二座神楽","province":"東京都","city":"大島町","address":"東京都大島町野増大宮上手（字）","lat":34.73296069,"lon":139.37116714},{"name":"カラスバト","province":"東京都","city":"大島町","address":"東京都大島町泉津","lat":34.78307496,"lon":139.41375561},{"name":"元町のハマンカー（南井戸）","province":"東京都","city":"大島町","address":"東京都大島町元町","lat":34.75069975,"lon":139.35458395},{"name":"赤穂義士　間瀬定八の墓","province":"東京都","city":"大島町","address":"東京都大島町元町","lat":34.75069975,"lon":139.35458395},{"name":"力士　大島伝吉の碑（勇鑑石とも）","province":"東京都","city":"大島町","address":"東京都大島町岡田","lat":34.78878237,"lon":139.39285739},{"name":"粟本佐次朗記念碑（テリコの碑）","province":"東京都","city":"大島町","address":"東京都大島町岡田","lat":34.78878237,"lon":139.39285739},{"name":"波浮港開港碑","province":"東京都","city":"大島町","address":"東京都大島町波浮港","lat":34.68677239,"lon":139.44189881},{"name":"＊?泉津公民館","province":"東京都","city":"大島町","address":"大島町泉津字川之原15番","lat":34.783281,"lon":139.412804},{"name":"＊?北の山公民館","province":"東京都","city":"大島町","address":"大島町元町字佐吾右衛門野地7番4","lat":34.776968,"lon":139.36096},{"name":"＊?野増公民館","province":"東京都","city":"大島町","address":"大島町野増5番地","lat":34.728885,"lon":139.353623},{"name":"＊?伊豆大島火山博物館","province":"東京都","city":"大島町","address":"大島町元町字神田屋敷617","lat":34.743999,"lon":139.360024},{"name":"＊?郷土資料館","province":"東京都","city":"大島町","address":"大島町元町字地の岡30番2","lat":34.773678,"lon":139.358458},{"name":"大島町図書館","province":"東京都","city":"大島町","address":"大島町元町1-15","lat":34.753087,"lon":139.354149},{"name":"大島町野増清掃工場","province":"東京都","city":"大島町","address":"大島町野増字クヅアラ638-1","lat":34.715286,"lon":139.357788},{"name":"銅鏡","province":"東京都","city":"大島町","address":"東京都大島町野増字大宮","lat":34.733749,"lon":139.356854},{"name":"銅鏡","province":"東京都","city":"大島町","address":"東京都大島町元町字地の岡30-2","lat":34.773758,"lon":139.358314},{"name":"差木地の大クス","province":"東京都","city":"大島町","address":"東京都大島町差木地2","lat":34.688425,"lon":139.403019},{"name":"野増大宮のシイ樹叢","province":"東京都","city":"大島町","address":"東京都大島町野増字大宮","lat":34.733749,"lon":139.356854},{"name":"大島町図書館","province":"東京都","city":"大島町","address":"東京都大島町元町丸塚（字）548-1","lat":34.74691712,"lon":139.3620587},{"name":"大島のサクラ株","province":"東京都","city":"大島町","address":"東京都大島町泉津","lat":34.78307496,"lon":139.41375561},{"name":"カモシカ","province":"東京都","city":"大島町","address":"東京都大島町泉津","lat":34.78307496,"lon":139.41375561},{"name":"シイノキ山のシイノキ群叢","province":"東京都","city":"大島町","address":"東京都大島町泉津","lat":34.78307496,"lon":139.41375561},{"name":"大島海浜植物群落","province":"東京都","city":"大島町","address":"東京都大島町泉津","lat":34.78307496,"lon":139.41375561},{"name":"オジロワシ","province":"東京都","city":"大島町","address":"東京都大島町泉津","lat":34.78307496,"lon":139.41375561},{"name":"コクガン","province":"東京都","city":"大島町","address":"東京都大島町泉津","lat":34.78307496,"lon":139.41375561},{"name":"マガン","province":"東京都","city":"大島町","address":"東京都大島町泉津","lat":34.78307496,"lon":139.41375561},{"name":"鉄砲場の岩陰遺跡","province":"東京都","city":"大島町","address":"東京都大島町泉津","lat":34.78307496,"lon":139.41375561},{"name":"大島下高洞遺跡","province":"東京都","city":"大島町","address":"東京都大島町元町","lat":34.75069975,"lon":139.35458395},{"name":"大島竜の口遺跡","province":"東京都","city":"大島町","address":"東京都大島町野増","lat":34.73029943,"lon":139.35466575},{"name":"役行者窟","province":"東京都","city":"大島町","address":"東京都大島町泉津","lat":34.78307496,"lon":139.41375561},{"name":"秋広平六墓","province":"東京都","city":"大島町","address":"東京都大島町波浮港","lat":34.68677239,"lon":139.44189881},{"name":"差木地の大クス","province":"東京都","city":"大島町","address":"東京都大島町差木地","lat":34.68312246,"lon":139.41394612},{"name":"潮吹の鼻","province":"東京都","city":"大島町","address":"東京都大島町泉津","lat":34.78307496,"lon":139.41375561},{"name":"おたいね浦の岩脈と筆島","province":"東京都","city":"大島町","address":"東京都大島町波浮港","lat":34.68677239,"lon":139.44189881},{"name":"野増大宮神社の十二座神楽","province":"東京都","city":"大島町","address":"東京都大島町野増大宮上手（字）","lat":34.73296069,"lon":139.37116714},{"name":"カラスバト","province":"東京都","city":"大島町","address":"東京都大島町泉津","lat":34.78307496,"lon":139.41375561},{"name":"元町のハマンカー（南井戸）","province":"東京都","city":"大島町","address":"東京都大島町元町","lat":34.75069975,"lon":139.35458395},{"name":"赤穂義士　間瀬定八の墓","province":"東京都","city":"大島町","address":"東京都大島町元町","lat":34.75069975,"lon":139.35458395},{"name":"力士　大島伝吉の碑（勇鑑石とも）","province":"東京都","city":"大島町","address":"東京都大島町岡田","lat":34.78878237,"lon":139.39285739},{"name":"粟本佐次朗記念碑（テリコの碑）","province":"東京都","city":"大島町","address":"東京都大島町岡田","lat":34.78878237,"lon":139.39285739},{"name":"波浮港開港碑","province":"東京都","city":"大島町","address":"東京都大島町波浮港","lat":34.68677239,"lon":139.44189881},{"name":"＊?伊豆大島火山博物館","province":"東京都","city":"大島町","address":"大島町元町字神田屋敷617","lat":34.743999,"lon":139.360024},{"name":"＊?郷土資料館","province":"東京都","city":"大島町","address":"大島町元町字地の岡30番2","lat":34.773678,"lon":139.358458},{"name":"大島町図書館","province":"東京都","city":"大島町","address":"大島町元町1-15","lat":34.753087,"lon":139.354149},{"name":"大島町野増清掃工場","province":"東京都","city":"大島町","address":"大島町野増字クヅアラ638-1","lat":34.715286,"lon":139.357788},{"name":"銅鏡","province":"東京都","city":"大島町","address":"東京都大島町野増字大宮","lat":34.733749,"lon":139.356854},{"name":"銅鏡","province":"東京都","city":"大島町","address":"東京都大島町元町字地の岡30-2","lat":34.773758,"lon":139.358314},{"name":"差木地の大クス","province":"東京都","city":"大島町","address":"東京都大島町差木地2","lat":34.688425,"lon":139.403019},{"name":"野増大宮のシイ樹叢","province":"東京都","city":"大島町","address":"東京都大島町野増字大宮","lat":34.733749,"lon":139.356854},{"name":"大島町図書館","province":"東京都","city":"大島町","address":"東京都大島町元町丸塚（字）548-1","lat":34.74691712,"lon":139.3620587},{"name":"大島のサクラ株","province":"東京都","city":"大島町","address":"東京都大島町泉津","lat":34.78307496,"lon":139.41375561},{"name":"カモシカ","province":"東京都","city":"大島町","address":"東京都大島町泉津","lat":34.78307496,"lon":139.41375561},{"name":"シイノキ山のシイノキ群叢","province":"東京都","city":"大島町","address":"東京都大島町泉津","lat":34.78307496,"lon":139.41375561},{"name":"大島海浜植物群落","province":"東京都","city":"大島町","address":"東京都大島町泉津","lat":34.78307496,"lon":139.41375561},{"name":"オジロワシ","province":"東京都","city":"大島町","address":"東京都大島町泉津","lat":34.78307496,"lon":139.41375561},{"name":"コクガン","province":"東京都","city":"大島町","address":"東京都大島町泉津","lat":34.78307496,"lon":139.41375561},{"name":"マガン","province":"東京都","city":"大島町","address":"東京都大島町泉津","lat":34.78307496,"lon":139.41375561},{"name":"鉄砲場の岩陰遺跡","province":"東京都","city":"大島町","address":"東京都大島町泉津","lat":34.78307496,"lon":139.41375561},{"name":"大島下高洞遺跡","province":"東京都","city":"大島町","address":"東京都大島町元町","lat":34.75069975,"lon":139.35458395},{"name":"大島竜の口遺跡","province":"東京都","city":"大島町","address":"東京都大島町野増","lat":34.73029943,"lon":139.35466575},{"name":"役行者窟","province":"東京都","city":"大島町","address":"東京都大島町泉津","lat":34.78307496,"lon":139.41375561},{"name":"秋広平六墓","province":"東京都","city":"大島町","address":"東京都大島町波浮港","lat":34.68677239,"lon":139.44189881},{"name":"差木地の大クス","province":"東京都","city":"大島町","address":"東京都大島町差木地","lat":34.68312246,"lon":139.41394612},{"name":"潮吹の鼻","province":"東京都","city":"大島町","address":"東京都大島町泉津","lat":34.78307496,"lon":139.41375561},{"name":"おたいね浦の岩脈と筆島","province":"東京都","city":"大島町","address":"東京都大島町波浮港","lat":34.68677239,"lon":139.44189881},{"name":"野増大宮神社の十二座神楽","province":"東京都","city":"大島町","address":"東京都大島町野増大宮上手（字）","lat":34.73296069,"lon":139.37116714},{"name":"カラスバト","province":"東京都","city":"大島町","address":"東京都大島町泉津","lat":34.78307496,"lon":139.41375561},{"name":"元町のハマンカー（南井戸）","province":"東京都","city":"大島町","address":"東京都大島町元町","lat":34.75069975,"lon":139.35458395},{"name":"赤穂義士　間瀬定八の墓","province":"東京都","city":"大島町","address":"東京都大島町元町","lat":34.75069975,"lon":139.35458395},{"name":"力士　大島伝吉の碑（勇鑑石とも）","province":"東京都","city":"大島町","address":"東京都大島町岡田","lat":34.78878237,"lon":139.39285739},{"name":"粟本佐次朗記念碑（テリコの碑）","province":"東京都","city":"大島町","address":"東京都大島町岡田","lat":34.78878237,"lon":139.39285739},{"name":"波浮港開港碑","province":"東京都","city":"大島町","address":"東京都大島町波浮港","lat":34.68677239,"lon":139.44189881},{"name":"＊?伊豆大島火山博物館","province":"東京都","city":"大島町","address":"大島町元町字神田屋敷617","lat":34.743999,"lon":139.360024},{"name":"＊?郷土資料館","province":"東京都","city":"大島町","address":"大島町元町字地の岡30番2","lat":34.773678,"lon":139.358458},{"name":"大島町図書館","province":"東京都","city":"大島町","address":"大島町元町1-15","lat":34.753087,"lon":139.354149},{"name":"大島町野増清掃工場","province":"東京都","city":"大島町","address":"大島町野増字クヅアラ638-1","lat":34.715286,"lon":139.357788},{"name":"銅鏡","province":"東京都","city":"大島町","address":"東京都大島町野増字大宮","lat":34.733749,"lon":139.356854},{"name":"銅鏡","province":"東京都","city":"大島町","address":"東京都大島町元町字地の岡30-2","lat":34.773758,"lon":139.358314},{"name":"差木地の大クス","province":"東京都","city":"大島町","address":"東京都大島町差木地2","lat":34.688425,"lon":139.403019},{"name":"野増大宮のシイ樹叢","province":"東京都","city":"大島町","address":"東京都大島町野増字大宮","lat":34.733749,"lon":139.356854},{"name":"大島町図書館","province":"東京都","city":"大島町","address":"東京都大島町元町丸塚（字）548-1","lat":34.74691712,"lon":139.3620587},{"name":"大島のサクラ株","province":"東京都","city":"大島町","address":"東京都大島町泉津","lat":34.78307496,"lon":139.41375561},{"name":"カモシカ","province":"東京都","city":"大島町","address":"東京都大島町泉津","lat":34.78307496,"lon":139.41375561},{"name":"シイノキ山のシイノキ群叢","province":"東京都","city":"大島町","address":"東京都大島町泉津","lat":34.78307496,"lon":139.41375561},{"name":"大島海浜植物群落","province":"東京都","city":"大島町","address":"東京都大島町泉津","lat":34.78307496,"lon":139.41375561},{"name":"オジロワシ","province":"東京都","city":"大島町","address":"東京都大島町泉津","lat":34.78307496,"lon":139.41375561},{"name":"コクガン","province":"東京都","city":"大島町","address":"東京都大島町泉津","lat":34.78307496,"lon":139.41375561},{"name":"マガン","province":"東京都","city":"大島町","address":"東京都大島町泉津","lat":34.78307496,"lon":139.41375561},{"name":"鉄砲場の岩陰遺跡","province":"東京都","city":"大島町","address":"東京都大島町泉津","lat":34.78307496,"lon":139.41375561},{"name":"大島下高洞遺跡","province":"東京都","city":"大島町","address":"東京都大島町元町","lat":34.75069975,"lon":139.35458395},{"name":"大島竜の口遺跡","province":"東京都","city":"大島町","address":"東京都大島町野増","lat":34.73029943,"lon":139.35466575},{"name":"役行者窟","province":"東京都","city":"大島町","address":"東京都大島町泉津","lat":34.78307496,"lon":139.41375561},{"name":"秋広平六墓","province":"東京都","city":"大島町","address":"東京都大島町波浮港","lat":34.68677239,"lon":139.44189881},{"name":"差木地の大クス","province":"東京都","city":"大島町","address":"東京都大島町差木地","lat":34.68312246,"lon":139.41394612},{"name":"潮吹の鼻","province":"東京都","city":"大島町","address":"東京都大島町泉津","lat":34.78307496,"lon":139.41375561},{"name":"おたいね浦の岩脈と筆島","province":"東京都","city":"大島町","address":"東京都大島町波浮港","lat":34.68677239,"lon":139.44189881},{"name":"野増大宮神社の十二座神楽","province":"東京都","city":"大島町","address":"東京都大島町野増大宮上手（字）","lat":34.73296069,"lon":139.37116714},{"name":"カラスバト","province":"東京都","city":"大島町","address":"東京都大島町泉津","lat":34.78307496,"lon":139.41375561},{"name":"元町のハマンカー（南井戸）","province":"東京都","city":"大島町","address":"東京都大島町元町","lat":34.75069975,"lon":139.35458395},{"name":"赤穂義士　間瀬定八の墓","province":"東京都","city":"大島町","address":"東京都大島町元町","lat":34.75069975,"lon":139.35458395},{"name":"力士　大島伝吉の碑（勇鑑石とも）","province":"東京都","city":"大島町","address":"東京都大島町岡田","lat":34.78878237,"lon":139.39285739},{"name":"粟本佐次朗記念碑（テリコの碑）","province":"東京都","city":"大島町","address":"東京都大島町岡田","lat":34.78878237,"lon":139.39285739},{"name":"波浮港開港碑","province":"東京都","city":"大島町","address":"東京都大島町波浮港","lat":34.68677239,"lon":139.44189881},{"name":"大島町図書館","province":"東京都","city":"大島町","address":"大島町元町1-15","lat":34.753087,"lon":139.354149},{"name":"大島町野増清掃工場","province":"東京都","city":"大島町","address":"大島町野増字クヅアラ638-1","lat":34.715286,"lon":139.357788},{"name":"銅鏡","province":"東京都","city":"大島町","address":"東京都大島町野増字大宮","lat":34.733749,"lon":139.356854},{"name":"銅鏡","province":"東京都","city":"大島町","address":"東京都大島町元町字地の岡30-2","lat":34.773758,"lon":139.358314},{"name":"差木地の大クス","province":"東京都","city":"大島町","address":"東京都大島町差木地2","lat":34.688425,"lon":139.403019},{"name":"野増大宮のシイ樹叢","province":"東京都","city":"大島町","address":"東京都大島町野増字大宮","lat":34.733749,"lon":139.356854},{"name":"大島町図書館","province":"東京都","city":"大島町","address":"東京都大島町元町丸塚（字）548-1","lat":34.74691712,"lon":139.3620587},{"name":"大島のサクラ株","province":"東京都","city":"大島町","address":"東京都大島町泉津","lat":34.78307496,"lon":139.41375561},{"name":"カモシカ","province":"東京都","city":"大島町","address":"東京都大島町泉津","lat":34.78307496,"lon":139.41375561},{"name":"シイノキ山のシイノキ群叢","province":"東京都","city":"大島町","address":"東京都大島町泉津","lat":34.78307496,"lon":139.41375561},{"name":"大島海浜植物群落","province":"東京都","city":"大島町","address":"東京都大島町泉津","lat":34.78307496,"lon":139.41375561},{"name":"オジロワシ","province":"東京都","city":"大島町","address":"東京都大島町泉津","lat":34.78307496,"lon":139.41375561},{"name":"コクガン","province":"東京都","city":"大島町","address":"東京都大島町泉津","lat":34.78307496,"lon":139.41375561},{"name":"マガン","province":"東京都","city":"大島町","address":"東京都大島町泉津","lat":34.78307496,"lon":139.41375561},{"name":"鉄砲場の岩陰遺跡","province":"東京都","city":"大島町","address":"東京都大島町泉津","lat":34.78307496,"lon":139.41375561},{"name":"大島下高洞遺跡","province":"東京都","city":"大島町","address":"東京都大島町元町","lat":34.75069975,"lon":139.35458395},{"name":"大島竜の口遺跡","province":"東京都","city":"大島町","address":"東京都大島町野増","lat":34.73029943,"lon":139.35466575},{"name":"役行者窟","province":"東京都","city":"大島町","address":"東京都大島町泉津","lat":34.78307496,"lon":139.41375561},{"name":"秋広平六墓","province":"東京都","city":"大島町","address":"東京都大島町波浮港","lat":34.68677239,"lon":139.44189881},{"name":"差木地の大クス","province":"東京都","city":"大島町","address":"東京都大島町差木地","lat":34.68312246,"lon":139.41394612},{"name":"潮吹の鼻","province":"東京都","city":"大島町","address":"東京都大島町泉津","lat":34.78307496,"lon":139.41375561},{"name":"おたいね浦の岩脈と筆島","province":"東京都","city":"大島町","address":"東京都大島町波浮港","lat":34.68677239,"lon":139.44189881},{"name":"野増大宮神社の十二座神楽","province":"東京都","city":"大島町","address":"東京都大島町野増大宮上手（字）","lat":34.73296069,"lon":139.37116714},{"name":"カラスバト","province":"東京都","city":"大島町","address":"東京都大島町泉津","lat":34.78307496,"lon":139.41375561},{"name":"元町のハマンカー（南井戸）","province":"東京都","city":"大島町","address":"東京都大島町元町","lat":34.75069975,"lon":139.35458395},{"name":"赤穂義士　間瀬定八の墓","province":"東京都","city":"大島町","address":"東京都大島町元町","lat":34.75069975,"lon":139.35458395},{"name":"力士　大島伝吉の碑（勇鑑石とも）","province":"東京都","city":"大島町","address":"東京都大島町岡田","lat":34.78878237,"lon":139.39285739},{"name":"粟本佐次朗記念碑（テリコの碑）","province":"東京都","city":"大島町","address":"東京都大島町岡田","lat":34.78878237,"lon":139.39285739},{"name":"波浮港開港碑","province":"東京都","city":"大島町","address":"東京都大島町波浮港","lat":34.68677239,"lon":139.44189881},{"name":"大島町図書館","province":"東京都","city":"大島町","address":"大島町元町1-15","lat":34.753087,"lon":139.354149},{"name":"大島町野増清掃工場","province":"東京都","city":"大島町","address":"大島町野増字クヅアラ638-1","lat":34.715286,"lon":139.357788},{"name":"銅鏡","province":"東京都","city":"大島町","address":"東京都大島町野増字大宮","lat":34.733749,"lon":139.356854},{"name":"銅鏡","province":"東京都","city":"大島町","address":"東京都大島町元町字地の岡30-2","lat":34.773758,"lon":139.358314},{"name":"差木地の大クス","province":"東京都","city":"大島町","address":"東京都大島町差木地2","lat":34.688425,"lon":139.403019},{"name":"野増大宮のシイ樹叢","province":"東京都","city":"大島町","address":"東京都大島町野増字大宮","lat":34.733749,"lon":139.356854},{"name":"大島町図書館","province":"東京都","city":"大島町","address":"東京都大島町元町丸塚（字）548-1","lat":34.74691712,"lon":139.3620587},{"name":"大島のサクラ株","province":"東京都","city":"大島町","address":"東京都大島町泉津","lat":34.78307496,"lon":139.41375561},{"name":"カモシカ","province":"東京都","city":"大島町","address":"東京都大島町泉津","lat":34.78307496,"lon":139.41375561},{"name":"シイノキ山のシイノキ群叢","province":"東京都","city":"大島町","address":"東京都大島町泉津","lat":34.78307496,"lon":139.41375561},{"name":"大島海浜植物群落","province":"東京都","city":"大島町","address":"東京都大島町泉津","lat":34.78307496,"lon":139.41375561},{"name":"オジロワシ","province":"東京都","city":"大島町","address":"東京都大島町泉津","lat":34.78307496,"lon":139.41375561},{"name":"コクガン","province":"東京都","city":"大島町","address":"東京都大島町泉津","lat":34.78307496,"lon":139.41375561},{"name":"マガン","province":"東京都","city":"大島町","address":"東京都大島町泉津","lat":34.78307496,"lon":139.41375561},{"name":"鉄砲場の岩陰遺跡","province":"東京都","city":"大島町","address":"東京都大島町泉津","lat":34.78307496,"lon":139.41375561},{"name":"大島下高洞遺跡","province":"東京都","city":"大島町","address":"東京都大島町元町","lat":34.75069975,"lon":139.35458395},{"name":"大島竜の口遺跡","province":"東京都","city":"大島町","address":"東京都大島町野増","lat":34.73029943,"lon":139.35466575},{"name":"役行者窟","province":"東京都","city":"大島町","address":"東京都大島町泉津","lat":34.78307496,"lon":139.41375561},{"name":"秋広平六墓","province":"東京都","city":"大島町","address":"東京都大島町波浮港","lat":34.68677239,"lon":139.44189881},{"name":"差木地の大クス","province":"東京都","city":"大島町","address":"東京都大島町差木地","lat":34.68312246,"lon":139.41394612},{"name":"潮吹の鼻","province":"東京都","city":"大島町","address":"東京都大島町泉津","lat":34.78307496,"lon":139.41375561},{"name":"おたいね浦の岩脈と筆島","province":"東京都","city":"大島町","address":"東京都大島町波浮港","lat":34.68677239,"lon":139.44189881},{"name":"野増大宮神社の十二座神楽","province":"東京都","city":"大島町","address":"東京都大島町野増大宮上手（字）","lat":34.73296069,"lon":139.37116714},{"name":"カラスバト","province":"東京都","city":"大島町","address":"東京都大島町泉津","lat":34.78307496,"lon":139.41375561},{"name":"元町のハマンカー（南井戸）","province":"東京都","city":"大島町","address":"東京都大島町元町","lat":34.75069975,"lon":139.35458395},{"name":"赤穂義士　間瀬定八の墓","province":"東京都","city":"大島町","address":"東京都大島町元町","lat":34.75069975,"lon":139.35458395},{"name":"力士　大島伝吉の碑（勇鑑石とも）","province":"東京都","city":"大島町","address":"東京都大島町岡田","lat":34.78878237,"lon":139.39285739},{"name":"粟本佐次朗記念碑（テリコの碑）","province":"東京都","city":"大島町","address":"東京都大島町岡田","lat":34.78878237,"lon":139.39285739},{"name":"波浮港開港碑","province":"東京都","city":"大島町","address":"東京都大島町波浮港","lat":34.68677239,"lon":139.44189881},{"name":"大島町図書館","province":"東京都","city":"大島町","address":"大島町元町1-15","lat":34.753087,"lon":139.354149},{"name":"大島町野増清掃工場","province":"東京都","city":"大島町","address":"大島町野増字クヅアラ638-1","lat":34.715286,"lon":139.357788},{"name":"銅鏡","province":"東京都","city":"大島町","address":"東京都大島町野増字大宮","lat":34.733749,"lon":139.356854},{"name":"銅鏡","province":"東京都","city":"大島町","address":"東京都大島町元町字地の岡30-2","lat":34.773758,"lon":139.358314},{"name":"差木地の大クス","province":"東京都","city":"大島町","address":"東京都大島町差木地2","lat":34.688425,"lon":139.403019},{"name":"野増大宮のシイ樹叢","province":"東京都","city":"大島町","address":"東京都大島町野増字大宮","lat":34.733749,"lon":139.356854},{"name":"大島町図書館","province":"東京都","city":"大島町","address":"東京都大島町元町丸塚（字）548-1","lat":34.74691712,"lon":139.3620587},{"name":"大島町図書館","province":"東京都","city":"大島町","address":"大島町元町1-15","lat":34.753087,"lon":139.354149},{"name":"大島町野増清掃工場","province":"東京都","city":"大島町","address":"大島町野増字クヅアラ638-1","lat":34.715286,"lon":139.357788},{"name":"銅鏡","province":"東京都","city":"大島町","address":"東京都大島町野増字大宮","lat":34.733749,"lon":139.356854},{"name":"銅鏡","province":"東京都","city":"大島町","address":"東京都大島町元町字地の岡30-2","lat":34.773758,"lon":139.358314},{"name":"差木地の大クス","province":"東京都","city":"大島町","address":"東京都大島町差木地2","lat":34.688425,"lon":139.403019},{"name":"野増大宮のシイ樹叢","province":"東京都","city":"大島町","address":"東京都大島町野増字大宮","lat":34.733749,"lon":139.356854},{"name":"大島町図書館","province":"東京都","city":"大島町","address":"東京都大島町元町丸塚（字）548-1","lat":34.74691712,"lon":139.3620587},{"name":"大島町図書館","province":"東京都","city":"大島町","address":"大島町元町1-15","lat":34.753087,"lon":139.354149},{"name":"大島町野増清掃工場","province":"東京都","city":"大島町","address":"大島町野増字クヅアラ638-1","lat":34.715286,"lon":139.357788},{"name":"銅鏡","province":"東京都","city":"大島町","address":"東京都大島町野増字大宮","lat":34.733749,"lon":139.356854},{"name":"銅鏡","province":"東京都","city":"大島町","address":"東京都大島町元町字地の岡30-2","lat":34.773758,"lon":139.358314},{"name":"差木地の大クス","province":"東京都","city":"大島町","address":"東京都大島町差木地2","lat":34.688425,"lon":139.403019},{"name":"野増大宮のシイ樹叢","province":"東京都","city":"大島町","address":"東京都大島町野増字大宮","lat":34.733749,"lon":139.356854},{"name":"大島町図書館","province":"東京都","city":"大島町","address":"東京都大島町元町丸塚（字）548-1","lat":34.74691712,"lon":139.3620587},{"name":"大島町図書館","province":"東京都","city":"大島町","address":"大島町元町1-15","lat":34.753087,"lon":139.354149},{"name":"大島町野増清掃工場","province":"東京都","city":"大島町","address":"大島町野増字クヅアラ638-1","lat":34.715286,"lon":139.357788},{"name":"銅鏡","province":"東京都","city":"大島町","address":"東京都大島町野増字大宮","lat":34.733749,"lon":139.356854},{"name":"銅鏡","province":"東京都","city":"大島町","address":"東京都大島町元町字地の岡30-2","lat":34.773758,"lon":139.358314},{"name":"差木地の大クス","province":"東京都","city":"大島町","address":"東京都大島町差木地2","lat":34.688425,"lon":139.403019},{"name":"野増大宮のシイ樹叢","province":"東京都","city":"大島町","address":"東京都大島町野増字大宮","lat":34.733749,"lon":139.356854},{"name":"大島町図書館","province":"東京都","city":"大島町","address":"東京都大島町元町丸塚（字）548-1","lat":34.74691712,"lon":139.3620587},{"name":"大島町図書館","province":"東京都","city":"大島町","address":"大島町元町1-15","lat":34.753087,"lon":139.354149},{"name":"大島町野増清掃工場","province":"東京都","city":"大島町","address":"大島町野増字クヅアラ638-1","lat":34.715286,"lon":139.357788},{"name":"銅鏡","province":"東京都","city":"大島町","address":"東京都大島町野増字大宮","lat":34.733749,"lon":139.356854},{"name":"銅鏡","province":"東京都","city":"大島町","address":"東京都大島町元町字地の岡30-2","lat":34.773758,"lon":139.358314},{"name":"差木地の大クス","province":"東京都","city":"大島町","address":"東京都大島町差木地2","lat":34.688425,"lon":139.403019},{"name":"野増大宮のシイ樹叢","province":"東京都","city":"大島町","address":"東京都大島町野増字大宮","lat":34.733749,"lon":139.356854},{"name":"大島町図書館","province":"東京都","city":"大島町","address":"東京都大島町元町丸塚（字）548-1","lat":34.74691712,"lon":139.3620587},{"name":"大島町図書館","province":"東京都","city":"大島町","address":"大島町元町1-15","lat":34.753087,"lon":139.354149},{"name":"大島町野増清掃工場","province":"東京都","city":"大島町","address":"大島町野増字クヅアラ638-1","lat":34.715286,"lon":139.357788},{"name":"銅鏡","province":"東京都","city":"大島町","address":"東京都大島町野増字大宮","lat":34.733749,"lon":139.356854},{"name":"銅鏡","province":"東京都","city":"大島町","address":"東京都大島町元町字地の岡30-2","lat":34.773758,"lon":139.358314},{"name":"差木地の大クス","province":"東京都","city":"大島町","address":"東京都大島町差木地2","lat":34.688425,"lon":139.403019},{"name":"野増大宮のシイ樹叢","province":"東京都","city":"大島町","address":"東京都大島町野増字大宮","lat":34.733749,"lon":139.356854},{"name":"大島町図書館","province":"東京都","city":"大島町","address":"東京都大島町元町丸塚（字）548-1","lat":34.74691712,"lon":139.3620587},{"name":"大島町図書館","province":"東京都","city":"大島町","address":"大島町元町1-15","lat":34.753087,"lon":139.354149},{"name":"大島町野増清掃工場","province":"東京都","city":"大島町","address":"大島町野増字クヅアラ638-1","lat":34.715286,"lon":139.357788},{"name":"銅鏡","province":"東京都","city":"大島町","address":"東京都大島町野増字大宮","lat":34.733749,"lon":139.356854},{"name":"銅鏡","province":"東京都","city":"大島町","address":"東京都大島町元町字地の岡30-2","lat":34.773758,"lon":139.358314},{"name":"差木地の大クス","province":"東京都","city":"大島町","address":"東京都大島町差木地2","lat":34.688425,"lon":139.403019},{"name":"野増大宮のシイ樹叢","province":"東京都","city":"大島町","address":"東京都大島町野増字大宮","lat":34.733749,"lon":139.356854},{"name":"大島町図書館","province":"東京都","city":"大島町","address":"東京都大島町元町丸塚（字）548-1","lat":34.74691712,"lon":139.3620587},{"name":"大島町図書館","province":"東京都","city":"大島町","address":"大島町元町1-15","lat":34.753087,"lon":139.354149},{"name":"大島町野増清掃工場","province":"東京都","city":"大島町","address":"大島町野増字クヅアラ638-1","lat":34.715286,"lon":139.357788},{"name":"銅鏡","province":"東京都","city":"大島町","address":"東京都大島町野増字大宮","lat":34.733749,"lon":139.356854},{"name":"銅鏡","province":"東京都","city":"大島町","address":"東京都大島町元町字地の岡30-2","lat":34.773758,"lon":139.358314},{"name":"差木地の大クス","province":"東京都","city":"大島町","address":"東京都大島町差木地2","lat":34.688425,"lon":139.403019},{"name":"野増大宮のシイ樹叢","province":"東京都","city":"大島町","address":"東京都大島町野増字大宮","lat":34.733749,"lon":139.356854},{"name":"大島町図書館","province":"東京都","city":"大島町","address":"東京都大島町元町丸塚（字）548-1","lat":34.74691712,"lon":139.3620587},{"name":"大島町図書館","province":"東京都","city":"大島町","address":"大島町元町1-15","lat":34.753087,"lon":139.354149},{"name":"大島町野増清掃工場","province":"東京都","city":"大島町","address":"大島町野増字クヅアラ638-1","lat":34.715286,"lon":139.357788},{"name":"銅鏡","province":"東京都","city":"大島町","address":"東京都大島町野増字大宮","lat":34.733749,"lon":139.356854},{"name":"銅鏡","province":"東京都","city":"大島町","address":"東京都大島町元町字地の岡30-2","lat":34.773758,"lon":139.358314},{"name":"差木地の大クス","province":"東京都","city":"大島町","address":"東京都大島町差木地2","lat":34.688425,"lon":139.403019},{"name":"野増大宮のシイ樹叢","province":"東京都","city":"大島町","address":"東京都大島町野増字大宮","lat":34.733749,"lon":139.356854},{"name":"大島町図書館","province":"東京都","city":"大島町","address":"東京都大島町元町丸塚（字）548-1","lat":34.74691712,"lon":139.3620587},{"name":"大島町図書館","province":"東京都","city":"大島町","address":"大島町元町1-15","lat":34.753087,"lon":139.354149},{"name":"大島町野増清掃工場","province":"東京都","city":"大島町","address":"大島町野増字クヅアラ638-1","lat":34.715286,"lon":139.357788},{"name":"銅鏡","province":"東京都","city":"大島町","address":"東京都大島町野増字大宮","lat":34.733749,"lon":139.356854},{"name":"銅鏡","province":"東京都","city":"大島町","address":"東京都大島町元町字地の岡30-2","lat":34.773758,"lon":139.358314},{"name":"差木地の大クス","province":"東京都","city":"大島町","address":"東京都大島町差木地2","lat":34.688425,"lon":139.403019},{"name":"野増大宮のシイ樹叢","province":"東京都","city":"大島町","address":"東京都大島町野増字大宮","lat":34.733749,"lon":139.356854},{"name":"大島町図書館","province":"東京都","city":"大島町","address":"東京都大島町元町丸塚（字）548-1","lat":34.74691712,"lon":139.3620587},{"name":"大島町図書館","province":"東京都","city":"大島町","address":"大島町元町1-15","lat":34.753087,"lon":139.354149},{"name":"大島町野増清掃工場","province":"東京都","city":"大島町","address":"大島町野増字クヅアラ638-1","lat":34.715286,"lon":139.357788},{"name":"銅鏡","province":"東京都","city":"大島町","address":"東京都大島町野増字大宮","lat":34.733749,"lon":139.356854},{"name":"銅鏡","province":"東京都","city":"大島町","address":"東京都大島町元町字地の岡30-2","lat":34.773758,"lon":139.358314},{"name":"差木地の大クス","province":"東京都","city":"大島町","address":"東京都大島町差木地2","lat":34.688425,"lon":139.403019},{"name":"野増大宮のシイ樹叢","province":"東京都","city":"大島町","address":"東京都大島町野増字大宮","lat":34.733749,"lon":139.356854},{"name":"大島町図書館","province":"東京都","city":"大島町","address":"東京都大島町元町丸塚（字）548-1","lat":34.74691712,"lon":139.3620587},{"name":"大島町図書館","province":"東京都","city":"大島町","address":"大島町元町1-15","lat":34.753087,"lon":139.354149},{"name":"銅鏡","province":"東京都","city":"大島町","address":"東京都大島町野増字大宮","lat":34.733749,"lon":139.356854},{"name":"銅鏡","province":"東京都","city":"大島町","address":"東京都大島町元町字地の岡30-2","lat":34.773758,"lon":139.358314},{"name":"差木地の大クス","province":"東京都","city":"大島町","address":"東京都大島町差木地2","lat":34.688425,"lon":139.403019},{"name":"野増大宮のシイ樹叢","province":"東京都","city":"大島町","address":"東京都大島町野増字大宮","lat":34.733749,"lon":139.356854},{"name":"大島町図書館","province":"東京都","city":"大島町","address":"東京都大島町元町丸塚（字）548-1","lat":34.74691712,"lon":139.3620587},{"name":"大島町図書館","province":"東京都","city":"大島町","address":"大島町元町1-15","lat":34.753087,"lon":139.354149},{"name":"銅鏡","province":"東京都","city":"大島町","address":"東京都大島町野増字大宮","lat":34.733749,"lon":139.356854},{"name":"銅鏡","province":"東京都","city":"大島町","address":"東京都大島町元町字地の岡30-2","lat":34.773758,"lon":139.358314},{"name":"差木地の大クス","province":"東京都","city":"大島町","address":"東京都大島町差木地2","lat":34.688425,"lon":139.403019},{"name":"野増大宮のシイ樹叢","province":"東京都","city":"大島町","address":"東京都大島町野増字大宮","lat":34.733749,"lon":139.356854},{"name":"大島町図書館","province":"東京都","city":"大島町","address":"東京都大島町元町丸塚（字）548-1","lat":34.74691712,"lon":139.3620587},{"name":"大島町図書館","province":"東京都","city":"大島町","address":"大島町元町1-15","lat":34.753087,"lon":139.354149},{"name":"銅鏡","province":"東京都","city":"大島町","address":"東京都大島町野増字大宮","lat":34.733749,"lon":139.356854},{"name":"銅鏡","province":"東京都","city":"大島町","address":"東京都大島町元町字地の岡30-2","lat":34.773758,"lon":139.358314},{"name":"差木地の大クス","province":"東京都","city":"大島町","address":"東京都大島町差木地2","lat":34.688425,"lon":139.403019},{"name":"野増大宮のシイ樹叢","province":"東京都","city":"大島町","address":"東京都大島町野増字大宮","lat":34.733749,"lon":139.356854},{"name":"大島町図書館","province":"東京都","city":"大島町","address":"東京都大島町元町丸塚（字）548-1","lat":34.74691712,"lon":139.3620587},{"name":"大島町図書館","province":"東京都","city":"大島町","address":"大島町元町1-15","lat":34.753087,"lon":139.354149},{"name":"銅鏡","province":"東京都","city":"大島町","address":"東京都大島町野増字大宮","lat":34.733749,"lon":139.356854},{"name":"銅鏡","province":"東京都","city":"大島町","address":"東京都大島町元町字地の岡30-2","lat":34.773758,"lon":139.358314},{"name":"差木地の大クス","province":"東京都","city":"大島町","address":"東京都大島町差木地2","lat":34.688425,"lon":139.403019},{"name":"野増大宮のシイ樹叢","province":"東京都","city":"大島町","address":"東京都大島町野増字大宮","lat":34.733749,"lon":139.356854},{"name":"大島町図書館","province":"東京都","city":"大島町","address":"東京都大島町元町丸塚（字）548-1","lat":34.74691712,"lon":139.3620587},{"name":"大島町図書館","province":"東京都","city":"大島町","address":"大島町元町1-15","lat":34.753087,"lon":139.354149},{"name":"銅鏡","province":"東京都","city":"大島町","address":"東京都大島町野増字大宮","lat":34.733749,"lon":139.356854},{"name":"銅鏡","province":"東京都","city":"大島町","address":"東京都大島町元町字地の岡30-2","lat":34.773758,"lon":139.358314},{"name":"差木地の大クス","province":"東京都","city":"大島町","address":"東京都大島町差木地2","lat":34.688425,"lon":139.403019},{"name":"野増大宮のシイ樹叢","province":"東京都","city":"大島町","address":"東京都大島町野増字大宮","lat":34.733749,"lon":139.356854},{"name":"大島町図書館","province":"東京都","city":"大島町","address":"東京都大島町元町丸塚（字）548-1","lat":34.74691712,"lon":139.3620587},{"name":"大島町図書館","province":"東京都","city":"大島町","address":"大島町元町1-15","lat":34.753087,"lon":139.354149},{"name":"銅鏡","province":"東京都","city":"大島町","address":"東京都大島町野増字大宮","lat":34.733749,"lon":139.356854},{"name":"銅鏡","province":"東京都","city":"大島町","address":"東京都大島町元町字地の岡30-2","lat":34.773758,"lon":139.358314},{"name":"差木地の大クス","province":"東京都","city":"大島町","address":"東京都大島町差木地2","lat":34.688425,"lon":139.403019},{"name":"野増大宮のシイ樹叢","province":"東京都","city":"大島町","address":"東京都大島町野増字大宮","lat":34.733749,"lon":139.356854},{"name":"大島町図書館","province":"東京都","city":"大島町","address":"東京都大島町元町丸塚（字）548-1","lat":34.74691712,"lon":139.3620587},{"name":"大島町図書館","province":"東京都","city":"大島町","address":"大島町元町1-15","lat":34.753087,"lon":139.354149},{"name":"銅鏡","province":"東京都","city":"大島町","address":"東京都大島町野増字大宮","lat":34.733749,"lon":139.356854},{"name":"銅鏡","province":"東京都","city":"大島町","address":"東京都大島町元町字地の岡30-2","lat":34.773758,"lon":139.358314},{"name":"差木地の大クス","province":"東京都","city":"大島町","address":"東京都大島町差木地2","lat":34.688425,"lon":139.403019},{"name":"野増大宮のシイ樹叢","province":"東京都","city":"大島町","address":"東京都大島町野増字大宮","lat":34.733749,"lon":139.356854},{"name":"大島町図書館","province":"東京都","city":"大島町","address":"東京都大島町元町丸塚（字）548-1","lat":34.74691712,"lon":139.3620587},{"name":"大島町図書館","province":"東京都","city":"大島町","address":"大島町元町1-15","lat":34.753087,"lon":139.354149},{"name":"銅鏡","province":"東京都","city":"大島町","address":"東京都大島町野増字大宮","lat":34.733749,"lon":139.356854},{"name":"銅鏡","province":"東京都","city":"大島町","address":"東京都大島町元町字地の岡30-2","lat":34.773758,"lon":139.358314},{"name":"差木地の大クス","province":"東京都","city":"大島町","address":"東京都大島町差木地2","lat":34.688425,"lon":139.403019},{"name":"野増大宮のシイ樹叢","province":"東京都","city":"大島町","address":"東京都大島町野増字大宮","lat":34.733749,"lon":139.356854},{"name":"大島町図書館","province":"東京都","city":"大島町","address":"東京都大島町元町丸塚（字）548-1","lat":34.74691712,"lon":139.3620587},{"name":"大島町図書館","province":"東京都","city":"大島町","address":"大島町元町1-15","lat":34.753087,"lon":139.354149},{"name":"銅鏡","province":"東京都","city":"大島町","address":"東京都大島町野増字大宮","lat":34.733749,"lon":139.356854},{"name":"銅鏡","province":"東京都","city":"大島町","address":"東京都大島町元町字地の岡30-2","lat":34.773758,"lon":139.358314},{"name":"差木地の大クス","province":"東京都","city":"大島町","address":"東京都大島町差木地2","lat":34.688425,"lon":139.403019},{"name":"野増大宮のシイ樹叢","province":"東京都","city":"大島町","address":"東京都大島町野増字大宮","lat":34.733749,"lon":139.356854},{"name":"大島町図書館","province":"東京都","city":"大島町","address":"東京都大島町元町丸塚（字）548-1","lat":34.74691712,"lon":139.3620587},{"name":"大島町図書館","province":"東京都","city":"大島町","address":"大島町元町1-15","lat":34.753087,"lon":139.354149},{"name":"銅鏡","province":"東京都","city":"大島町","address":"東京都大島町野増字大宮","lat":34.733749,"lon":139.356854},{"name":"銅鏡","province":"東京都","city":"大島町","address":"東京都大島町元町字地の岡30-2","lat":34.773758,"lon":139.358314},{"name":"差木地の大クス","province":"東京都","city":"大島町","address":"東京都大島町差木地2","lat":34.688425,"lon":139.403019},{"name":"野増大宮のシイ樹叢","province":"東京都","city":"大島町","address":"東京都大島町野増字大宮","lat":34.733749,"lon":139.356854},{"name":"大島町図書館","province":"東京都","city":"大島町","address":"東京都大島町元町丸塚（字）548-1","lat":34.74691712,"lon":139.3620587},{"name":"大島町図書館","province":"東京都","city":"大島町","address":"大島町元町1-15","lat":34.753087,"lon":139.354149},{"name":"銅鏡","province":"東京都","city":"大島町","address":"東京都大島町野増字大宮","lat":34.733749,"lon":139.356854},{"name":"銅鏡","province":"東京都","city":"大島町","address":"東京都大島町元町字地の岡30-2","lat":34.773758,"lon":139.358314},{"name":"差木地の大クス","province":"東京都","city":"大島町","address":"東京都大島町差木地2","lat":34.688425,"lon":139.403019},{"name":"野増大宮のシイ樹叢","province":"東京都","city":"大島町","address":"東京都大島町野増字大宮","lat":34.733749,"lon":139.356854},{"name":"大島町図書館","province":"東京都","city":"大島町","address":"東京都大島町元町丸塚（字）548-1","lat":34.74691712,"lon":139.3620587},{"name":"大島町図書館","province":"東京都","city":"大島町","address":"大島町元町1-15","lat":34.753087,"lon":139.354149},{"name":"銅鏡","province":"東京都","city":"大島町","address":"東京都大島町野増字大宮","lat":34.733749,"lon":139.356854},{"name":"銅鏡","province":"東京都","city":"大島町","address":"東京都大島町元町字地の岡30-2","lat":34.773758,"lon":139.358314},{"name":"差木地の大クス","province":"東京都","city":"大島町","address":"東京都大島町差木地2","lat":34.688425,"lon":139.403019},{"name":"野増大宮のシイ樹叢","province":"東京都","city":"大島町","address":"東京都大島町野増字大宮","lat":34.733749,"lon":139.356854},{"name":"大島町図書館","province":"東京都","city":"大島町","address":"東京都大島町元町丸塚（字）548-1","lat":34.74691712,"lon":139.3620587},{"name":"大島町図書館","province":"東京都","city":"大島町","address":"大島町元町1-15","lat":34.753087,"lon":139.354149},{"name":"銅鏡","province":"東京都","city":"大島町","address":"東京都大島町野増字大宮","lat":34.733749,"lon":139.356854},{"name":"銅鏡","province":"東京都","city":"大島町","address":"東京都大島町元町字地の岡30-2","lat":34.773758,"lon":139.358314},{"name":"差木地の大クス","province":"東京都","city":"大島町","address":"東京都大島町差木地2","lat":34.688425,"lon":139.403019},{"name":"野増大宮のシイ樹叢","province":"東京都","city":"大島町","address":"東京都大島町野増字大宮","lat":34.733749,"lon":139.356854},{"name":"大島町図書館","province":"東京都","city":"大島町","address":"東京都大島町元町丸塚（字）548-1","lat":34.74691712,"lon":139.3620587},{"name":"大島町図書館","province":"東京都","city":"大島町","address":"大島町元町1-15","lat":34.753087,"lon":139.354149},{"name":"銅鏡","province":"東京都","city":"大島町","address":"東京都大島町野増字大宮","lat":34.733749,"lon":139.356854},{"name":"銅鏡","province":"東京都","city":"大島町","address":"東京都大島町元町字地の岡30-2","lat":34.773758,"lon":139.358314},{"name":"差木地の大クス","province":"東京都","city":"大島町","address":"東京都大島町差木地2","lat":34.688425,"lon":139.403019},{"name":"野増大宮のシイ樹叢","province":"東京都","city":"大島町","address":"東京都大島町野増字大宮","lat":34.733749,"lon":139.356854},{"name":"大島町図書館","province":"東京都","city":"大島町","address":"東京都大島町元町丸塚（字）548-1","lat":34.74691712,"lon":139.3620587},{"name":"大島町図書館","province":"東京都","city":"大島町","address":"大島町元町1-15","lat":34.753087,"lon":139.354149},{"name":"銅鏡","province":"東京都","city":"大島町","address":"東京都大島町野増字大宮","lat":34.733749,"lon":139.356854},{"name":"銅鏡","province":"東京都","city":"大島町","address":"東京都大島町元町字地の岡30-2","lat":34.773758,"lon":139.358314},{"name":"差木地の大クス","province":"東京都","city":"大島町","address":"東京都大島町差木地2","lat":34.688425,"lon":139.403019},{"name":"野増大宮のシイ樹叢","province":"東京都","city":"大島町","address":"東京都大島町野増字大宮","lat":34.733749,"lon":139.356854},{"name":"大島町図書館","province":"東京都","city":"大島町","address":"東京都大島町元町丸塚（字）548-1","lat":34.74691712,"lon":139.3620587},{"name":"大島町図書館","province":"東京都","city":"大島町","address":"大島町元町1-15","lat":34.753087,"lon":139.354149},{"name":"銅鏡","province":"東京都","city":"大島町","address":"東京都大島町野増字大宮","lat":34.733749,"lon":139.356854},{"name":"銅鏡","province":"東京都","city":"大島町","address":"東京都大島町元町字地の岡30-2","lat":34.773758,"lon":139.358314},{"name":"差木地の大クス","province":"東京都","city":"大島町","address":"東京都大島町差木地2","lat":34.688425,"lon":139.403019},{"name":"野増大宮のシイ樹叢","province":"東京都","city":"大島町","address":"東京都大島町野増字大宮","lat":34.733749,"lon":139.356854},{"name":"大島町図書館","province":"東京都","city":"大島町","address":"東京都大島町元町丸塚（字）548-1","lat":34.74691712,"lon":139.3620587},{"name":"大島町図書館","province":"東京都","city":"大島町","address":"大島町元町1-15","lat":34.753087,"lon":139.354149},{"name":"銅鏡","province":"東京都","city":"大島町","address":"東京都大島町野増字大宮","lat":34.733749,"lon":139.356854},{"name":"銅鏡","province":"東京都","city":"大島町","address":"東京都大島町元町字地の岡30-2","lat":34.773758,"lon":139.358314},{"name":"差木地の大クス","province":"東京都","city":"大島町","address":"東京都大島町差木地2","lat":34.688425,"lon":139.403019},{"name":"野増大宮のシイ樹叢","province":"東京都","city":"大島町","address":"東京都大島町野増字大宮","lat":34.733749,"lon":139.356854},{"name":"大島町図書館","province":"東京都","city":"大島町","address":"東京都大島町元町丸塚（字）548-1","lat":34.74691712,"lon":139.3620587},{"name":"大島町図書館","province":"東京都","city":"大島町","address":"大島町元町1-15","lat":34.753087,"lon":139.354149},{"name":"銅鏡","province":"東京都","city":"大島町","address":"東京都大島町野増字大宮","lat":34.733749,"lon":139.356854},{"name":"銅鏡","province":"東京都","city":"大島町","address":"東京都大島町元町字地の岡30-2","lat":34.773758,"lon":139.358314},{"name":"差木地の大クス","province":"東京都","city":"大島町","address":"東京都大島町差木地2","lat":34.688425,"lon":139.403019},{"name":"野増大宮のシイ樹叢","province":"東京都","city":"大島町","address":"東京都大島町野増字大宮","lat":34.733749,"lon":139.356854},{"name":"大島町図書館","province":"東京都","city":"大島町","address":"東京都大島町元町丸塚（字）548-1","lat":34.74691712,"lon":139.3620587},{"name":"大島町図書館","province":"東京都","city":"大島町","address":"大島町元町1-15","lat":34.753087,"lon":139.354149},{"name":"銅鏡","province":"東京都","city":"大島町","address":"東京都大島町野増字大宮","lat":34.733749,"lon":139.356854},{"name":"銅鏡","province":"東京都","city":"大島町","address":"東京都大島町元町字地の岡30-2","lat":34.773758,"lon":139.358314},{"name":"差木地の大クス","province":"東京都","city":"大島町","address":"東京都大島町差木地2","lat":34.688425,"lon":139.403019},{"name":"野増大宮のシイ樹叢","province":"東京都","city":"大島町","address":"東京都大島町野増字大宮","lat":34.733749,"lon":139.356854},{"name":"大島町図書館","province":"東京都","city":"大島町","address":"東京都大島町元町丸塚（字）548-1","lat":34.74691712,"lon":139.3620587},{"name":"大島町図書館","province":"東京都","city":"大島町","address":"大島町元町1-15","lat":34.753087,"lon":139.354149},{"name":"銅鏡","province":"東京都","city":"大島町","address":"東京都大島町野増字大宮","lat":34.733749,"lon":139.356854},{"name":"銅鏡","province":"東京都","city":"大島町","address":"東京都大島町元町字地の岡30-2","lat":34.773758,"lon":139.358314},{"name":"差木地の大クス","province":"東京都","city":"大島町","address":"東京都大島町差木地2","lat":34.688425,"lon":139.403019},{"name":"野増大宮のシイ樹叢","province":"東京都","city":"大島町","address":"東京都大島町野増字大宮","lat":34.733749,"lon":139.356854},{"name":"大島町図書館","province":"東京都","city":"大島町","address":"東京都大島町元町丸塚（字）548-1","lat":34.74691712,"lon":139.3620587},{"name":"大島町図書館","province":"東京都","city":"大島町","address":"大島町元町1-15","lat":34.753087,"lon":139.354149},{"name":"銅鏡","province":"東京都","city":"大島町","address":"東京都大島町野増字大宮","lat":34.733749,"lon":139.356854},{"name":"銅鏡","province":"東京都","city":"大島町","address":"東京都大島町元町字地の岡30-2","lat":34.773758,"lon":139.358314},{"name":"差木地の大クス","province":"東京都","city":"大島町","address":"東京都大島町差木地2","lat":34.688425,"lon":139.403019},{"name":"野増大宮のシイ樹叢","province":"東京都","city":"大島町","address":"東京都大島町野増字大宮","lat":34.733749,"lon":139.356854},{"name":"大島町図書館","province":"東京都","city":"大島町","address":"東京都大島町元町丸塚（字）548-1","lat":34.74691712,"lon":139.3620587},{"name":"大島町図書館","province":"東京都","city":"大島町","address":"大島町元町1-15","lat":34.753087,"lon":139.354149},{"name":"銅鏡","province":"東京都","city":"大島町","address":"東京都大島町野増字大宮","lat":34.733749,"lon":139.356854},{"name":"銅鏡","province":"東京都","city":"大島町","address":"東京都大島町元町字地の岡30-2","lat":34.773758,"lon":139.358314},{"name":"差木地の大クス","province":"東京都","city":"大島町","address":"東京都大島町差木地2","lat":34.688425,"lon":139.403019},{"name":"野増大宮のシイ樹叢","province":"東京都","city":"大島町","address":"東京都大島町野増字大宮","lat":34.733749,"lon":139.356854},{"name":"大島町図書館","province":"東京都","city":"大島町","address":"東京都大島町元町丸塚（字）548-1","lat":34.74691712,"lon":139.3620587},{"name":"大島町図書館","province":"東京都","city":"大島町","address":"大島町元町1-15","lat":34.753087,"lon":139.354149},{"name":"銅鏡","province":"東京都","city":"大島町","address":"東京都大島町野増字大宮","lat":34.733749,"lon":139.356854},{"name":"銅鏡","province":"東京都","city":"大島町","address":"東京都大島町元町字地の岡30-2","lat":34.773758,"lon":139.358314},{"name":"差木地の大クス","province":"東京都","city":"大島町","address":"東京都大島町差木地2","lat":34.688425,"lon":139.403019},{"name":"野増大宮のシイ樹叢","province":"東京都","city":"大島町","address":"東京都大島町野増字大宮","lat":34.733749,"lon":139.356854},{"name":"大島町図書館","province":"東京都","city":"大島町","address":"東京都大島町元町丸塚（字）548-1","lat":34.74691712,"lon":139.3620587},{"name":"大島町図書館","province":"東京都","city":"大島町","address":"大島町元町1-15","lat":34.753087,"lon":139.354149},{"name":"銅鏡","province":"東京都","city":"大島町","address":"東京都大島町野増字大宮","lat":34.733749,"lon":139.356854},{"name":"銅鏡","province":"東京都","city":"大島町","address":"東京都大島町元町字地の岡30-2","lat":34.773758,"lon":139.358314},{"name":"差木地の大クス","province":"東京都","city":"大島町","address":"東京都大島町差木地2","lat":34.688425,"lon":139.403019},{"name":"野増大宮のシイ樹叢","province":"東京都","city":"大島町","address":"東京都大島町野増字大宮","lat":34.733749,"lon":139.356854},{"name":"大島町図書館","province":"東京都","city":"大島町","address":"東京都大島町元町丸塚（字）548-1","lat":34.74691712,"lon":139.3620587},{"name":"大島町図書館","province":"東京都","city":"大島町","address":"大島町元町1-15","lat":34.753087,"lon":139.354149},{"name":"銅鏡","province":"東京都","city":"大島町","address":"東京都大島町野増字大宮","lat":34.733749,"lon":139.356854},{"name":"銅鏡","province":"東京都","city":"大島町","address":"東京都大島町元町字地の岡30-2","lat":34.773758,"lon":139.358314},{"name":"差木地の大クス","province":"東京都","city":"大島町","address":"東京都大島町差木地2","lat":34.688425,"lon":139.403019},{"name":"野増大宮のシイ樹叢","province":"東京都","city":"大島町","address":"東京都大島町野増字大宮","lat":34.733749,"lon":139.356854},{"name":"大島町図書館","province":"東京都","city":"大島町","address":"東京都大島町元町丸塚（字）548-1","lat":34.74691712,"lon":139.3620587},{"name":"大島町図書館","province":"東京都","city":"大島町","address":"大島町元町1-15","lat":34.753087,"lon":139.354149},{"name":"銅鏡","province":"東京都","city":"大島町","address":"東京都大島町野増字大宮","lat":34.733749,"lon":139.356854},{"name":"銅鏡","province":"東京都","city":"大島町","address":"東京都大島町元町字地の岡30-2","lat":34.773758,"lon":139.358314},{"name":"差木地の大クス","province":"東京都","city":"大島町","address":"東京都大島町差木地2","lat":34.688425,"lon":139.403019},{"name":"野増大宮のシイ樹叢","province":"東京都","city":"大島町","address":"東京都大島町野増字大宮","lat":34.733749,"lon":139.356854},{"name":"大島町図書館","province":"東京都","city":"大島町","address":"東京都大島町元町丸塚（字）548-1","lat":34.74691712,"lon":139.3620587},{"name":"大島町図書館","province":"東京都","city":"大島町","address":"大島町元町1-15","lat":34.753087,"lon":139.354149},{"name":"銅鏡","province":"東京都","city":"大島町","address":"東京都大島町野増字大宮","lat":34.733749,"lon":139.356854},{"name":"銅鏡","province":"東京都","city":"大島町","address":"東京都大島町元町字地の岡30-2","lat":34.773758,"lon":139.358314},{"name":"差木地の大クス","province":"東京都","city":"大島町","address":"東京都大島町差木地2","lat":34.688425,"lon":139.403019},{"name":"野増大宮のシイ樹叢","province":"東京都","city":"大島町","address":"東京都大島町野増字大宮","lat":34.733749,"lon":139.356854},{"name":"大島町図書館","province":"東京都","city":"大島町","address":"東京都大島町元町丸塚（字）548-1","lat":34.74691712,"lon":139.3620587},{"name":"大島町図書館","province":"東京都","city":"大島町","address":"大島町元町1-15","lat":34.753087,"lon":139.354149},{"name":"銅鏡","province":"東京都","city":"大島町","address":"東京都大島町野増字大宮","lat":34.733749,"lon":139.356854},{"name":"銅鏡","province":"東京都","city":"大島町","address":"東京都大島町元町字地の岡30-2","lat":34.773758,"lon":139.358314},{"name":"差木地の大クス","province":"東京都","city":"大島町","address":"東京都大島町差木地2","lat":34.688425,"lon":139.403019},{"name":"野増大宮のシイ樹叢","province":"東京都","city":"大島町","address":"東京都大島町野増字大宮","lat":34.733749,"lon":139.356854},{"name":"大島町図書館","province":"東京都","city":"大島町","address":"東京都大島町元町丸塚（字）548-1","lat":34.74691712,"lon":139.3620587},{"name":"大島町図書館","province":"東京都","city":"大島町","address":"大島町元町1-15","lat":34.753087,"lon":139.354149},{"name":"銅鏡","province":"東京都","city":"大島町","address":"東京都大島町野増字大宮","lat":34.733749,"lon":139.356854},{"name":"銅鏡","province":"東京都","city":"大島町","address":"東京都大島町元町字地の岡30-2","lat":34.773758,"lon":139.358314},{"name":"差木地の大クス","province":"東京都","city":"大島町","address":"東京都大島町差木地2","lat":34.688425,"lon":139.403019},{"name":"野増大宮のシイ樹叢","province":"東京都","city":"大島町","address":"東京都大島町野増字大宮","lat":34.733749,"lon":139.356854},{"name":"大島町図書館","province":"東京都","city":"大島町","address":"東京都大島町元町丸塚（字）548-1","lat":34.74691712,"lon":139.3620587},{"name":"大島町図書館","province":"東京都","city":"大島町","address":"大島町元町1-15","lat":34.753087,"lon":139.354149}]}