{"keyword":"リング","data":[{"name":"西新橋1丁目(外堀通り)","province":"東京都","city":"港区","address":"東京都港区西新橋一丁目12番10号","lat":35.668791,"lon":139.753582,"ラック数":"6","営業時間":"24時間","管理番号":"C1-02","開設年月日":"2014/10/1"},{"name":"虎ノ門ヒルズ","province":"東京都","city":"港区","address":"東京都港区虎ノ門一丁目23番1号","lat":35.666527,"lon":139.748804,"ラック数":"15","営業時間":"24時間","管理番号":"C1-04","開設年月日":"2014/10/1"},{"name":"西新橋2丁目(新虎通り)","province":"東京都","city":"港区","address":"東京都港区西新橋二丁目22番7号","lat":35.665593,"lon":139.752617,"ラック数":"16","営業時間":"24時間","管理番号":"C1-05","開設年月日":"2014/10/1"},{"name":"愛宕グリーンヒルズ","province":"東京都","city":"港区","address":"東京都港区愛宕二丁目5番1号","lat":35.662051,"lon":139.748132,"ラック数":"10","営業時間":"24時間","管理番号":"C1-09","開設年月日":"2014/10/1"},{"name":"新橋プラザビル","province":"東京都","city":"港区","address":"東京都港区新橋四丁目9番1号","lat":35.664461,"lon":139.756082,"ラック数":"7","営業時間":"24時間","管理番号":"C1-14","開設年月日":"2015/7/7"},{"name":"東京タワー","province":"東京都","city":"港区","address":"東京都港区芝公園四丁目2番8号","lat":35.65928,"lon":139.744767,"ラック数":"16","営業時間":"24時間","管理番号":"C1-15","開設年月日":"2015/7/14"},{"name":"機械振興会館","province":"東京都","city":"港区","address":"東京都港区芝公園三丁目5番8号","lat":35.659442,"lon":139.745549,"ラック数":"6","営業時間":"24時間","管理番号":"C1-16","開設年月日":"2015/7/17"},{"name":"港区役所","province":"東京都","city":"港区","address":"東京都港区芝公園一丁目5番25号","lat":35.657866,"lon":139.751068,"ラック数":"6","営業時間":"24時間","管理番号":"C1-17","開設年月日":"2015/8/14"},{"name":"汐留ビルディング","province":"東京都","city":"港区","address":"東京都港区海岸一丁目2番20号","lat":35.657363,"lon":139.75918,"ラック数":"11","営業時間":"24時間","管理番号":"C1-21","開設年月日":"2016/2/18"},{"name":"三田いきいきプラザ","province":"東京都","city":"港区","address":"東京都港区芝四丁目1番17号","lat":35.648637,"lon":139.749834,"ラック数":"5","営業時間":"24時間","管理番号":"C1-23","開設年月日":"2016/2/24"},{"name":"三田国際ビル","province":"東京都","city":"港区","address":"東京都港区三田一丁目4番","lat":35.653159,"lon":139.744673,"ラック数":"10","営業時間":"24時間","管理番号":"C1-24","開設年月日":"2016/3/31"},{"name":"虎ノ門2丁目タワー","province":"東京都","city":"港区","address":"東京都港区虎ノ門二丁目3番17号","lat":35.66857,"lon":139.747157,"ラック数":"14","営業時間":"24時間","管理番号":"C1-27","開設年月日":"2016/10/3"},{"name":"城山ガーデン","province":"東京都","city":"港区","address":"東京都港区虎ノ門四丁目3番1号","lat":35.664436,"lon":139.743662,"ラック数":"9","営業時間":"24時間","管理番号":"C1-34","開設年月日":"2017/4/26"},{"name":"セブン-イレブン 三田駅北店","province":"東京都","city":"港区","address":"東京都港区芝四丁目3番5号","lat":35.649032,"lon":139.750147,"ラック数":"5","営業時間":"24時間","管理番号":"C1-35","開設年月日":"2017/8/31"},{"name":"KDX西新橋ビル(北側)","province":"東京都","city":"港区","address":"東京都港区西新橋三丁目3番1号","lat":35.665218,"lon":139.750827,"ラック数":"5","営業時間":"24時間","管理番号":"C1-37","開設年月日":"2017/10/25"},{"name":"KDX西新橋ビル(西側)","province":"東京都","city":"港区","address":"東京都港区西新橋三丁目3番1号","lat":35.66495,"lon":139.750459,"ラック数":"5","営業時間":"24時間","管理番号":"C1-38","開設年月日":"2017/10/25"},{"name":"港区立エコプラザ","province":"東京都","city":"港区","address":"東京都港区浜松町一丁目13番1号","lat":35.658709,"lon":139.757036,"ラック数":"11","営業時間":"24時間","管理番号":"C1-41","開設年月日":"2017/12/22"},{"name":"KDX浜松町プレイス","province":"東京都","city":"港区","address":"東京都港区芝公園一丁目7番6号","lat":35.658169,"lon":139.752509,"ラック数":"9","営業時間":"24時間","管理番号":"C1-43","開設年月日":"2018/8/15"},{"name":"三田Avanti","province":"東京都","city":"港区","address":"東京都港区三田三丁目11番28号","lat":35.64115,"lon":139.741471,"ラック数":"6","営業時間":"24時間","管理番号":"C1-44","開設年月日":"2018/9/19"},{"name":"浜松町クレアタワー","province":"東京都","city":"港区","address":"東京都港区浜松町二丁目3番1号","lat":35.655898,"lon":139.755853,"ラック数":"6","営業時間":"24時間","管理番号":"C1-45","開設年月日":"2018/10/3"},{"name":"新虎通りCORE","province":"東京都","city":"港区","address":"東京都港区新橋四丁目1番1号","lat":35.665136,"lon":139.754072,"ラック数":"17","営業時間":"24時間","管理番号":"C1-46","開設年月日":"2018/10/3"},{"name":"パークプレイス三田","province":"東京都","city":"港区","address":"東京都港区三田三丁目7番31号","lat":35.641791,"lon":139.740734,"ラック数":"9","営業時間":"24時間","管理番号":"C1-47","開設年月日":"2018/10/17"},{"name":"竹芝客船ターミナル","province":"東京都","city":"港区","address":"東京都港区海岸一丁目12番","lat":35.655139,"lon":139.762812,"ラック数":"17","営業時間":"24時間","管理番号":"C1-48","開設年月日":"2018/11/1"},{"name":"汐留シティセンター","province":"東京都","city":"港区","address":"東京都港区東新橋一丁目5番2号","lat":35.666213,"lon":139.760907,"ラック数":"17","営業時間":"24時間","管理番号":"C1-49","開設年月日":"2018/11/7"},{"name":"NTT虎ノ門ビル","province":"東京都","city":"港区","address":"東京都港区虎ノ門三丁目8番8号","lat":35.666075,"lon":139.748008,"ラック数":"16","営業時間":"24時間","管理番号":"C1-50","開設年月日":"2018/12/25"},{"name":"環二新橋四丁目","province":"東京都","city":"港区","address":"東京都港区新橋四丁目21番","lat":35.663843,"lon":139.757697,"ラック数":"13","営業時間":"24時間","管理番号":"C1-51","開設年月日":"2019/5/28"},{"name":"NTT三田ビル","province":"東京都","city":"港区","address":"東京都港区芝三丁目7番1号","lat":35.652549,"lon":139.747789,"ラック数":"6","営業時間":"24時間","管理番号":"C1-52","開設年月日":"2019/2/6"},{"name":"ホテルリブマックス新橋","province":"東京都","city":"港区","address":"東京都港区新橋六丁目20番1号","lat":35.661149,"lon":139.754612,"ラック数":"4","営業時間":"24時間","管理番号":"C1-53","開設年月日":"2019/2/13"},{"name":"ニッセイ虎ノ門ビル","province":"東京都","city":"港区","address":"東京都港区虎ノ門三丁目17番1号","lat":35.664344,"lon":139.746662,"ラック数":"8","営業時間":"24時間","管理番号":"C1-54","開設年月日":"2019/3/13"},{"name":"アーバンネット内幸町ビル・THE BLOSSOM HIBIYA","province":"東京都","city":"港区","address":"東京都港区新橋一丁目1番13号","lat":35.669267,"lon":139.756018,"ラック数":"9","営業時間":"24時間","管理番号":"C1-55","開設年月日":"2019/8/28"},{"name":"鈴与竹芝ビル","province":"東京都","city":"港区","address":"東京都港区海岸一丁目13番","lat":35.654873,"lon":139.762103,"ラック数":"6","営業時間":"24時間","管理番号":"C1-56","開設年月日":"2019/8/21"},{"name":"虎ノ門ツインビルディング","province":"東京都","city":"港区","address":"東京都港区虎ノ門二丁目10番1号","lat":35.667259,"lon":139.745643,"ラック数":"12","営業時間":"24時間","管理番号":"C1-57","開設年月日":"2019/11/13"},{"name":"ウォーターズ竹芝","province":"東京都","city":"港区","address":"東京都港区海岸一丁目10番","lat":35.655937,"lon":139.763251,"ラック数":"10","営業時間":"24時間","管理番号":"C1-58","開設年月日":"2020/5/13"},{"name":"セレスティン芝三井ビルディング","province":"東京都","city":"港区","address":"東京都港区芝三丁目23番1号","lat":35.650845,"lon":139.748346,"ラック数":"13","営業時間":"24時間","管理番号":"C1-59","開設年月日":"2020/4/8"},{"name":"専売ビル","province":"東京都","city":"港区","address":"東京都港区芝五丁目26番30号","lat":35.647659,"lon":139.745055,"ラック数":"5","営業時間":"24時間","管理番号":"C1-60","開設年月日":"2020/4/15"},{"name":"環三浜松町駅南","province":"東京都","city":"港区","address":"東京都港区海岸一丁目5番","lat":35.653096,"lon":139.75739,"ラック数":"39","営業時間":"24時間","管理番号":"C1-61","開設年月日":"2020/4/1"},{"name":"東京虎ノ門グローバルスクエア","province":"東京都","city":"港区","address":"東京都港区虎ノ門一丁目3番1号","lat":35.669941,"lon":139.749261,"ラック数":"5","営業時間":"7:30~20:00","管理番号":"C1-64","開設年月日":"2020/7/1"},{"name":"東京ポートシティ竹芝","province":"東京都","city":"港区","address":"東京都港区海岸一丁目7番1号","lat":35.654757,"lon":139.761516,"ラック数":"15","営業時間":"24時間","管理番号":"C1-65","開設年月日":"2020/9/14"},{"name":"京阪神 虎ノ門ビル","province":"東京都","city":"港区","address":"東京都港区西新橋一丁目7番14号","lat":35.669228,"lon":139.751668,"ラック数":"23","営業時間":"24時間","管理番号":"C1-67","開設年月日":"2020/12/2"},{"name":"桜田公園","province":"東京都","city":"港区","address":"東京都港区新橋三丁目16番15号","lat":35.665214,"lon":139.757008,"ラック数":"20","営業時間":"24時間","管理番号":"C1-68","開設年月日":"2021/2/10"},{"name":"塩釜公園","province":"東京都","city":"港区","address":"東京都港区新橋五丁目19番7号","lat":35.662908,"lon":139.755014,"ラック数":"5","営業時間":"24時間","管理番号":"C1-69","開設年月日":"2021/2/10"},{"name":"芝商業高校前交差点","province":"東京都","city":"港区","address":"東京都港区海岸一丁目4番","lat":35.65583,"lon":139.759896,"ラック数":"6","営業時間":"24時間","管理番号":"C1-71","開設年月日":"2021/4/21"},{"name":"新田町ビル","province":"東京都","city":"港区","address":"東京都港区芝浦五丁目34番6号","lat":35.646307,"lon":139.746428,"ラック数":"11","営業時間":"24時間","管理番号":"C1-72","開設年月日":"2021/4/21"},{"name":"日比谷フォートタワー","province":"東京都","city":"港区","address":"東京都港区西新橋一丁目1番19号","lat":35.669871,"lon":139.753147,"ラック数":"14","営業時間":"24時間","管理番号":"C1-73","開設年月日":"2021/7/7"},{"name":"札の辻スクエア","province":"東京都","city":"港区","address":"東京都港区芝五丁目36番4号","lat":35.645115,"lon":139.744567,"ラック数":"8","営業時間":"8:00~22:00(月~土)、8:30~17:30(日)","管理番号":"C1-74","開設年月日":"2022/4/6"},{"name":"虎ノ門PFビル","province":"東京都","city":"港区","address":"東京都港区虎ノ門三丁目10番11号","lat":35.665466,"lon":139.748014,"ラック数":"8","営業時間":"24時間","管理番号":"C1-75","開設年月日":"2022/6/1"},{"name":"浜松町駅北口交通広場(ハマサイト前)","province":"東京都","city":"港区","address":"東京都港区海岸一丁目2番","lat":35.656647,"lon":139.758301,"ラック数":"18","営業時間":"24時間","管理番号":"C1-76","開設年月日":"2022/5/20"},{"name":"芝公園","province":"東京都","city":"港区","address":"東京都港区芝公園四丁目8番4号","lat":35.65513,"lon":139.749645,"ラック数":"10","営業時間":"24時間","管理番号":"C1-77","開設年月日":"2022/12/14"},{"name":"CIRCLES新橋","province":"東京都","city":"港区","address":"東京都港区西新橋二丁目11番13号","lat":35.66646,"lon":139.752138,"ラック数":"9","営業時間":"24時間","管理番号":"C1-78","開設年月日":"2023/2/22"},{"name":"髙松コンストラクショングループ 東京本社ビル","province":"東京都","city":"港区","address":"東京都港区芝四丁目8番2号","lat":35.648765,"lon":139.753363,"ラック数":"6","営業時間":"24時間","管理番号":"C1-79","開設年月日":"2023/6/12"},{"name":"浜松町262ビル","province":"東京都","city":"港区","address":"東京都港区浜松町二丁目6番2号","lat":35.654289,"lon":139.75557,"ラック数":"7","営業時間":"24時間","管理番号":"C1-80","開設年月日":"2023/7/12"},{"name":"田町タワー","province":"東京都","city":"港区","address":"東京都港区芝五丁目33番11号","lat":35.646534,"lon":139.748913,"ラック数":"20","営業時間":"24時間","管理番号":"C1-81","開設年月日":"2023/9/27"},{"name":"トヨタモビリティ東京 港三田店","province":"東京都","city":"港区","address":"東京都港区三田二丁目20番12号","lat":35.647831,"lon":139.739048,"ラック数":"5","営業時間":"24時間","管理番号":"C1-82","開設年月日":"2023/10/25"},{"name":"友愛会館","province":"東京都","city":"港区","address":"東京都港区芝二丁目20番12号","lat":35.651803,"lon":139.749834,"ラック数":"8","営業時間":"24時間","管理番号":"C1-83","開設年月日":"2024/3/6"},{"name":"新虎安田ビル","province":"東京都","city":"港区","address":"東京都港区新橋四丁目3番1号","lat":35.665221,"lon":139.754265,"ラック数":"15","営業時間":"24時間","管理番号":"C1-84","開設年月日":"2024/3/1"},{"name":"富士ソフト汐留ビル","province":"東京都","city":"港区","address":"東京都港区東新橋二丁目16番2号","lat":35.66114,"lon":139.756906,"ラック数":"10","営業時間":"24時間","管理番号":"C1-85","開設年月日":"2024/4/24"},{"name":"アークヒルズ(アーク森ビル)","province":"東京都","city":"港区","address":"東京都港区赤坂一丁目12番32号(六本木一丁目1番寄り)","lat":35.667107,"lon":139.739565,"ラック数":"12","営業時間":"24時間","管理番号":"C2-01","開設年月日":"2014/10/1"},{"name":"六本木ヒルズ","province":"東京都","city":"港区","address":"東京都港区六本木六丁目10番1号","lat":35.661158,"lon":139.728533,"ラック数":"14","営業時間":"24時間","管理番号":"C2-02","開設年月日":"2014/10/1"},{"name":"アークヒルズサウスタワー","province":"東京都","city":"港区","address":"東京都港区六本木一丁目4番5号","lat":35.666357,"lon":139.739233,"ラック数":"13","営業時間":"24時間","管理番号":"C2-03","開設年月日":"2014/10/30"},{"name":"飯倉いきいきプラザ","province":"東京都","city":"港区","address":"東京都港区東麻布二丁目16番11号","lat":35.656991,"lon":139.740739,"ラック数":"4","営業時間":"24時間","管理番号":"C2-04","開設年月日":"2015/12/18"},{"name":"ありすいきいきプラザ","province":"東京都","city":"港区","address":"東京都港区南麻布四丁目6番7号","lat":35.651046,"lon":139.727745,"ラック数":"13","営業時間":"24時間","管理番号":"C2-05","開設年月日":"2015/12/18"},{"name":"ファミリーマート西麻布霞町店","province":"東京都","city":"港区","address":"東京都港区西麻布二丁目9番16号","lat":35.661673,"lon":139.721118,"ラック数":"6","営業時間":"24時間","管理番号":"C2-08","開設年月日":"2016/6/10"},{"name":"麻布地区総合支所","province":"東京都","city":"港区","address":"東京都港区六本木五丁目16番45号","lat":35.660614,"lon":139.734771,"ラック数":"2","営業時間":"24時間","管理番号":"C2-09","開設年月日":"2016/10/26"},{"name":"元麻布三丁目","province":"東京都","city":"港区","address":"東京都港区元麻布三丁目9番","lat":35.655799,"lon":139.730415,"ラック数":"7","営業時間":"24時間","管理番号":"C2-10","開設年月日":"2016/10/26"},{"name":"一の橋","province":"東京都","city":"港区","address":"東京都港区麻布十番四丁目3番1号","lat":35.654726,"lon":139.737491,"ラック数":"52","営業時間":"24時間","管理番号":"C2-11","開設年月日":"2016/12/21"},{"name":"六本木ファーストビル","province":"東京都","city":"港区","address":"東京都港区六本木一丁目9番9号","lat":35.662411,"lon":139.741476,"ラック数":"15","営業時間":"24時間","管理番号":"C2-12","開設年月日":"2017/1/27"},{"name":"麻布運動場","province":"東京都","city":"港区","address":"東京都港区南麻布五丁目6番33号","lat":35.651718,"lon":139.728165,"ラック数":"8","営業時間":"24時間","管理番号":"C2-13","開設年月日":"2017/8/23"},{"name":"元麻布ヒルズ","province":"東京都","city":"港区","address":"東京都港区元麻布一丁目30番1号","lat":35.653608,"lon":139.73138,"ラック数":"10","営業時間":"24時間","管理番号":"C2-14","開設年月日":"2017/9/13"},{"name":"住友不動産六本木グランドタワー","province":"東京都","city":"港区","address":"東京都港区六本木三丁目2番1号","lat":35.664367,"lon":139.737185,"ラック数":"11","営業時間":"24時間","管理番号":"C2-15","開設年月日":"2017/9/20"},{"name":"ザ・ベルグレイヴィア麻布","province":"東京都","city":"港区","address":"東京都港区東麻布一丁目8番4号","lat":35.657264,"lon":139.743821,"ラック数":"4","営業時間":"24時間","管理番号":"C2-16","開設年月日":"2017/11/1"},{"name":"ブランシェ東麻布","province":"東京都","city":"港区","address":"東京都港区東麻布一丁目15番11号","lat":35.656769,"lon":139.743224,"ラック数":"3","営業時間":"24時間","管理番号":"C2-18","開設年月日":"2019/3/13"},{"name":"広尾駅","province":"東京都","city":"港区","address":"東京都港区南麻布四丁目57番25号","lat":35.650732,"lon":139.72256,"ラック数":"4","営業時間":"24時間","管理番号":"C2-19","開設年月日":"2019/5/8"},{"name":"三井ガーデンホテル六本木プレミア","province":"東京都","city":"港区","address":"東京都港区六本木三丁目15番18号","lat":35.66206,"lon":139.735501,"ラック数":"5","営業時間":"24時間","管理番号":"C2-20","開設年月日":"2019/12/24"},{"name":"飯倉公園","province":"東京都","city":"港区","address":"東京都港区東麻布一丁目21番8号","lat":35.655649,"lon":139.74427,"ラック数":"11","営業時間":"24時間","管理番号":"C2-22","開設年月日":"2021/4/7"},{"name":"Dash Living HigashiAzabu","province":"東京都","city":"港区","address":"東京都港区東麻布一丁目27番7号","lat":35.655135,"lon":139.744449,"ラック数":"6","営業時間":"24時間","管理番号":"C2-24","開設年月日":"2022/1/26"},{"name":"アパホテル&リゾート<六本木駅東>","province":"東京都","city":"港区","address":"東京都港区六本木三丁目18番6号","lat":35.661783,"lon":139.737242,"ラック数":"24","営業時間":"24時間","管理番号":"C2-25","開設年月日":"2022/10/19"},{"name":"一の橋公園","province":"東京都","city":"港区","address":"東京都港区東麻布三丁目9番1号","lat":35.655367,"lon":139.738075,"ラック数":"7","営業時間":"24時間","管理番号":"C2-26","開設年月日":"2023/6/21"},{"name":"有栖川宮記念公園第一","province":"東京都","city":"港区","address":"東京都港区南麻布五丁目7番29号","lat":35.658204,"lon":139.738935,"ラック数":"17","営業時間":"24時間","管理番号":"C2-27","開設年月日":"2023/11/22"},{"name":"有栖川宮記念公園第二","province":"東京都","city":"港区","address":"東京都港区南麻布五丁目7番29号","lat":35.651129,"lon":139.726003,"ラック数":"8","営業時間":"24時間","管理番号":"C2-28","開設年月日":"2023/11/22"},{"name":"狸穴公園","province":"東京都","city":"港区","address":"東京都港区麻布狸穴町63番地","lat":35.658204,"lon":139.738935,"ラック数":"5","営業時間":"24時間","管理番号":"C2-29","開設年月日":"2023/11/22"},{"name":"セジョリ南麻布","province":"東京都","city":"港区","address":"東京都港区南麻布二丁目3番4号","lat":35.649455,"lon":139.735325,"ラック数":"4","営業時間":"24時間","管理番号":"C2-30","開設年月日":"2024/4/10"},{"name":"赤坂地区総合支所","province":"東京都","city":"港区","address":"東京都港区赤坂四丁目18番13号","lat":35.674788,"lon":139.731423,"ラック数":"4","営業時間":"24時間","管理番号":"C3-02","開設年月日":"2015/11/28"},{"name":"青山いきいきプラザ","province":"東京都","city":"港区","address":"東京都港区南青山二丁目16番5号","lat":35.66902,"lon":139.721383,"ラック数":"3","営業時間":"24時間","管理番号":"C3-03","開設年月日":"2015/11/28"},{"name":"青南いきいきプラザ","province":"東京都","city":"港区","address":"東京都港区南青山四丁目10番1号","lat":35.666459,"lon":139.717476,"ラック数":"2","営業時間":"24時間","管理番号":"C3-04","開設年月日":"2015/11/28"},{"name":"ホテルアジア会館","province":"東京都","city":"港区","address":"東京都港区赤坂八丁目10番32号","lat":35.67064,"lon":139.728166,"ラック数":"10","営業時間":"24時間","管理番号":"C3-06","開設年月日":"2016/3/31"},{"name":"新青山ビル","province":"東京都","city":"港区","address":"東京都港区南青山一丁目1番1号","lat":35.672659,"lon":139.725644,"ラック数":"7","営業時間":"24時間","管理番号":"C3-07","開設年月日":"2016/3/31"},{"name":"赤坂パークビルヂング","province":"東京都","city":"港区","address":"東京都港区赤坂五丁目2番20号","lat":35.671792,"lon":139.733668,"ラック数":"6","営業時間":"24時間","管理番号":"C3-08","開設年月日":"2016/3/31"},{"name":"ファミリーマート特許庁前店","province":"東京都","city":"港区","address":"東京都港区赤坂一丁目3番9号","lat":35.670364,"lon":139.744684,"ラック数":"6","営業時間":"24時間","管理番号":"C3-10","開設年月日":"2016/6/10"},{"name":"赤坂見附南","province":"東京都","city":"港区","address":"東京都港区赤坂三丁目8番1号","lat":35.676566,"lon":139.737083,"ラック数":"3","営業時間":"24時間","管理番号":"C3-11","開設年月日":"2016/10/13"},{"name":"赤坂センタービルディング前(青山通り)","province":"東京都","city":"港区","address":"東京都港区元赤坂一丁目3番13号","lat":35.676732,"lon":139.733905,"ラック数":"9","営業時間":"24時間","管理番号":"C3-12","開設年月日":"2016/10/21"},{"name":"赤坂ガーデンシティ","province":"東京都","city":"港区","address":"東京都港区赤坂四丁目15番1号","lat":35.6738,"lon":139.731525,"ラック数":"9","営業時間":"24時間","管理番号":"C3-16","開設年月日":"2017/7/5"},{"name":"セブン-イレブン 港区溜池山王店","province":"東京都","city":"港区","address":"東京都港区赤坂一丁目4番41号","lat":35.670308,"lon":139.743242,"ラック数":"19","営業時間":"24時間","管理番号":"C3-17","開設年月日":"2017/9/27"},{"name":"明治記念館","province":"東京都","city":"港区","address":"東京都港区元赤坂二丁目2番23号","lat":35.678183,"lon":139.721317,"ラック数":"5","営業時間":"7:00~21:00","管理番号":"C3-18","開設年月日":"2018/2/21"},{"name":"明治記念館西","province":"東京都","city":"港区","address":"東京都港区元赤坂二丁目2番23号","lat":35.678179,"lon":139.720809,"ラック数":"5","営業時間":"24時間","管理番号":"C3-19","開設年月日":"2018/2/21"},{"name":"OMO3東京赤坂 by 星野リゾート","province":"東京都","city":"港区","address":"東京都港区赤坂四丁目3番2号","lat":35.674929,"lon":139.736053,"ラック数":"6","営業時間":"24時間","管理番号":"C3-22","開設年月日":"2018/6/6"},{"name":"LIFORK 南青山 北エントランス","province":"東京都","city":"港区","address":"東京都港区南青山一丁目12番32号","lat":35.669916,"lon":139.725701,"ラック数":"30","営業時間":"24時間","管理番号":"C3-23","開設年月日":"2018/10/6"},{"name":"SHARE GREEN 南青山 西エントランス","province":"東京都","city":"港区","address":"東京都港区南青山一丁目12番32号","lat":35.668419,"lon":139.724676,"ラック数":"5","営業時間":"24時間","管理番号":"C3-24","開設年月日":"2018/10/6"},{"name":"ホテルリブマックス赤坂","province":"東京都","city":"港区","address":"東京都港区赤坂七丁目9番4号","lat":35.67011,"lon":139.733375,"ラック数":"6","営業時間":"24時間","管理番号":"C3-26","開設年月日":"2019/2/6"},{"name":"ヒューリックJP赤坂ビル","province":"東京都","city":"港区","address":"東京都港区赤坂二丁目5番8号","lat":35.672477,"lon":139.739743,"ラック数":"11","営業時間":"24時間","管理番号":"C3-28","開設年月日":"2020/11/18"},{"name":"高橋是清翁記念公園","province":"東京都","city":"港区","address":"東京都港区赤坂七丁目3番39号","lat":35.674094,"lon":139.728895,"ラック数":"7","営業時間":"24時間","管理番号":"C3-29","開設年月日":"2021/8/4"},{"name":"東京赤坂NKビル (ヴィアインプライム赤坂)","province":"東京都","city":"港区","address":"東京都港区赤坂二丁目6番17号","lat":35.672652,"lon":139.738908,"ラック数":"10","営業時間":"24時間","管理番号":"C3-30","開設年月日":"2022/10/1"},{"name":"赤坂一丁目","province":"東京都","city":"港区","address":"東京都港区赤坂一丁目4番7号","lat":35.670239,"lon":139.744285,"ラック数":"17","営業時間":"24時間","管理番号":"C3-31","開設年月日":"2022/10/5"},{"name":"乃木公園","province":"東京都","city":"港区","address":"東京都港区赤坂八丁目11番32号","lat":35.667936,"lon":139.72745,"ラック数":"5","営業時間":"24時間","管理番号":"C3-32","開設年月日":"2022/10/5"},{"name":"PASONA SQUARE","province":"東京都","city":"港区","address":"東京都港区南青山三丁目1番30号","lat":35.667462,"lon":139.716058,"ラック数":"14","営業時間":"24時間","管理番号":"C3-33","開設年月日":"2022/12/7"},{"name":"3rd MINAMI AOYAMA","province":"東京都","city":"港区","address":"東京都港区南青山三丁目1番34号","lat":35.668622,"lon":139.715957,"ラック数":"4","営業時間":"24時間","管理番号":"C3-34","開設年月日":"2023/2/22"},{"name":"ワールド北青山ビル","province":"東京都","city":"港区","address":"東京都港区北青山三丁目5番10号","lat":35.667069,"lon":139.713423,"ラック数":"9","営業時間":"24時間","管理番号":"C3-35","開設年月日":"2023/4/2"},{"name":"第35興和ビル","province":"東京都","city":"港区","address":"東京都港区赤坂一丁目14番14号","lat":35.666349,"lon":139.741781,"ラック数":"4","営業時間":"6:00-22:00","管理番号":"C3-36","開設年月日":"2024/2/1"},{"name":"高輪地区総合支所(5F)","province":"東京都","city":"港区","address":"東京都港区高輪一丁目16番25号","lat":35.641833,"lon":139.734519,"ラック数":"10","営業時間":"24時間","管理番号":"C4-01","開設年月日":"2016/11/1"},{"name":"白金台いきいきプラザ","province":"東京都","city":"港区","address":"東京都港区白金台四丁目8番5号","lat":35.63756,"lon":139.724981,"ラック数":"0","営業時間":"24時間","管理番号":"C4-02","開設年月日":"2016/11/1"},{"name":"ショパン高輪","province":"東京都","city":"港区","address":"東京都港区高輪三丁目9番","lat":35.632128,"lon":139.732097,"ラック数":"5","営業時間":"24時間","管理番号":"C4-04","開設年月日":"2017/11/8"},{"name":"白金台駅自転車駐車場","province":"東京都","city":"港区","address":"東京都港区白金台四丁目6番2号","lat":35.638927,"lon":139.727083,"ラック数":"15","営業時間":"4:30~25:30","管理番号":"C4-05","開設年月日":"2018/4/25"},{"name":"白金プラチナレジデンス","province":"東京都","city":"港区","address":"東京都港区白金六丁目3番15号","lat":35.644134,"lon":139.723432,"ラック数":"8","営業時間":"24時間","管理番号":"C4-06","開設年月日":"2019/7/10"},{"name":"品川プリンスホテル","province":"東京都","city":"港区","address":"東京都港区高輪四丁目10番30号","lat":35.628266,"lon":139.734171,"ラック数":"11","営業時間":"24時間","管理番号":"C4-07","開設年月日":"2019/7/17"},{"name":"ケーヨーデイツー三田店","province":"東京都","city":"港区","address":"東京都港区三田四丁目2番20号","lat":35.646375,"lon":139.740061,"ラック数":"6","営業時間":"24時間","管理番号":"C4-09","開設年月日":"2020/5/20"},{"name":"亀塚公園","province":"東京都","city":"港区","address":"東京都港区三田四丁目16番20号","lat":35.642764,"lon":139.741174,"ラック数":"10","営業時間":"24時間","管理番号":"C4-10","開設年月日":"2020/9/16"},{"name":"ザ・パークハウス 三田ガーデン","province":"東京都","city":"港区","address":"東京都港区三田五丁目2番29号","lat":35.64816,"lon":139.737991,"ラック数":"7","営業時間":"24時間","管理番号":"C4-11","開設年月日":"2021/12/10"},{"name":"コシダコネクトビル","province":"東京都","city":"港区","address":"東京都港区高輪二丁目16番34号","lat":35.637765,"lon":139.739128,"ラック数":"14","営業時間":"24時間","管理番号":"C4-13","開設年月日":"2022/4/13"},{"name":"神応ほっとプラザ","province":"東京都","city":"港区","address":"東京都港区白金六丁目9番5号","lat":35.643711,"lon":139.724753,"ラック数":"7","営業時間":"24時間","管理番号":"C4-14","開設年月日":"2023/4/2"},{"name":"クロスレジデンス白金高輪","province":"東京都","city":"港区","address":"東京都港区白金二丁目3番23号","lat":35.642771,"lon":139.733046,"ラック数":"7","営業時間":"24時間","管理番号":"C4-15","開設年月日":"2023/6/7"},{"name":"こうなん星の公園","province":"東京都","city":"港区","address":"東京都港区港南一丁目9番24号","lat":35.629697,"lon":139.742167,"ラック数":"48","営業時間":"24時間","管理番号":"C5-01","開設年月日":"2014/10/1"},{"name":"港南緑水公園","province":"東京都","city":"港区","address":"東京都港区港南四丁目7番47号","lat":35.628955,"lon":139.750731,"ラック数":"47","営業時間":"24時間","管理番号":"C5-02","開設年月日":"2014/10/1"},{"name":"港南公園C","province":"東京都","city":"港区","address":"東京都港区港南四丁目5番3号","lat":35.62496568,"lon":139.746657,"ラック数":"26","営業時間":"24時間","管理番号":"C5-03","開設年月日":"2014/11/26"},{"name":"みなとパーク芝浦","province":"東京都","city":"港区","address":"東京都港区芝浦一丁目16番1号","lat":35.646801,"lon":139.751208,"ラック数":"12","営業時間":"24時間営業","管理番号":"C5-04","開設年月日":"2014/12/22"},{"name":"品川シーズンテラス","province":"東京都","city":"港区","address":"東京都港区港南一丁目2番70号","lat":35.632303,"lon":139.742393,"ラック数":"21","営業時間":"24時間営業","管理番号":"C5-06","開設年月日":"2016/2/5"},{"name":"港区立港南図書館","province":"東京都","city":"港区","address":"東京都港区港南三丁目3番17号","lat":35.632842,"lon":139.7495,"ラック数":"12","営業時間":"24時間営業","管理番号":"C5-07","開設年月日":"2016/3/30"},{"name":"AQUACITY芝浦","province":"東京都","city":"港区","address":"東京都港区芝浦四丁目16番23号","lat":35.637366,"lon":139.74844,"ラック数":"12","営業時間":"24時間営業","管理番号":"C5-08","開設年月日":"2016/3/31"},{"name":"グランパーク","province":"東京都","city":"港区","address":"東京都港区芝浦三丁目4番1号","lat":35.643202,"lon":139.746244,"ラック数":"21","営業時間":"24時間営業","管理番号":"C5-09","開設年月日":"2016/3/31"},{"name":"シーバンス","province":"東京都","city":"港区","address":"東京都港区芝浦一丁目2番3号","lat":35.649959,"lon":139.756068,"ラック数":"15","営業時間":"24時間営業","管理番号":"C5-10","開設年月日":"2016/6/10"},{"name":"フェイバリッチタワー品川","province":"東京都","city":"港区","address":"東京都港区港南三丁目7番16号","lat":35.631729,"lon":139.749767,"ラック数":"17","営業時間":"24時間営業","管理番号":"C5-11","開設年月日":"2016/9/16"},{"name":"第2東運ビル","province":"東京都","city":"港区","address":"東京都港区港南三丁目4番27号","lat":35.633742,"lon":139.748281,"ラック数":"8","営業時間":"24時間営業","管理番号":"C5-12","開設年月日":"2016/10/3"},{"name":"区立芝浦西運河沿緑地","province":"東京都","city":"港区","address":"東京都港区芝浦四丁目19番","lat":35.638245,"lon":139.749754,"ラック数":"43","営業時間":"24時間","管理番号":"C5-13","開設年月日":"2016/10/26"},{"name":"セブン-イレブン 港区汐彩橋店","province":"東京都","city":"港区","address":"東京都港区海岸三丁目3番20号","lat":35.640481,"lon":139.753659,"ラック数":"5","営業時間":"24時間","管理番号":"C5-14","開設年月日":"2016/12/27"},{"name":"セブン-イレブン 港区芝浦ふ頭店","province":"東京都","city":"港区","address":"東京都港区海岸三丁目12番7号","lat":35.640215,"lon":139.755971,"ラック数":"9","営業時間":"24時間","管理番号":"C5-15","開設年月日":"2016/12/27"},{"name":"品川インターシティ","province":"東京都","city":"港区","address":"東京都港区港南二丁目15番1号","lat":35.626704,"lon":139.742174,"ラック数":"23","営業時間":"24時間","管理番号":"C5-16","開設年月日":"2017/2/24"},{"name":"鈴与浜松町ビル","province":"東京都","city":"港区","address":"東京都港区海岸二丁目1番16号","lat":35.651013,"lon":139.759013,"ラック数":"10","営業時間":"24時間","管理番号":"C5-17","開設年月日":"2017/4/12"},{"name":"パークタワー品川ベイワード","province":"東京都","city":"港区","address":"東京都港区港南三丁目5番10号","lat":35.634529,"lon":139.748378,"ラック数":"20","営業時間":"24時間","管理番号":"C5-18","開設年月日":"2017/5/17"},{"name":"グランドメゾン田町","province":"東京都","city":"港区","address":"東京都港区芝浦二丁目1番39号","lat":35.645537,"lon":139.754899,"ラック数":"8","営業時間":"24時間","管理番号":"C5-19","開設年月日":"2017/5/24"},{"name":"ローソン芝浦二丁目店","province":"東京都","city":"港区","address":"東京都港区芝浦二丁目4番1号","lat":35.645279,"lon":139.754702,"ラック数":"4","営業時間":"24時間","管理番号":"C5-20","開設年月日":"2017/6/21"},{"name":"セブン-イレブン 芝浦3丁目店","province":"東京都","city":"港区","address":"東京都港区芝浦三丁目14番15号","lat":35.642399,"lon":139.746992,"ラック数":"6","営業時間":"24時間","管理番号":"C5-21","開設年月日":"2017/9/6"},{"name":"GLOBAL FRONT TOWER","province":"東京都","city":"港区","address":"東京都港区芝浦一丁目6番41号","lat":35.647733,"lon":139.755428,"ラック数":"17","営業時間":"24時間","管理番号":"C5-24","開設年月日":"2018/1/17"},{"name":"NEX-TEC芝浦","province":"東京都","city":"港区","address":"東京都港区海岸三丁目11番15号","lat":35.639571,"lon":139.755551,"ラック数":"38","営業時間":"24時間","管理番号":"C5-25","開設年月日":"2018/5/16"},{"name":"ピアシティ芝浦ビル","province":"東京都","city":"港区","address":"東京都港区海岸三丁目18番1号","lat":35.644155,"lon":139.756216,"ラック数":"14","営業時間":"24時間","管理番号":"C5-26","開設年月日":"2018/6/14"},{"name":"プレミア海岸ビル","province":"東京都","city":"港区","address":"東京都港区海岸二丁目2番6号","lat":35.648948,"lon":139.757895,"ラック数":"21","営業時間":"24時間","管理番号":"C5-27","開設年月日":"2018/8/1"},{"name":"芝浦ルネサイトタワー","province":"東京都","city":"港区","address":"東京都港区芝浦三丁目9番1号","lat":35.643683,"lon":139.7506,"ラック数":"8","営業時間":"24時間","管理番号":"C5-28","開設年月日":"2019/4/10"},{"name":"Hi-NODE(ハイノード)","province":"東京都","city":"港区","address":"東京都港区海岸二丁目7番103号","lat":35.651672,"lon":139.760549,"ラック数":"8","営業時間":"24時間","管理番号":"C5-29","開設年月日":"2019/7/31"},{"name":"フェイム芝浦インターウェーブ","province":"東京都","city":"港区","address":"東京都港区芝浦一丁目10番1号","lat":35.647872,"lon":139.75391,"ラック数":"12","営業時間":"24時間","管理番号":"C5-30","開設年月日":"2019/10/2"},{"name":"ヒルトン東京お台場","province":"東京都","city":"港区","address":"東京都港区台場一丁目9番1号","lat":35.626267,"lon":139.771438,"ラック数":"10","営業時間":"24時間","管理番号":"C5-31","開設年月日":"2019/11/6"},{"name":"トレードピアお台場","province":"東京都","city":"港区","address":"東京都港区台場二丁目3番1号","lat":35.627891,"lon":139.776896,"ラック数":"7","営業時間":"24時間","管理番号":"C5-32","開設年月日":"2019/12/11"},{"name":"msb Tamachi","province":"東京都","city":"港区","address":"東京都港区芝浦三丁目1番21号","lat":35.645682,"lon":139.748768,"ラック数":"6","営業時間":"24時間","管理番号":"C5-33","開設年月日":"2019/12/24"},{"name":"五色橋ビル","province":"東京都","city":"港区","address":"東京都港区海岸三丁目5番13号","lat":35.636644,"lon":139.751798,"ラック数":"4","営業時間":"24時間","管理番号":"C5-34","開設年月日":"2020/3/11"},{"name":"品川駅港南口","province":"東京都","city":"港区","address":"東京都港区港南二丁目16番1号","lat":35.62822,"lon":139.741135,"ラック数":"4","営業時間":"24時間","管理番号":"C5-35","開設年月日":"2020/7/22"},{"name":"お台場海浜公園駅","province":"東京都","city":"港区","address":"東京都港区台場一丁目5番","lat":35.62974,"lon":139.778178,"ラック数":"9","営業時間":"24時間","管理番号":"C5-36","開設年月日":"2012/11/21"},{"name":"台場駅","province":"東京都","city":"港区","address":"東京都港区台場二丁目6番","lat":35.626388,"lon":139.772453,"ラック数":"22","営業時間":"24時間","管理番号":"C5-37","開設年月日":"2013/3/6"},{"name":"お台場海浜公園乗船場","province":"東京都","city":"港区","address":"東京都港区台場一丁目4番1号","lat":35.628743,"lon":139.773915,"ラック数":"9","営業時間":"24時間","管理番号":"C5-38","開設年月日":"2015/11/16"},{"name":"お台場海浜公園東","province":"東京都","city":"港区","address":"東京都港区台場一丁目5番5号","lat":35.631021,"lon":139.778109,"ラック数":"15","営業時間":"24時間","管理番号":"C5-39","開設年月日":"2015/11/16"},{"name":"芝浦ふ頭駅前暫定自転車駐車場","province":"東京都","city":"港区","address":"東京都港区海岸三丁目22番","lat":35.64096,"lon":139.75754,"ラック数":"5","営業時間":"24時間","管理番号":"C5-40","開設年月日":"2021/8/25"},{"name":"トヨタモビリティ東京 芝浦店","province":"東京都","city":"港区","address":"東京都港区芝浦四丁目8番3号","lat":35.639644,"lon":139.745532,"ラック数":"7","営業時間":"24時間","管理番号":"C5-41","開設年月日":"2021/10/13"},{"name":"DHC芝浦2丁目ビル","province":"東京都","city":"港区","address":"東京都港区芝浦二丁目7番1号","lat":35.644241,"lon":139.753834,"ラック数":"10","営業時間":"24時間","管理番号":"C5-42","開設年月日":"2021/10/6"},{"name":"オアーゼ芝浦MJビル","province":"東京都","city":"港区","address":"東京都港区芝浦二丁目15番6号","lat":35.644798,"lon":139.752697,"ラック数":"5","営業時間":"24時間","管理番号":"C5-43","開設年月日":"2021/12/22"},{"name":"ブランズタワー芝浦","province":"東京都","city":"港区","address":"東京都港区芝浦二丁目9番1号","lat":35.643105,"lon":139.753039,"ラック数":"4","営業時間":"24時間","管理番号":"C5-44","開設年月日":"2022/1/11"},{"name":"パークアクシス芝浦キャナル","province":"東京都","city":"港区","address":"東京都港区海岸三丁目2番3号","lat":35.644794,"lon":139.755688,"ラック数":"10","営業時間":"24時間","管理番号":"C5-45","開設年月日":"2022/1/31"},{"name":"ウエリスアーバン品川タワー","province":"東京都","city":"港区","address":"東京都港区港南四丁目1番6号","lat":35.630961,"lon":139.746875,"ラック数":"12","営業時間":"24時間","管理番号":"C5-46","開設年月日":"2022/4/20"},{"name":"oak港南品川","province":"東京都","city":"港区","address":"東京都港区港南二丁目10番9号","lat":35.62413,"lon":139.744831,"ラック数":"25","営業時間":"24時間","管理番号":"C5-47","開設年月日":"2022/8/31"},{"name":"セブンイレブン港区海岸三丁目店","province":"東京都","city":"港区","address":"東京都港区海岸三丁目7番20号","lat":35.636808,"lon":139.752517,"ラック数":"5","営業時間":"24時間","管理番号":"C5-48","開設年月日":"2023/3/8"},{"name":"プラウドタワー芝浦","province":"東京都","city":"港区","address":"東京都港区芝浦四丁目4番45号","lat":35.638912,"lon":139.747422,"ラック数":"9","営業時間":"24時間","管理番号":"C5-49","開設年月日":"2023/3/17"},{"name":"お台場レインボー公園","province":"東京都","city":"港区","address":"東京都港区台場一丁目3番1号","lat":35.633133,"lon":139.777315,"ラック数":"8","営業時間":"24時間","管理番号":"C5-50","開設年月日":"2023/4/5"},{"name":"トミンタワー台場一番街","province":"東京都","city":"港区","address":"東京都港区台場一丁目1番2号","lat":35.634627,"lon":139.77663,"ラック数":"5","営業時間":"24時間","管理番号":"C5-51","開設年月日":"2023/6/1"},{"name":"港南四丁目第3アパート駐車場","province":"東京都","city":"港区","address":"東京都港区港南四丁目2番4号","lat":35.630109,"lon":139.747094,"ラック数":"6","営業時間":"24時間","管理番号":"C5-52","開設年月日":"2023/7/5"},{"name":"suito芝浦","province":"東京都","city":"港区","address":"東京都港区芝浦四丁目11番22号","lat":35.641631,"lon":139.74671,"ラック数":"13","営業時間":"24時間","管理番号":"C5-53","開設年月日":"2024/4/1"},{"name":"ヤマタネ芝浦オフィス","province":"東京都","city":"港区","address":"東京都港区海岸三丁目18番12号","lat":35.643909,"lon":139.756509,"ラック数":"12","営業時間":"24時間","管理番号":"C5-54","開設年月日":"2024/4/3"}]}