{"keyword":"商品","data":[{"name":"三宅島社会福祉協議会","province":"東京都","city":"三宅村","address":"三宅村坪田3053三宅村社会福祉会館内","lat":34.060296,"lon":139.545909},{"name":"三宅村子ども家庭支援センター","province":"東京都","city":"三宅村","address":"三宅村阿古497三宅村役場内","lat":34.075946,"lon":139.479166},{"name":"雄山登山線（歩道）共用トイレ","province":"東京都","city":"三宅村","address":"東京都三宅村雄山","lat":34.098174,"lon":139.534439},{"name":"富士箱根伊豆国立公園 伊豆岬園地","province":"東京都","city":"三宅村","address":"東京都三宅村伊豆","lat":34.11217,"lon":139.490251},{"name":"富士箱根伊豆国立公園 三池浜園地","province":"東京都","city":"三宅村","address":"東京都三宅村坪田","lat":34.085959,"lon":139.560598},{"name":"富士箱根伊豆国立公園 大路池周廻線道路（歩道）","province":"東京都","city":"三宅村","address":"東京都三宅村坪田","lat":34.05667,"lon":139.526653},{"name":"富士箱根伊豆国立公園 富賀浜園地","province":"東京都","city":"三宅村","address":"東京都三宅村阿古","lat":34.054016,"lon":139.481942},{"name":"東京都島しょ保健所三宅出張所","province":"東京都","city":"三宅村","address":"東京都三宅村伊豆","lat":34.117836,"lon":139.503888},{"name":"三宅島社会福祉協議会","province":"東京都","city":"三宅村","address":"三宅村坪田3053三宅村社会福祉会館内","lat":34.07027,"lon":139.54529},{"name":"三宅支庁","province":"東京都","city":"三宅村","address":"三宅村伊豆642","lat":34.10802,"lon":139.51031},{"name":"三宅村子ども家庭支援センター","province":"東京都","city":"三宅村","address":"三宅村阿古497三宅村役場内","lat":34.07613,"lon":139.47989},{"name":"三宅村火葬場","province":"東京都","city":"三宅村","address":"東京都三宅村阿古548-10","lat":34.07648713,"lon":139.47527503},{"name":"三宅支庁","province":"東京都","city":"三宅村","address":"三宅村伊豆642","lat":34.118667,"lon":139.517317},{"name":"三宅支庁","province":"東京都","city":"三宅村","address":"三宅村伊豆642","lat":34.10803,"lon":139.51032},{"name":"三宅村子ども家庭支援センター","province":"東京都","city":"三宅村","address":"三宅村阿古497三宅村役場内","lat":34.075946,"lon":139.479166},{"name":"雄山登山線（歩道）共用トイレ","province":"東京都","city":"三宅村","address":"東京都三宅村雄山","lat":34.098174,"lon":139.534439},{"name":"富士箱根伊豆国立公園 伊豆岬園地","province":"東京都","city":"三宅村","address":"東京都三宅村伊豆","lat":34.11217,"lon":139.490251},{"name":"富士箱根伊豆国立公園 三池浜園地","province":"東京都","city":"三宅村","address":"東京都三宅村坪田","lat":34.085959,"lon":139.560598},{"name":"富士箱根伊豆国立公園 大路池周廻線道路（歩道）","province":"東京都","city":"三宅村","address":"東京都三宅村坪田","lat":34.05667,"lon":139.526653},{"name":"富士箱根伊豆国立公園 富賀浜園地","province":"東京都","city":"三宅村","address":"東京都三宅村阿古","lat":34.054016,"lon":139.481942},{"name":"東京都島しょ保健所三宅出張所","province":"東京都","city":"三宅村","address":"東京都三宅村伊豆","lat":34.117836,"lon":139.503888},{"name":"三宅支庁","province":"東京都","city":"三宅村","address":"三宅村伊豆642","lat":34.10802,"lon":139.51031},{"name":"三宅村子ども家庭支援センター","province":"東京都","city":"三宅村","address":"三宅村阿古497三宅村役場内","lat":34.07613,"lon":139.47989},{"name":"三宅支庁","province":"東京都","city":"三宅村","address":"三宅村伊豆642","lat":34.118667,"lon":139.517317},{"name":"三宅支庁","province":"東京都","city":"三宅村","address":"三宅村伊豆642","lat":34.10803,"lon":139.51032},{"name":"三宅支庁","province":"東京都","city":"三宅村","address":"三宅村伊豆642","lat":34.10802,"lon":139.51031},{"name":"三宅支庁","province":"東京都","city":"三宅村","address":"三宅村伊豆642","lat":34.118667,"lon":139.517317},{"name":"三宅支庁","province":"東京都","city":"三宅村","address":"三宅村伊豆642","lat":34.10803,"lon":139.51032},{"name":"三宅支庁","province":"東京都","city":"三宅村","address":"三宅村伊豆642","lat":34.10802,"lon":139.51031},{"name":"三宅支庁","province":"東京都","city":"三宅村","address":"三宅村伊豆642","lat":34.118667,"lon":139.517317},{"name":"三宅支庁","province":"東京都","city":"三宅村","address":"三宅村伊豆642","lat":34.10803,"lon":139.51032},{"name":"三宅支庁","province":"東京都","city":"三宅村","address":"三宅村伊豆642","lat":34.10802,"lon":139.51031},{"name":"三宅支庁","province":"東京都","city":"三宅村","address":"三宅村伊豆642","lat":34.118667,"lon":139.517317},{"name":"三宅支庁","province":"東京都","city":"三宅村","address":"三宅村伊豆642","lat":34.10803,"lon":139.51032},{"name":"三宅支庁","province":"東京都","city":"三宅村","address":"三宅村伊豆642","lat":34.10802,"lon":139.51031},{"name":"三宅支庁","province":"東京都","city":"三宅村","address":"三宅村伊豆642","lat":34.118667,"lon":139.517317},{"name":"三宅支庁","province":"東京都","city":"三宅村","address":"三宅村伊豆642","lat":34.10803,"lon":139.51032},{"name":"三宅支庁","province":"東京都","city":"三宅村","address":"三宅村伊豆642","lat":34.10802,"lon":139.51031},{"name":"三宅支庁","province":"東京都","city":"三宅村","address":"三宅村伊豆642","lat":34.118667,"lon":139.517317},{"name":"三宅支庁","province":"東京都","city":"三宅村","address":"三宅村伊豆642","lat":34.10803,"lon":139.51032},{"name":"三宅支庁","province":"東京都","city":"三宅村","address":"三宅村伊豆642","lat":34.10802,"lon":139.51031},{"name":"三宅支庁","province":"東京都","city":"三宅村","address":"三宅村伊豆642","lat":34.118667,"lon":139.517317},{"name":"三宅支庁","province":"東京都","city":"三宅村","address":"三宅村伊豆642","lat":34.10803,"lon":139.51032},{"name":"三宅支庁","province":"東京都","city":"三宅村","address":"三宅村伊豆642","lat":34.10802,"lon":139.51031},{"name":"三宅支庁","province":"東京都","city":"三宅村","address":"三宅村伊豆642","lat":34.118667,"lon":139.517317},{"name":"三宅支庁","province":"東京都","city":"三宅村","address":"三宅村伊豆642","lat":34.10803,"lon":139.51032},{"name":"三宅支庁","province":"東京都","city":"三宅村","address":"三宅村伊豆642","lat":34.10802,"lon":139.51031},{"name":"三宅支庁","province":"東京都","city":"三宅村","address":"三宅村伊豆642","lat":34.118667,"lon":139.517317},{"name":"三宅支庁","province":"東京都","city":"三宅村","address":"三宅村伊豆642","lat":34.10803,"lon":139.51032},{"name":"三宅支庁","province":"東京都","city":"三宅村","address":"三宅村伊豆642","lat":34.10802,"lon":139.51031},{"name":"三宅支庁","province":"東京都","city":"三宅村","address":"三宅村伊豆642","lat":34.118667,"lon":139.517317},{"name":"三宅支庁","province":"東京都","city":"三宅村","address":"三宅村伊豆642","lat":34.10803,"lon":139.51032},{"name":"三宅支庁","province":"東京都","city":"三宅村","address":"三宅村伊豆642","lat":34.10802,"lon":139.51031},{"name":"三宅支庁","province":"東京都","city":"三宅村","address":"三宅村伊豆642","lat":34.118667,"lon":139.517317},{"name":"三宅支庁","province":"東京都","city":"三宅村","address":"三宅村伊豆642","lat":34.10803,"lon":139.51032},{"name":"三宅支庁","province":"東京都","city":"三宅村","address":"三宅村伊豆642","lat":34.10802,"lon":139.51031},{"name":"三宅支庁","province":"東京都","city":"三宅村","address":"三宅村伊豆642","lat":34.118667,"lon":139.517317},{"name":"三宅支庁","province":"東京都","city":"三宅村","address":"三宅村伊豆642","lat":34.10803,"lon":139.51032},{"name":"三宅支庁","province":"東京都","city":"三宅村","address":"三宅村伊豆642","lat":34.10802,"lon":139.51031},{"name":"三宅支庁","province":"東京都","city":"三宅村","address":"三宅村伊豆642","lat":34.118667,"lon":139.517317},{"name":"三宅支庁","province":"東京都","city":"三宅村","address":"三宅村伊豆642","lat":34.10803,"lon":139.51032},{"name":"三宅支庁","province":"東京都","city":"三宅村","address":"三宅村伊豆642","lat":34.10802,"lon":139.51031},{"name":"三宅支庁","province":"東京都","city":"三宅村","address":"三宅村伊豆642","lat":34.118667,"lon":139.517317},{"name":"三宅支庁","province":"東京都","city":"三宅村","address":"三宅村伊豆642","lat":34.10803,"lon":139.51032},{"name":"三宅支庁","province":"東京都","city":"三宅村","address":"三宅村伊豆642","lat":34.10802,"lon":139.51031},{"name":"三宅支庁","province":"東京都","city":"三宅村","address":"三宅村伊豆642","lat":34.118667,"lon":139.517317},{"name":"三宅支庁","province":"東京都","city":"三宅村","address":"三宅村伊豆642","lat":34.10803,"lon":139.51032},{"name":"三宅支庁","province":"東京都","city":"三宅村","address":"三宅村伊豆642","lat":34.10802,"lon":139.51031},{"name":"三宅支庁","province":"東京都","city":"三宅村","address":"三宅村伊豆642","lat":34.118667,"lon":139.517317},{"name":"三宅支庁","province":"東京都","city":"三宅村","address":"三宅村伊豆642","lat":34.10803,"lon":139.51032},{"name":"三宅支庁","province":"東京都","city":"三宅村","address":"三宅村伊豆642","lat":34.10802,"lon":139.51031},{"name":"三宅支庁","province":"東京都","city":"三宅村","address":"三宅村伊豆642","lat":34.118667,"lon":139.517317},{"name":"三宅支庁","province":"東京都","city":"三宅村","address":"三宅村伊豆642","lat":34.10803,"lon":139.51032},{"name":"三宅支庁","province":"東京都","city":"三宅村","address":"三宅村伊豆642","lat":34.10802,"lon":139.51031},{"name":"三宅支庁","province":"東京都","city":"三宅村","address":"三宅村伊豆642","lat":34.118667,"lon":139.517317},{"name":"三宅支庁","province":"東京都","city":"三宅村","address":"三宅村伊豆642","lat":34.10803,"lon":139.51032},{"name":"三宅支庁","province":"東京都","city":"三宅村","address":"三宅村伊豆642","lat":34.10802,"lon":139.51031},{"name":"三宅支庁","province":"東京都","city":"三宅村","address":"三宅村伊豆642","lat":34.118667,"lon":139.517317},{"name":"三宅支庁","province":"東京都","city":"三宅村","address":"三宅村伊豆642","lat":34.10803,"lon":139.51032},{"name":"三宅支庁","province":"東京都","city":"三宅村","address":"三宅村伊豆642","lat":34.10802,"lon":139.51031},{"name":"三宅支庁","province":"東京都","city":"三宅村","address":"三宅村伊豆642","lat":34.118667,"lon":139.517317},{"name":"三宅支庁","province":"東京都","city":"三宅村","address":"三宅村伊豆642","lat":34.10803,"lon":139.51032},{"name":"三宅支庁","province":"東京都","city":"三宅村","address":"三宅村伊豆642","lat":34.10802,"lon":139.51031},{"name":"三宅支庁","province":"東京都","city":"三宅村","address":"三宅村伊豆642","lat":34.118667,"lon":139.517317},{"name":"三宅支庁","province":"東京都","city":"三宅村","address":"三宅村伊豆642","lat":34.10803,"lon":139.51032},{"name":"三宅支庁","province":"東京都","city":"三宅村","address":"三宅村伊豆642","lat":34.10802,"lon":139.51031},{"name":"三宅支庁","province":"東京都","city":"三宅村","address":"三宅村伊豆642","lat":34.118667,"lon":139.517317},{"name":"三宅支庁","province":"東京都","city":"三宅村","address":"三宅村伊豆642","lat":34.10803,"lon":139.51032},{"name":"三宅支庁","province":"東京都","city":"三宅村","address":"三宅村伊豆642","lat":34.10802,"lon":139.51031},{"name":"三宅支庁","province":"東京都","city":"三宅村","address":"三宅村伊豆642","lat":34.118667,"lon":139.517317},{"name":"三宅支庁","province":"東京都","city":"三宅村","address":"三宅村伊豆642","lat":34.10803,"lon":139.51032},{"name":"三宅支庁","province":"東京都","city":"三宅村","address":"三宅村伊豆642","lat":34.10802,"lon":139.51031},{"name":"三宅支庁","province":"東京都","city":"三宅村","address":"三宅村伊豆642","lat":34.118667,"lon":139.517317},{"name":"三宅支庁","province":"東京都","city":"三宅村","address":"三宅村伊豆642","lat":34.10803,"lon":139.51032},{"name":"三宅支庁","province":"東京都","city":"三宅村","address":"三宅村伊豆642","lat":34.10802,"lon":139.51031},{"name":"三宅支庁","province":"東京都","city":"三宅村","address":"三宅村伊豆642","lat":34.118667,"lon":139.517317},{"name":"三宅支庁","province":"東京都","city":"三宅村","address":"三宅村伊豆642","lat":34.10803,"lon":139.51032},{"name":"三宅支庁","province":"東京都","city":"三宅村","address":"三宅村伊豆642","lat":34.10802,"lon":139.51031},{"name":"三宅支庁","province":"東京都","city":"三宅村","address":"三宅村伊豆642","lat":34.118667,"lon":139.517317},{"name":"三宅支庁","province":"東京都","city":"三宅村","address":"三宅村伊豆642","lat":34.10803,"lon":139.51032},{"name":"三宅支庁","province":"東京都","city":"三宅村","address":"三宅村伊豆642","lat":34.10802,"lon":139.51031},{"name":"三宅支庁","province":"東京都","city":"三宅村","address":"三宅村伊豆642","lat":34.118667,"lon":139.517317},{"name":"三宅支庁","province":"東京都","city":"三宅村","address":"三宅村伊豆642","lat":34.10803,"lon":139.51032},{"name":"三宅支庁","province":"東京都","city":"三宅村","address":"三宅村伊豆642","lat":34.10802,"lon":139.51031},{"name":"三宅支庁","province":"東京都","city":"三宅村","address":"三宅村伊豆642","lat":34.118667,"lon":139.517317},{"name":"三宅支庁","province":"東京都","city":"三宅村","address":"三宅村伊豆642","lat":34.10803,"lon":139.51032},{"name":"三宅支庁","province":"東京都","city":"三宅村","address":"三宅村伊豆642","lat":34.10802,"lon":139.51031},{"name":"三宅支庁","province":"東京都","city":"三宅村","address":"三宅村伊豆642","lat":34.118667,"lon":139.517317},{"name":"三宅支庁","province":"東京都","city":"三宅村","address":"三宅村伊豆642","lat":34.10803,"lon":139.51032},{"name":"三宅支庁","province":"東京都","city":"三宅村","address":"三宅村伊豆642","lat":34.10802,"lon":139.51031},{"name":"三宅支庁","province":"東京都","city":"三宅村","address":"三宅村伊豆642","lat":34.118667,"lon":139.517317},{"name":"三宅支庁","province":"東京都","city":"三宅村","address":"三宅村伊豆642","lat":34.10803,"lon":139.51032},{"name":"三宅支庁","province":"東京都","city":"三宅村","address":"三宅村伊豆642","lat":34.10802,"lon":139.51031},{"name":"三宅支庁","province":"東京都","city":"三宅村","address":"三宅村伊豆642","lat":34.118667,"lon":139.517317},{"name":"三宅支庁","province":"東京都","city":"三宅村","address":"三宅村伊豆642","lat":34.10803,"lon":139.51032},{"name":"三宅支庁","province":"東京都","city":"三宅村","address":"三宅村伊豆642","lat":34.10802,"lon":139.51031},{"name":"三宅支庁","province":"東京都","city":"三宅村","address":"三宅村伊豆642","lat":34.118667,"lon":139.517317},{"name":"三宅支庁","province":"東京都","city":"三宅村","address":"三宅村伊豆642","lat":34.10803,"lon":139.51032},{"name":"三宅支庁","province":"東京都","city":"三宅村","address":"三宅村伊豆642","lat":34.10802,"lon":139.51031},{"name":"三宅支庁","province":"東京都","city":"三宅村","address":"三宅村伊豆642","lat":34.118667,"lon":139.517317},{"name":"三宅支庁","province":"東京都","city":"三宅村","address":"三宅村伊豆642","lat":34.10803,"lon":139.51032},{"name":"三宅支庁","province":"東京都","city":"三宅村","address":"三宅村伊豆642","lat":34.10802,"lon":139.51031},{"name":"三宅支庁","province":"東京都","city":"三宅村","address":"三宅村伊豆642","lat":34.118667,"lon":139.517317},{"name":"三宅支庁","province":"東京都","city":"三宅村","address":"三宅村伊豆642","lat":34.10803,"lon":139.51032},{"name":"三宅支庁","province":"東京都","city":"三宅村","address":"三宅村伊豆642","lat":34.10802,"lon":139.51031},{"name":"三宅支庁","province":"東京都","city":"三宅村","address":"三宅村伊豆642","lat":34.118667,"lon":139.517317},{"name":"三宅支庁","province":"東京都","city":"三宅村","address":"三宅村伊豆642","lat":34.10803,"lon":139.51032},{"name":"三宅支庁","province":"東京都","city":"三宅村","address":"三宅村伊豆642","lat":34.10802,"lon":139.51031},{"name":"三宅支庁","province":"東京都","city":"三宅村","address":"三宅村伊豆642","lat":34.118667,"lon":139.517317},{"name":"三宅支庁","province":"東京都","city":"三宅村","address":"三宅村伊豆642","lat":34.10803,"lon":139.51032},{"name":"三宅支庁","province":"東京都","city":"三宅村","address":"三宅村伊豆642","lat":34.10802,"lon":139.51031},{"name":"三宅支庁","province":"東京都","city":"三宅村","address":"三宅村伊豆642","lat":34.118667,"lon":139.517317},{"name":"三宅支庁","province":"東京都","city":"三宅村","address":"三宅村伊豆642","lat":34.10803,"lon":139.51032},{"name":"三宅支庁","province":"東京都","city":"三宅村","address":"三宅村伊豆642","lat":34.10802,"lon":139.51031},{"name":"三宅支庁","province":"東京都","city":"三宅村","address":"三宅村伊豆642","lat":34.118667,"lon":139.517317},{"name":"三宅支庁","province":"東京都","city":"三宅村","address":"三宅村伊豆642","lat":34.10803,"lon":139.51032},{"name":"三宅支庁","province":"東京都","city":"三宅村","address":"三宅村伊豆642","lat":34.10802,"lon":139.51031},{"name":"三宅支庁","province":"東京都","city":"三宅村","address":"三宅村伊豆642","lat":34.118667,"lon":139.517317},{"name":"三宅支庁","province":"東京都","city":"三宅村","address":"三宅村伊豆642","lat":34.10803,"lon":139.51032},{"name":"三宅支庁","province":"東京都","city":"三宅村","address":"三宅村伊豆642","lat":34.10802,"lon":139.51031},{"name":"三宅支庁","province":"東京都","city":"三宅村","address":"三宅村伊豆642","lat":34.118667,"lon":139.517317},{"name":"三宅支庁","province":"東京都","city":"三宅村","address":"三宅村伊豆642","lat":34.10803,"lon":139.51032},{"name":"三宅支庁","province":"東京都","city":"三宅村","address":"三宅村伊豆642","lat":34.10802,"lon":139.51031},{"name":"三宅支庁","province":"東京都","city":"三宅村","address":"三宅村伊豆642","lat":34.118667,"lon":139.517317},{"name":"三宅支庁","province":"東京都","city":"三宅村","address":"三宅村伊豆642","lat":34.10803,"lon":139.51032},{"name":"三宅支庁","province":"東京都","city":"三宅村","address":"三宅村伊豆642","lat":34.10802,"lon":139.51031},{"name":"三宅支庁","province":"東京都","city":"三宅村","address":"三宅村伊豆642","lat":34.118667,"lon":139.517317},{"name":"三宅支庁","province":"東京都","city":"三宅村","address":"三宅村伊豆642","lat":34.10803,"lon":139.51032},{"name":"三宅支庁","province":"東京都","city":"三宅村","address":"三宅村伊豆642","lat":34.10802,"lon":139.51031},{"name":"三宅支庁","province":"東京都","city":"三宅村","address":"三宅村伊豆642","lat":34.118667,"lon":139.517317},{"name":"三宅支庁","province":"東京都","city":"三宅村","address":"三宅村伊豆642","lat":34.10803,"lon":139.51032},{"name":"三宅支庁","province":"東京都","city":"三宅村","address":"三宅村伊豆642","lat":34.10802,"lon":139.51031},{"name":"三宅支庁","province":"東京都","city":"三宅村","address":"三宅村伊豆642","lat":34.118667,"lon":139.517317},{"name":"三宅支庁","province":"東京都","city":"三宅村","address":"三宅村伊豆642","lat":34.10803,"lon":139.51032},{"name":"三宅支庁","province":"東京都","city":"三宅村","address":"三宅村伊豆642","lat":34.10802,"lon":139.51031},{"name":"三宅支庁","province":"東京都","city":"三宅村","address":"三宅村伊豆642","lat":34.118667,"lon":139.517317},{"name":"三宅支庁","province":"東京都","city":"三宅村","address":"三宅村伊豆642","lat":34.10803,"lon":139.51032},{"name":"三宅支庁","province":"東京都","city":"三宅村","address":"三宅村伊豆642","lat":34.10802,"lon":139.51031},{"name":"三宅支庁","province":"東京都","city":"三宅村","address":"三宅村伊豆642","lat":34.118667,"lon":139.517317},{"name":"三宅支庁","province":"東京都","city":"三宅村","address":"三宅村伊豆642","lat":34.10803,"lon":139.51032},{"name":"三宅支庁","province":"東京都","city":"三宅村","address":"三宅村伊豆642","lat":34.10802,"lon":139.51031},{"name":"三宅支庁","province":"東京都","city":"三宅村","address":"三宅村伊豆642","lat":34.118667,"lon":139.517317},{"name":"三宅支庁","province":"東京都","city":"三宅村","address":"三宅村伊豆642","lat":34.10803,"lon":139.51032},{"name":"三宅支庁","province":"東京都","city":"三宅村","address":"三宅村伊豆642","lat":34.10802,"lon":139.51031},{"name":"三宅支庁","province":"東京都","city":"三宅村","address":"三宅村伊豆642","lat":34.118667,"lon":139.517317},{"name":"三宅支庁","province":"東京都","city":"三宅村","address":"三宅村伊豆642","lat":34.10803,"lon":139.51032},{"name":"三宅支庁","province":"東京都","city":"三宅村","address":"三宅村伊豆642","lat":34.10802,"lon":139.51031},{"name":"三宅支庁","province":"東京都","city":"三宅村","address":"三宅村伊豆642","lat":34.118667,"lon":139.517317},{"name":"三宅支庁","province":"東京都","city":"三宅村","address":"三宅村伊豆642","lat":34.10803,"lon":139.51032},{"name":"三宅支庁","province":"東京都","city":"三宅村","address":"三宅村伊豆642","lat":34.10802,"lon":139.51031},{"name":"三宅支庁","province":"東京都","city":"三宅村","address":"三宅村伊豆642","lat":34.118667,"lon":139.517317},{"name":"三宅支庁","province":"東京都","city":"三宅村","address":"三宅村伊豆642","lat":34.10803,"lon":139.51032},{"name":"三宅支庁","province":"東京都","city":"三宅村","address":"三宅村伊豆642","lat":34.10802,"lon":139.51031},{"name":"三宅支庁","province":"東京都","city":"三宅村","address":"三宅村伊豆642","lat":34.118667,"lon":139.517317},{"name":"三宅支庁","province":"東京都","city":"三宅村","address":"三宅村伊豆642","lat":34.10803,"lon":139.51032},{"name":"三宅支庁","province":"東京都","city":"三宅村","address":"三宅村伊豆642","lat":34.10802,"lon":139.51031},{"name":"三宅支庁","province":"東京都","city":"三宅村","address":"三宅村伊豆642","lat":34.118667,"lon":139.517317},{"name":"三宅支庁","province":"東京都","city":"三宅村","address":"三宅村伊豆642","lat":34.10803,"lon":139.51032},{"name":"三宅支庁","province":"東京都","city":"三宅村","address":"三宅村伊豆642","lat":34.10802,"lon":139.51031},{"name":"三宅支庁","province":"東京都","city":"三宅村","address":"三宅村伊豆642","lat":34.118667,"lon":139.517317},{"name":"三宅支庁","province":"東京都","city":"三宅村","address":"三宅村伊豆642","lat":34.10803,"lon":139.51032},{"name":"三宅支庁","province":"東京都","city":"三宅村","address":"三宅村伊豆642","lat":34.10802,"lon":139.51031},{"name":"三宅支庁","province":"東京都","city":"三宅村","address":"三宅村伊豆642","lat":34.118667,"lon":139.517317},{"name":"三宅支庁","province":"東京都","city":"三宅村","address":"三宅村伊豆642","lat":34.10803,"lon":139.51032}]}