{"keyword":"子ども","data":[{"name":"雄山登山線（歩道）共用トイレ","province":"東京都","city":"三宅村","address":"東京都三宅村雄山","lat":34.098174,"lon":139.534439},{"name":"富士箱根伊豆国立公園 伊豆岬園地","province":"東京都","city":"三宅村","address":"東京都三宅村伊豆","lat":34.11217,"lon":139.490251},{"name":"富士箱根伊豆国立公園 三池浜園地","province":"東京都","city":"三宅村","address":"東京都三宅村坪田","lat":34.085959,"lon":139.560598},{"name":"富士箱根伊豆国立公園 大路池周廻線道路（歩道）","province":"東京都","city":"三宅村","address":"東京都三宅村坪田","lat":34.05667,"lon":139.526653},{"name":"富士箱根伊豆国立公園 富賀浜園地","province":"東京都","city":"三宅村","address":"東京都三宅村阿古","lat":34.054016,"lon":139.481942},{"name":"東京都島しょ保健所三宅出張所","province":"東京都","city":"三宅村","address":"東京都三宅村伊豆","lat":34.117836,"lon":139.503888},{"name":"＊?三宅村コミュニティセンター","province":"東京都","city":"三宅村","address":"三宅村伊ヶ谷330","lat":34.099897,"lon":139.491092},{"name":"雄山登山線（歩道）共用トイレ","province":"東京都","city":"三宅村","address":"東京都三宅村雄山","lat":34.098174,"lon":139.534439},{"name":"富士箱根伊豆国立公園 伊豆岬園地","province":"東京都","city":"三宅村","address":"東京都三宅村伊豆","lat":34.11217,"lon":139.490251},{"name":"富士箱根伊豆国立公園 三池浜園地","province":"東京都","city":"三宅村","address":"東京都三宅村坪田","lat":34.085959,"lon":139.560598},{"name":"富士箱根伊豆国立公園 大路池周廻線道路（歩道）","province":"東京都","city":"三宅村","address":"東京都三宅村坪田","lat":34.05667,"lon":139.526653},{"name":"富士箱根伊豆国立公園 富賀浜園地","province":"東京都","city":"三宅村","address":"東京都三宅村阿古","lat":34.054016,"lon":139.481942},{"name":"東京都島しょ保健所三宅出張所","province":"東京都","city":"三宅村","address":"東京都三宅村伊豆","lat":34.117836,"lon":139.503888},{"name":"＊?三宅村コミュニティセンター","province":"東京都","city":"三宅村","address":"三宅村伊ヶ谷330","lat":34.099897,"lon":139.491092},{"name":"雄山登山線（歩道）共用トイレ","province":"東京都","city":"三宅村","address":"東京都三宅村雄山","lat":34.098174,"lon":139.534439},{"name":"富士箱根伊豆国立公園 伊豆岬園地","province":"東京都","city":"三宅村","address":"東京都三宅村伊豆","lat":34.11217,"lon":139.490251},{"name":"富士箱根伊豆国立公園 三池浜園地","province":"東京都","city":"三宅村","address":"東京都三宅村坪田","lat":34.085959,"lon":139.560598},{"name":"富士箱根伊豆国立公園 大路池周廻線道路（歩道）","province":"東京都","city":"三宅村","address":"東京都三宅村坪田","lat":34.05667,"lon":139.526653},{"name":"富士箱根伊豆国立公園 富賀浜園地","province":"東京都","city":"三宅村","address":"東京都三宅村阿古","lat":34.054016,"lon":139.481942},{"name":"東京都島しょ保健所三宅出張所","province":"東京都","city":"三宅村","address":"東京都三宅村伊豆","lat":34.117836,"lon":139.503888},{"name":"＊?三宅村コミュニティセンター","province":"東京都","city":"三宅村","address":"三宅村伊ヶ谷330","lat":34.099897,"lon":139.491092},{"name":"雄山登山線（歩道）共用トイレ","province":"東京都","city":"三宅村","address":"東京都三宅村雄山","lat":34.098174,"lon":139.534439},{"name":"富士箱根伊豆国立公園 伊豆岬園地","province":"東京都","city":"三宅村","address":"東京都三宅村伊豆","lat":34.11217,"lon":139.490251},{"name":"富士箱根伊豆国立公園 三池浜園地","province":"東京都","city":"三宅村","address":"東京都三宅村坪田","lat":34.085959,"lon":139.560598},{"name":"富士箱根伊豆国立公園 大路池周廻線道路（歩道）","province":"東京都","city":"三宅村","address":"東京都三宅村坪田","lat":34.05667,"lon":139.526653},{"name":"富士箱根伊豆国立公園 富賀浜園地","province":"東京都","city":"三宅村","address":"東京都三宅村阿古","lat":34.054016,"lon":139.481942},{"name":"東京都島しょ保健所三宅出張所","province":"東京都","city":"三宅村","address":"東京都三宅村伊豆","lat":34.117836,"lon":139.503888},{"name":"＊?三宅村コミュニティセンター","province":"東京都","city":"三宅村","address":"三宅村伊ヶ谷330","lat":34.099897,"lon":139.491092},{"name":"＊?三宅村コミュニティセンター","province":"東京都","city":"三宅村","address":"三宅村伊ヶ谷330","lat":34.099897,"lon":139.491092},{"name":"＊?三宅村コミュニティセンター","province":"東京都","city":"三宅村","address":"三宅村伊ヶ谷330","lat":34.099897,"lon":139.491092},{"name":"＊?三宅村コミュニティセンター","province":"東京都","city":"三宅村","address":"三宅村伊ヶ谷330","lat":34.099897,"lon":139.491092},{"name":"＊?三宅村コミュニティセンター","province":"東京都","city":"三宅村","address":"三宅村伊ヶ谷330","lat":34.099897,"lon":139.491092},{"name":"＊?三宅村コミュニティセンター","province":"東京都","city":"三宅村","address":"三宅村伊ヶ谷330","lat":34.099897,"lon":139.491092},{"name":"＊?三宅村コミュニティセンター","province":"東京都","city":"三宅村","address":"三宅村伊ヶ谷330","lat":34.099897,"lon":139.491092},{"name":"＊?三宅村コミュニティセンター","province":"東京都","city":"三宅村","address":"三宅村伊ヶ谷330","lat":34.099897,"lon":139.491092},{"name":"＊?三宅村コミュニティセンター","province":"東京都","city":"三宅村","address":"三宅村伊ヶ谷330","lat":34.099897,"lon":139.491092},{"name":"＊?三宅村コミュニティセンター","province":"東京都","city":"三宅村","address":"三宅村伊ヶ谷330","lat":34.099897,"lon":139.491092},{"name":"＊?三宅村コミュニティセンター","province":"東京都","city":"三宅村","address":"三宅村伊ヶ谷330","lat":34.099897,"lon":139.491092},{"name":"＊?三宅村コミュニティセンター","province":"東京都","city":"三宅村","address":"三宅村伊ヶ谷330","lat":34.099897,"lon":139.491092},{"name":"＊?三宅村コミュニティセンター","province":"東京都","city":"三宅村","address":"三宅村伊ヶ谷330","lat":34.099897,"lon":139.491092},{"name":"＊?三宅村コミュニティセンター","province":"東京都","city":"三宅村","address":"三宅村伊ヶ谷330","lat":34.099897,"lon":139.491092},{"name":"＊?三宅村コミュニティセンター","province":"東京都","city":"三宅村","address":"三宅村伊ヶ谷330","lat":34.099897,"lon":139.491092},{"name":"＊?三宅村コミュニティセンター","province":"東京都","city":"三宅村","address":"三宅村伊ヶ谷330","lat":34.099897,"lon":139.491092},{"name":"＊?三宅村コミュニティセンター","province":"東京都","city":"三宅村","address":"三宅村伊ヶ谷330","lat":34.099897,"lon":139.491092},{"name":"＊?三宅村コミュニティセンター","province":"東京都","city":"三宅村","address":"三宅村伊ヶ谷330","lat":34.099897,"lon":139.491092},{"name":"＊?三宅村コミュニティセンター","province":"東京都","city":"三宅村","address":"三宅村伊ヶ谷330","lat":34.099897,"lon":139.491092},{"name":"＊?三宅村コミュニティセンター","province":"東京都","city":"三宅村","address":"三宅村伊ヶ谷330","lat":34.099897,"lon":139.491092},{"name":"＊?三宅村コミュニティセンター","province":"東京都","city":"三宅村","address":"三宅村伊ヶ谷330","lat":34.099897,"lon":139.491092},{"name":"＊?三宅村コミュニティセンター","province":"東京都","city":"三宅村","address":"三宅村伊ヶ谷330","lat":34.099897,"lon":139.491092},{"name":"＊?三宅村コミュニティセンター","province":"東京都","city":"三宅村","address":"三宅村伊ヶ谷330","lat":34.099897,"lon":139.491092},{"name":"＊?三宅村コミュニティセンター","province":"東京都","city":"三宅村","address":"三宅村伊ヶ谷330","lat":34.099897,"lon":139.491092},{"name":"＊?三宅村コミュニティセンター","province":"東京都","city":"三宅村","address":"三宅村伊ヶ谷330","lat":34.099897,"lon":139.491092},{"name":"＊?三宅村コミュニティセンター","province":"東京都","city":"三宅村","address":"三宅村伊ヶ谷330","lat":34.099897,"lon":139.491092},{"name":"＊?三宅村コミュニティセンター","province":"東京都","city":"三宅村","address":"三宅村伊ヶ谷330","lat":34.099897,"lon":139.491092},{"name":"＊?三宅村コミュニティセンター","province":"東京都","city":"三宅村","address":"三宅村伊ヶ谷330","lat":34.099897,"lon":139.491092},{"name":"＊?三宅村コミュニティセンター","province":"東京都","city":"三宅村","address":"三宅村伊ヶ谷330","lat":34.099897,"lon":139.491092},{"name":"＊?三宅村コミュニティセンター","province":"東京都","city":"三宅村","address":"三宅村伊ヶ谷330","lat":34.099897,"lon":139.491092},{"name":"＊?三宅村コミュニティセンター","province":"東京都","city":"三宅村","address":"三宅村伊ヶ谷330","lat":34.099897,"lon":139.491092},{"name":"＊?三宅村コミュニティセンター","province":"東京都","city":"三宅村","address":"三宅村伊ヶ谷330","lat":34.099897,"lon":139.491092},{"name":"＊?三宅村コミュニティセンター","province":"東京都","city":"三宅村","address":"三宅村伊ヶ谷330","lat":34.099897,"lon":139.491092},{"name":"＊?三宅村コミュニティセンター","province":"東京都","city":"三宅村","address":"三宅村伊ヶ谷330","lat":34.099897,"lon":139.491092},{"name":"＊?三宅村コミュニティセンター","province":"東京都","city":"三宅村","address":"三宅村伊ヶ谷330","lat":34.099897,"lon":139.491092},{"name":"＊?三宅村コミュニティセンター","province":"東京都","city":"三宅村","address":"三宅村伊ヶ谷330","lat":34.099897,"lon":139.491092},{"name":"＊?三宅村コミュニティセンター","province":"東京都","city":"三宅村","address":"三宅村伊ヶ谷330","lat":34.099897,"lon":139.491092},{"name":"＊?三宅村コミュニティセンター","province":"東京都","city":"三宅村","address":"三宅村伊ヶ谷330","lat":34.099897,"lon":139.491092},{"name":"＊?三宅村コミュニティセンター","province":"東京都","city":"三宅村","address":"三宅村伊ヶ谷330","lat":34.099897,"lon":139.491092},{"name":"＊?三宅村コミュニティセンター","province":"東京都","city":"三宅村","address":"三宅村伊ヶ谷330","lat":34.099897,"lon":139.491092},{"name":"＊?三宅村コミュニティセンター","province":"東京都","city":"三宅村","address":"三宅村伊ヶ谷330","lat":34.099897,"lon":139.491092},{"name":"＊?三宅村コミュニティセンター","province":"東京都","city":"三宅村","address":"三宅村伊ヶ谷330","lat":34.099897,"lon":139.491092},{"name":"＊?三宅村コミュニティセンター","province":"東京都","city":"三宅村","address":"三宅村伊ヶ谷330","lat":34.099897,"lon":139.491092},{"name":"＊?三宅村コミュニティセンター","province":"東京都","city":"三宅村","address":"三宅村伊ヶ谷330","lat":34.099897,"lon":139.491092},{"name":"＊?三宅村コミュニティセンター","province":"東京都","city":"三宅村","address":"三宅村伊ヶ谷330","lat":34.099897,"lon":139.491092},{"name":"＊?三宅村コミュニティセンター","province":"東京都","city":"三宅村","address":"三宅村伊ヶ谷330","lat":34.099897,"lon":139.491092},{"name":"＊?三宅村コミュニティセンター","province":"東京都","city":"三宅村","address":"三宅村伊ヶ谷330","lat":34.099897,"lon":139.491092},{"name":"＊?三宅村コミュニティセンター","province":"東京都","city":"三宅村","address":"三宅村伊ヶ谷330","lat":34.099897,"lon":139.491092}]}