{"keyword":"男女","data":[{"name":"島しょ保健所三宅出張所","province":"東京都","city":"三宅村","address":"三宅村伊豆1004","lat":34.117639,"lon":139.503896},{"name":"雄山登山線（歩道）共用トイレ","province":"東京都","city":"三宅村","address":"東京都三宅村雄山","lat":34.098174,"lon":139.534439},{"name":"富士箱根伊豆国立公園 伊豆岬園地","province":"東京都","city":"三宅村","address":"東京都三宅村伊豆","lat":34.11217,"lon":139.490251},{"name":"富士箱根伊豆国立公園 三池浜園地","province":"東京都","city":"三宅村","address":"東京都三宅村坪田","lat":34.085959,"lon":139.560598},{"name":"富士箱根伊豆国立公園 大路池周廻線道路（歩道）","province":"東京都","city":"三宅村","address":"東京都三宅村坪田","lat":34.05667,"lon":139.526653},{"name":"富士箱根伊豆国立公園 富賀浜園地","province":"東京都","city":"三宅村","address":"東京都三宅村阿古","lat":34.054016,"lon":139.481942},{"name":"東京都島しょ保健所三宅出張所","province":"東京都","city":"三宅村","address":"東京都三宅村伊豆","lat":34.117836,"lon":139.503888},{"name":"堂山のシイ","province":"東京都","city":"三宅村","address":"東京都三宅村伊豆1563","lat":34.114022,"lon":139.500935},{"name":"三宅支庁","province":"東京都","city":"三宅村","address":"三宅村伊豆642","lat":34.10802,"lon":139.51031},{"name":"島しょ保健所三宅出張所","province":"東京都","city":"三宅村","address":"三宅村伊豆1004","lat":34.11713,"lon":139.50456},{"name":"三宅村役場福祉健康課福祉係","province":"東京都","city":"三宅村","address":"三宅村阿古497","lat":34.076126,"lon":139.479889},{"name":"三宅村地域包括支援センター","province":"東京都","city":"三宅村","address":"三宅村阿古807-1","lat":34.064751,"lon":139.496506},{"name":"三宅島社会福祉協議会","province":"東京都","city":"三宅村","address":"三宅村坪田3053","lat":34.070274,"lon":139.545288},{"name":"三宅村役場観光産業課観光商工係","province":"東京都","city":"三宅村","address":"三宅村阿古497","lat":34.076126,"lon":139.479889},{"name":"三宅村火葬場","province":"東京都","city":"三宅村","address":"東京都三宅村阿古548-10","lat":34.07648713,"lon":139.47527503},{"name":"＊??三宅村青年館","province":"東京都","city":"三宅村","address":"三宅村阿古700-4","lat":34.064638,"lon":139.482452},{"name":"＊?三宅島郷土資料館","province":"東京都","city":"三宅村","address":"三宅村阿古497","lat":34.075968,"lon":139.479169},{"name":"＊?三宅村コミュニティセンター","province":"東京都","city":"三宅村","address":"三宅村伊ヶ谷330","lat":34.099897,"lon":139.491092},{"name":"三宅支庁","province":"東京都","city":"三宅村","address":"三宅村伊豆642","lat":34.118667,"lon":139.517317},{"name":"三宅支庁","province":"東京都","city":"三宅村","address":"三宅村伊豆642","lat":34.10803,"lon":139.51032},{"name":"三宅支庁","province":"東京都","city":"三宅村","address":"三宅村伊豆642","lat":34.10802,"lon":139.51031},{"name":"三宅村役場福祉健康課福祉係","province":"東京都","city":"三宅村","address":"三宅村阿古497","lat":34.076126,"lon":139.479889},{"name":"三宅村地域包括支援センター","province":"東京都","city":"三宅村","address":"三宅村阿古807-1","lat":34.064751,"lon":139.496506},{"name":"三宅島社会福祉協議会","province":"東京都","city":"三宅村","address":"三宅村坪田3053","lat":34.070274,"lon":139.545288},{"name":"三宅村役場観光産業課観光商工係","province":"東京都","city":"三宅村","address":"三宅村阿古497","lat":34.076126,"lon":139.479889},{"name":"＊??三宅村青年館","province":"東京都","city":"三宅村","address":"三宅村阿古700-4","lat":34.064638,"lon":139.482452},{"name":"＊?三宅島郷土資料館","province":"東京都","city":"三宅村","address":"三宅村阿古497","lat":34.075968,"lon":139.479169},{"name":"＊?三宅村コミュニティセンター","province":"東京都","city":"三宅村","address":"三宅村伊ヶ谷330","lat":34.099897,"lon":139.491092},{"name":"三宅支庁","province":"東京都","city":"三宅村","address":"三宅村伊豆642","lat":34.118667,"lon":139.517317},{"name":"三宅支庁","province":"東京都","city":"三宅村","address":"三宅村伊豆642","lat":34.10803,"lon":139.51032},{"name":"三宅村役場福祉健康課福祉係","province":"東京都","city":"三宅村","address":"三宅村阿古497","lat":34.076126,"lon":139.479889},{"name":"三宅村地域包括支援センター","province":"東京都","city":"三宅村","address":"三宅村阿古807-1","lat":34.064751,"lon":139.496506},{"name":"三宅島社会福祉協議会","province":"東京都","city":"三宅村","address":"三宅村坪田3053","lat":34.070274,"lon":139.545288},{"name":"三宅村役場観光産業課観光商工係","province":"東京都","city":"三宅村","address":"三宅村阿古497","lat":34.076126,"lon":139.479889},{"name":"＊??三宅村青年館","province":"東京都","city":"三宅村","address":"三宅村阿古700-4","lat":34.064638,"lon":139.482452},{"name":"＊?三宅島郷土資料館","province":"東京都","city":"三宅村","address":"三宅村阿古497","lat":34.075968,"lon":139.479169},{"name":"＊?三宅村コミュニティセンター","province":"東京都","city":"三宅村","address":"三宅村伊ヶ谷330","lat":34.099897,"lon":139.491092},{"name":"＊??三宅村青年館","province":"東京都","city":"三宅村","address":"三宅村阿古700-4","lat":34.064638,"lon":139.482452},{"name":"＊?三宅島郷土資料館","province":"東京都","city":"三宅村","address":"三宅村阿古497","lat":34.075968,"lon":139.479169},{"name":"＊?三宅村コミュニティセンター","province":"東京都","city":"三宅村","address":"三宅村伊ヶ谷330","lat":34.099897,"lon":139.491092},{"name":"＊??三宅村青年館","province":"東京都","city":"三宅村","address":"三宅村阿古700-4","lat":34.064638,"lon":139.482452},{"name":"＊?三宅島郷土資料館","province":"東京都","city":"三宅村","address":"三宅村阿古497","lat":34.075968,"lon":139.479169},{"name":"＊?三宅村コミュニティセンター","province":"東京都","city":"三宅村","address":"三宅村伊ヶ谷330","lat":34.099897,"lon":139.491092},{"name":"＊??三宅村青年館","province":"東京都","city":"三宅村","address":"三宅村阿古700-4","lat":34.064638,"lon":139.482452},{"name":"＊?三宅村コミュニティセンター","province":"東京都","city":"三宅村","address":"三宅村伊ヶ谷330","lat":34.099897,"lon":139.491092},{"name":"＊??三宅村青年館","province":"東京都","city":"三宅村","address":"三宅村阿古700-4","lat":34.064638,"lon":139.482452},{"name":"＊??三宅村青年館","province":"東京都","city":"三宅村","address":"三宅村阿古700-4","lat":34.064638,"lon":139.482452},{"name":"＊??三宅村青年館","province":"東京都","city":"三宅村","address":"三宅村阿古700-4","lat":34.064638,"lon":139.482452},{"name":"＊??三宅村青年館","province":"東京都","city":"三宅村","address":"三宅村阿古700-4","lat":34.064638,"lon":139.482452},{"name":"＊??三宅村青年館","province":"東京都","city":"三宅村","address":"三宅村阿古700-4","lat":34.064638,"lon":139.482452},{"name":"＊??三宅村青年館","province":"東京都","city":"三宅村","address":"三宅村阿古700-4","lat":34.064638,"lon":139.482452},{"name":"＊??三宅村青年館","province":"東京都","city":"三宅村","address":"三宅村阿古700-4","lat":34.064638,"lon":139.482452}]}