{"keyword":"週","data":[{"name":"三宅島社会福祉協議会","province":"東京都","city":"三宅村","address":"三宅村坪田3053三宅村社会福祉会館内","lat":34.060296,"lon":139.545909},{"name":"堂山のシイ","province":"東京都","city":"三宅村","address":"東京都三宅村伊豆1563","lat":34.114022,"lon":139.500935},{"name":"三宅島社会福祉協議会","province":"東京都","city":"三宅村","address":"三宅村坪田3053三宅村社会福祉会館内","lat":34.07027,"lon":139.54529},{"name":"三宅村火葬場","province":"東京都","city":"三宅村","address":"東京都三宅村阿古548-10","lat":34.07648713,"lon":139.47527503},{"name":"三宅村公民館","province":"東京都","city":"三宅村","address":"三宅村坪田3007","lat":34.059851,"lon":139.548087},{"name":"＊?三宅島郷土資料館","province":"東京都","city":"三宅村","address":"三宅村阿古497","lat":34.075968,"lon":139.479169},{"name":"＊?三宅村立図書館","province":"東京都","city":"三宅村","address":"三宅村阿古497","lat":34.075968,"lon":139.479169},{"name":"三宅島社会福祉協議会","province":"東京都","city":"三宅村","address":"三宅村坪田3053三宅村社会福祉会館内","lat":34.060296,"lon":139.545909},{"name":"堂山のシイ","province":"東京都","city":"三宅村","address":"東京都三宅村伊豆1563","lat":34.114022,"lon":139.500935},{"name":"三宅島社会福祉協議会","province":"東京都","city":"三宅村","address":"三宅村坪田3053三宅村社会福祉会館内","lat":34.07027,"lon":139.54529},{"name":"三宅村火葬場","province":"東京都","city":"三宅村","address":"東京都三宅村阿古548-10","lat":34.07648713,"lon":139.47527503},{"name":"三宅村公民館","province":"東京都","city":"三宅村","address":"三宅村坪田3007","lat":34.059851,"lon":139.548087},{"name":"＊?三宅島郷土資料館","province":"東京都","city":"三宅村","address":"三宅村阿古497","lat":34.075968,"lon":139.479169},{"name":"＊?三宅村立図書館","province":"東京都","city":"三宅村","address":"三宅村阿古497","lat":34.075968,"lon":139.479169},{"name":"三宅島社会福祉協議会","province":"東京都","city":"三宅村","address":"三宅村坪田3053三宅村社会福祉会館内","lat":34.060296,"lon":139.545909},{"name":"堂山のシイ","province":"東京都","city":"三宅村","address":"東京都三宅村伊豆1563","lat":34.114022,"lon":139.500935},{"name":"三宅島社会福祉協議会","province":"東京都","city":"三宅村","address":"三宅村坪田3053三宅村社会福祉会館内","lat":34.07027,"lon":139.54529},{"name":"三宅村公民館","province":"東京都","city":"三宅村","address":"三宅村坪田3007","lat":34.059851,"lon":139.548087},{"name":"＊?三宅島郷土資料館","province":"東京都","city":"三宅村","address":"三宅村阿古497","lat":34.075968,"lon":139.479169},{"name":"＊?三宅村立図書館","province":"東京都","city":"三宅村","address":"三宅村阿古497","lat":34.075968,"lon":139.479169},{"name":"三宅島社会福祉協議会","province":"東京都","city":"三宅村","address":"三宅村坪田3053三宅村社会福祉会館内","lat":34.060296,"lon":139.545909},{"name":"堂山のシイ","province":"東京都","city":"三宅村","address":"東京都三宅村伊豆1563","lat":34.114022,"lon":139.500935},{"name":"三宅島社会福祉協議会","province":"東京都","city":"三宅村","address":"三宅村坪田3053三宅村社会福祉会館内","lat":34.07027,"lon":139.54529},{"name":"三宅村公民館","province":"東京都","city":"三宅村","address":"三宅村坪田3007","lat":34.059851,"lon":139.548087},{"name":"＊?三宅島郷土資料館","province":"東京都","city":"三宅村","address":"三宅村阿古497","lat":34.075968,"lon":139.479169},{"name":"＊?三宅村立図書館","province":"東京都","city":"三宅村","address":"三宅村阿古497","lat":34.075968,"lon":139.479169},{"name":"堂山のシイ","province":"東京都","city":"三宅村","address":"東京都三宅村伊豆1563","lat":34.114022,"lon":139.500935},{"name":"三宅村公民館","province":"東京都","city":"三宅村","address":"三宅村坪田3007","lat":34.059851,"lon":139.548087},{"name":"＊?三宅島郷土資料館","province":"東京都","city":"三宅村","address":"三宅村阿古497","lat":34.075968,"lon":139.479169},{"name":"＊?三宅村立図書館","province":"東京都","city":"三宅村","address":"三宅村阿古497","lat":34.075968,"lon":139.479169},{"name":"堂山のシイ","province":"東京都","city":"三宅村","address":"東京都三宅村伊豆1563","lat":34.114022,"lon":139.500935},{"name":"三宅村公民館","province":"東京都","city":"三宅村","address":"三宅村坪田3007","lat":34.059851,"lon":139.548087},{"name":"＊?三宅島郷土資料館","province":"東京都","city":"三宅村","address":"三宅村阿古497","lat":34.075968,"lon":139.479169},{"name":"＊?三宅村立図書館","province":"東京都","city":"三宅村","address":"三宅村阿古497","lat":34.075968,"lon":139.479169},{"name":"堂山のシイ","province":"東京都","city":"三宅村","address":"東京都三宅村伊豆1563","lat":34.114022,"lon":139.500935},{"name":"三宅村公民館","province":"東京都","city":"三宅村","address":"三宅村坪田3007","lat":34.059851,"lon":139.548087},{"name":"＊?三宅島郷土資料館","province":"東京都","city":"三宅村","address":"三宅村阿古497","lat":34.075968,"lon":139.479169},{"name":"＊?三宅村立図書館","province":"東京都","city":"三宅村","address":"三宅村阿古497","lat":34.075968,"lon":139.479169},{"name":"堂山のシイ","province":"東京都","city":"三宅村","address":"東京都三宅村伊豆1563","lat":34.114022,"lon":139.500935},{"name":"＊?三宅島郷土資料館","province":"東京都","city":"三宅村","address":"三宅村阿古497","lat":34.075968,"lon":139.479169},{"name":"＊?三宅村立図書館","province":"東京都","city":"三宅村","address":"三宅村阿古497","lat":34.075968,"lon":139.479169},{"name":"堂山のシイ","province":"東京都","city":"三宅村","address":"東京都三宅村伊豆1563","lat":34.114022,"lon":139.500935},{"name":"＊?三宅島郷土資料館","province":"東京都","city":"三宅村","address":"三宅村阿古497","lat":34.075968,"lon":139.479169},{"name":"＊?三宅村立図書館","province":"東京都","city":"三宅村","address":"三宅村阿古497","lat":34.075968,"lon":139.479169},{"name":"堂山のシイ","province":"東京都","city":"三宅村","address":"東京都三宅村伊豆1563","lat":34.114022,"lon":139.500935},{"name":"＊?三宅村立図書館","province":"東京都","city":"三宅村","address":"三宅村阿古497","lat":34.075968,"lon":139.479169},{"name":"堂山のシイ","province":"東京都","city":"三宅村","address":"東京都三宅村伊豆1563","lat":34.114022,"lon":139.500935},{"name":"＊?三宅村立図書館","province":"東京都","city":"三宅村","address":"三宅村阿古497","lat":34.075968,"lon":139.479169},{"name":"堂山のシイ","province":"東京都","city":"三宅村","address":"東京都三宅村伊豆1563","lat":34.114022,"lon":139.500935},{"name":"＊?三宅村立図書館","province":"東京都","city":"三宅村","address":"三宅村阿古497","lat":34.075968,"lon":139.479169},{"name":"堂山のシイ","province":"東京都","city":"三宅村","address":"東京都三宅村伊豆1563","lat":34.114022,"lon":139.500935},{"name":"＊?三宅村立図書館","province":"東京都","city":"三宅村","address":"三宅村阿古497","lat":34.075968,"lon":139.479169},{"name":"堂山のシイ","province":"東京都","city":"三宅村","address":"東京都三宅村伊豆1563","lat":34.114022,"lon":139.500935},{"name":"＊?三宅村立図書館","province":"東京都","city":"三宅村","address":"三宅村阿古497","lat":34.075968,"lon":139.479169},{"name":"堂山のシイ","province":"東京都","city":"三宅村","address":"東京都三宅村伊豆1563","lat":34.114022,"lon":139.500935},{"name":"＊?三宅村立図書館","province":"東京都","city":"三宅村","address":"三宅村阿古497","lat":34.075968,"lon":139.479169},{"name":"堂山のシイ","province":"東京都","city":"三宅村","address":"東京都三宅村伊豆1563","lat":34.114022,"lon":139.500935},{"name":"＊?三宅村立図書館","province":"東京都","city":"三宅村","address":"三宅村阿古497","lat":34.075968,"lon":139.479169},{"name":"堂山のシイ","province":"東京都","city":"三宅村","address":"東京都三宅村伊豆1563","lat":34.114022,"lon":139.500935},{"name":"＊?三宅村立図書館","province":"東京都","city":"三宅村","address":"三宅村阿古497","lat":34.075968,"lon":139.479169},{"name":"堂山のシイ","province":"東京都","city":"三宅村","address":"東京都三宅村伊豆1563","lat":34.114022,"lon":139.500935},{"name":"＊?三宅村立図書館","province":"東京都","city":"三宅村","address":"三宅村阿古497","lat":34.075968,"lon":139.479169},{"name":"堂山のシイ","province":"東京都","city":"三宅村","address":"東京都三宅村伊豆1563","lat":34.114022,"lon":139.500935},{"name":"＊?三宅村立図書館","province":"東京都","city":"三宅村","address":"三宅村阿古497","lat":34.075968,"lon":139.479169},{"name":"堂山のシイ","province":"東京都","city":"三宅村","address":"東京都三宅村伊豆1563","lat":34.114022,"lon":139.500935},{"name":"＊?三宅村立図書館","province":"東京都","city":"三宅村","address":"三宅村阿古497","lat":34.075968,"lon":139.479169},{"name":"堂山のシイ","province":"東京都","city":"三宅村","address":"東京都三宅村伊豆1563","lat":34.114022,"lon":139.500935},{"name":"＊?三宅村立図書館","province":"東京都","city":"三宅村","address":"三宅村阿古497","lat":34.075968,"lon":139.479169},{"name":"堂山のシイ","province":"東京都","city":"三宅村","address":"東京都三宅村伊豆1563","lat":34.114022,"lon":139.500935},{"name":"＊?三宅村立図書館","province":"東京都","city":"三宅村","address":"三宅村阿古497","lat":34.075968,"lon":139.479169},{"name":"堂山のシイ","province":"東京都","city":"三宅村","address":"東京都三宅村伊豆1563","lat":34.114022,"lon":139.500935},{"name":"＊?三宅村立図書館","province":"東京都","city":"三宅村","address":"三宅村阿古497","lat":34.075968,"lon":139.479169},{"name":"堂山のシイ","province":"東京都","city":"三宅村","address":"東京都三宅村伊豆1563","lat":34.114022,"lon":139.500935},{"name":"＊?三宅村立図書館","province":"東京都","city":"三宅村","address":"三宅村阿古497","lat":34.075968,"lon":139.479169},{"name":"堂山のシイ","province":"東京都","city":"三宅村","address":"東京都三宅村伊豆1563","lat":34.114022,"lon":139.500935},{"name":"＊?三宅村立図書館","province":"東京都","city":"三宅村","address":"三宅村阿古497","lat":34.075968,"lon":139.479169},{"name":"堂山のシイ","province":"東京都","city":"三宅村","address":"東京都三宅村伊豆1563","lat":34.114022,"lon":139.500935},{"name":"＊?三宅村立図書館","province":"東京都","city":"三宅村","address":"三宅村阿古497","lat":34.075968,"lon":139.479169},{"name":"堂山のシイ","province":"東京都","city":"三宅村","address":"東京都三宅村伊豆1563","lat":34.114022,"lon":139.500935},{"name":"＊?三宅村立図書館","province":"東京都","city":"三宅村","address":"三宅村阿古497","lat":34.075968,"lon":139.479169},{"name":"堂山のシイ","province":"東京都","city":"三宅村","address":"東京都三宅村伊豆1563","lat":34.114022,"lon":139.500935},{"name":"＊?三宅村立図書館","province":"東京都","city":"三宅村","address":"三宅村阿古497","lat":34.075968,"lon":139.479169},{"name":"堂山のシイ","province":"東京都","city":"三宅村","address":"東京都三宅村伊豆1563","lat":34.114022,"lon":139.500935},{"name":"＊?三宅村立図書館","province":"東京都","city":"三宅村","address":"三宅村阿古497","lat":34.075968,"lon":139.479169},{"name":"堂山のシイ","province":"東京都","city":"三宅村","address":"東京都三宅村伊豆1563","lat":34.114022,"lon":139.500935},{"name":"＊?三宅村立図書館","province":"東京都","city":"三宅村","address":"三宅村阿古497","lat":34.075968,"lon":139.479169},{"name":"堂山のシイ","province":"東京都","city":"三宅村","address":"東京都三宅村伊豆1563","lat":34.114022,"lon":139.500935},{"name":"＊?三宅村立図書館","province":"東京都","city":"三宅村","address":"三宅村阿古497","lat":34.075968,"lon":139.479169},{"name":"堂山のシイ","province":"東京都","city":"三宅村","address":"東京都三宅村伊豆1563","lat":34.114022,"lon":139.500935},{"name":"＊?三宅村立図書館","province":"東京都","city":"三宅村","address":"三宅村阿古497","lat":34.075968,"lon":139.479169},{"name":"堂山のシイ","province":"東京都","city":"三宅村","address":"東京都三宅村伊豆1563","lat":34.114022,"lon":139.500935},{"name":"＊?三宅村立図書館","province":"東京都","city":"三宅村","address":"三宅村阿古497","lat":34.075968,"lon":139.479169},{"name":"堂山のシイ","province":"東京都","city":"三宅村","address":"東京都三宅村伊豆1563","lat":34.114022,"lon":139.500935},{"name":"＊?三宅村立図書館","province":"東京都","city":"三宅村","address":"三宅村阿古497","lat":34.075968,"lon":139.479169},{"name":"堂山のシイ","province":"東京都","city":"三宅村","address":"東京都三宅村伊豆1563","lat":34.114022,"lon":139.500935},{"name":"＊?三宅村立図書館","province":"東京都","city":"三宅村","address":"三宅村阿古497","lat":34.075968,"lon":139.479169},{"name":"堂山のシイ","province":"東京都","city":"三宅村","address":"東京都三宅村伊豆1563","lat":34.114022,"lon":139.500935},{"name":"＊?三宅村立図書館","province":"東京都","city":"三宅村","address":"三宅村阿古497","lat":34.075968,"lon":139.479169},{"name":"堂山のシイ","province":"東京都","city":"三宅村","address":"東京都三宅村伊豆1563","lat":34.114022,"lon":139.500935},{"name":"＊?三宅村立図書館","province":"東京都","city":"三宅村","address":"三宅村阿古497","lat":34.075968,"lon":139.479169},{"name":"堂山のシイ","province":"東京都","city":"三宅村","address":"東京都三宅村伊豆1563","lat":34.114022,"lon":139.500935},{"name":"＊?三宅村立図書館","province":"東京都","city":"三宅村","address":"三宅村阿古497","lat":34.075968,"lon":139.479169},{"name":"堂山のシイ","province":"東京都","city":"三宅村","address":"東京都三宅村伊豆1563","lat":34.114022,"lon":139.500935},{"name":"＊?三宅村立図書館","province":"東京都","city":"三宅村","address":"三宅村阿古497","lat":34.075968,"lon":139.479169},{"name":"堂山のシイ","province":"東京都","city":"三宅村","address":"東京都三宅村伊豆1563","lat":34.114022,"lon":139.500935},{"name":"＊?三宅村立図書館","province":"東京都","city":"三宅村","address":"三宅村阿古497","lat":34.075968,"lon":139.479169},{"name":"堂山のシイ","province":"東京都","city":"三宅村","address":"東京都三宅村伊豆1563","lat":34.114022,"lon":139.500935},{"name":"＊?三宅村立図書館","province":"東京都","city":"三宅村","address":"三宅村阿古497","lat":34.075968,"lon":139.479169},{"name":"堂山のシイ","province":"東京都","city":"三宅村","address":"東京都三宅村伊豆1563","lat":34.114022,"lon":139.500935},{"name":"＊?三宅村立図書館","province":"東京都","city":"三宅村","address":"三宅村阿古497","lat":34.075968,"lon":139.479169},{"name":"堂山のシイ","province":"東京都","city":"三宅村","address":"東京都三宅村伊豆1563","lat":34.114022,"lon":139.500935},{"name":"＊?三宅村立図書館","province":"東京都","city":"三宅村","address":"三宅村阿古497","lat":34.075968,"lon":139.479169},{"name":"堂山のシイ","province":"東京都","city":"三宅村","address":"東京都三宅村伊豆1563","lat":34.114022,"lon":139.500935},{"name":"＊?三宅村立図書館","province":"東京都","city":"三宅村","address":"三宅村阿古497","lat":34.075968,"lon":139.479169},{"name":"堂山のシイ","province":"東京都","city":"三宅村","address":"東京都三宅村伊豆1563","lat":34.114022,"lon":139.500935},{"name":"＊?三宅村立図書館","province":"東京都","city":"三宅村","address":"三宅村阿古497","lat":34.075968,"lon":139.479169},{"name":"堂山のシイ","province":"東京都","city":"三宅村","address":"東京都三宅村伊豆1563","lat":34.114022,"lon":139.500935},{"name":"＊?三宅村立図書館","province":"東京都","city":"三宅村","address":"三宅村阿古497","lat":34.075968,"lon":139.479169},{"name":"堂山のシイ","province":"東京都","city":"三宅村","address":"東京都三宅村伊豆1563","lat":34.114022,"lon":139.500935},{"name":"＊?三宅村立図書館","province":"東京都","city":"三宅村","address":"三宅村阿古497","lat":34.075968,"lon":139.479169},{"name":"堂山のシイ","province":"東京都","city":"三宅村","address":"東京都三宅村伊豆1563","lat":34.114022,"lon":139.500935},{"name":"＊?三宅村立図書館","province":"東京都","city":"三宅村","address":"三宅村阿古497","lat":34.075968,"lon":139.479169},{"name":"堂山のシイ","province":"東京都","city":"三宅村","address":"東京都三宅村伊豆1563","lat":34.114022,"lon":139.500935},{"name":"＊?三宅村立図書館","province":"東京都","city":"三宅村","address":"三宅村阿古497","lat":34.075968,"lon":139.479169},{"name":"堂山のシイ","province":"東京都","city":"三宅村","address":"東京都三宅村伊豆1563","lat":34.114022,"lon":139.500935},{"name":"＊?三宅村立図書館","province":"東京都","city":"三宅村","address":"三宅村阿古497","lat":34.075968,"lon":139.479169},{"name":"堂山のシイ","province":"東京都","city":"三宅村","address":"東京都三宅村伊豆1563","lat":34.114022,"lon":139.500935},{"name":"＊?三宅村立図書館","province":"東京都","city":"三宅村","address":"三宅村阿古497","lat":34.075968,"lon":139.479169},{"name":"堂山のシイ","province":"東京都","city":"三宅村","address":"東京都三宅村伊豆1563","lat":34.114022,"lon":139.500935},{"name":"＊?三宅村立図書館","province":"東京都","city":"三宅村","address":"三宅村阿古497","lat":34.075968,"lon":139.479169}]}