{"keyword":"駒込","data":[{"name":"＊??三宅村青年館","province":"東京都","city":"三宅村","address":"三宅村阿古700-4","lat":34.064638,"lon":139.482452},{"name":"＊??三宅村青年館","province":"東京都","city":"三宅村","address":"三宅村阿古700-4","lat":34.064638,"lon":139.482452},{"name":"＊??三宅村青年館","province":"東京都","city":"三宅村","address":"三宅村阿古700-4","lat":34.064638,"lon":139.482452},{"name":"＊??三宅村青年館","province":"東京都","city":"三宅村","address":"三宅村阿古700-4","lat":34.064638,"lon":139.482452},{"name":"＊??三宅村青年館","province":"東京都","city":"三宅村","address":"三宅村阿古700-4","lat":34.064638,"lon":139.482452},{"name":"＊??三宅村青年館","province":"東京都","city":"三宅村","address":"三宅村阿古700-4","lat":34.064638,"lon":139.482452},{"name":"＊??三宅村青年館","province":"東京都","city":"三宅村","address":"三宅村阿古700-4","lat":34.064638,"lon":139.482452},{"name":"＊??三宅村青年館","province":"東京都","city":"三宅村","address":"三宅村阿古700-4","lat":34.064638,"lon":139.482452},{"name":"＊??三宅村青年館","province":"東京都","city":"三宅村","address":"三宅村阿古700-4","lat":34.064638,"lon":139.482452},{"name":"＊??三宅村青年館","province":"東京都","city":"三宅村","address":"三宅村阿古700-4","lat":34.064638,"lon":139.482452},{"name":"＊??三宅村青年館","province":"東京都","city":"三宅村","address":"三宅村阿古700-4","lat":34.064638,"lon":139.482452},{"name":"＊??三宅村青年館","province":"東京都","city":"三宅村","address":"三宅村阿古700-4","lat":34.064638,"lon":139.482452},{"name":"＊??三宅村青年館","province":"東京都","city":"三宅村","address":"三宅村阿古700-4","lat":34.064638,"lon":139.482452},{"name":"＊??三宅村青年館","province":"東京都","city":"三宅村","address":"三宅村阿古700-4","lat":34.064638,"lon":139.482452},{"name":"＊??三宅村青年館","province":"東京都","city":"三宅村","address":"三宅村阿古700-4","lat":34.064638,"lon":139.482452},{"name":"＊??三宅村青年館","province":"東京都","city":"三宅村","address":"三宅村阿古700-4","lat":34.064638,"lon":139.482452},{"name":"＊??三宅村青年館","province":"東京都","city":"三宅村","address":"三宅村阿古700-4","lat":34.064638,"lon":139.482452},{"name":"＊??三宅村青年館","province":"東京都","city":"三宅村","address":"三宅村阿古700-4","lat":34.064638,"lon":139.482452},{"name":"＊??三宅村青年館","province":"東京都","city":"三宅村","address":"三宅村阿古700-4","lat":34.064638,"lon":139.482452},{"name":"＊??三宅村青年館","province":"東京都","city":"三宅村","address":"三宅村阿古700-4","lat":34.064638,"lon":139.482452},{"name":"＊??三宅村青年館","province":"東京都","city":"三宅村","address":"三宅村阿古700-4","lat":34.064638,"lon":139.482452},{"name":"＊??三宅村青年館","province":"東京都","city":"三宅村","address":"三宅村阿古700-4","lat":34.064638,"lon":139.482452},{"name":"＊??三宅村青年館","province":"東京都","city":"三宅村","address":"三宅村阿古700-4","lat":34.064638,"lon":139.482452},{"name":"＊??三宅村青年館","province":"東京都","city":"三宅村","address":"三宅村阿古700-4","lat":34.064638,"lon":139.482452},{"name":"＊??三宅村青年館","province":"東京都","city":"三宅村","address":"三宅村阿古700-4","lat":34.064638,"lon":139.482452},{"name":"＊??三宅村青年館","province":"東京都","city":"三宅村","address":"三宅村阿古700-4","lat":34.064638,"lon":139.482452},{"name":"＊??三宅村青年館","province":"東京都","city":"三宅村","address":"三宅村阿古700-4","lat":34.064638,"lon":139.482452},{"name":"＊??三宅村青年館","province":"東京都","city":"三宅村","address":"三宅村阿古700-4","lat":34.064638,"lon":139.482452},{"name":"＊??三宅村青年館","province":"東京都","city":"三宅村","address":"三宅村阿古700-4","lat":34.064638,"lon":139.482452},{"name":"＊??三宅村青年館","province":"東京都","city":"三宅村","address":"三宅村阿古700-4","lat":34.064638,"lon":139.482452},{"name":"＊??三宅村青年館","province":"東京都","city":"三宅村","address":"三宅村阿古700-4","lat":34.064638,"lon":139.482452},{"name":"＊??三宅村青年館","province":"東京都","city":"三宅村","address":"三宅村阿古700-4","lat":34.064638,"lon":139.482452},{"name":"＊??三宅村青年館","province":"東京都","city":"三宅村","address":"三宅村阿古700-4","lat":34.064638,"lon":139.482452},{"name":"＊??三宅村青年館","province":"東京都","city":"三宅村","address":"三宅村阿古700-4","lat":34.064638,"lon":139.482452},{"name":"＊??三宅村青年館","province":"東京都","city":"三宅村","address":"三宅村阿古700-4","lat":34.064638,"lon":139.482452},{"name":"＊??三宅村青年館","province":"東京都","city":"三宅村","address":"三宅村阿古700-4","lat":34.064638,"lon":139.482452},{"name":"＊??三宅村青年館","province":"東京都","city":"三宅村","address":"三宅村阿古700-4","lat":34.064638,"lon":139.482452},{"name":"＊??三宅村青年館","province":"東京都","city":"三宅村","address":"三宅村阿古700-4","lat":34.064638,"lon":139.482452},{"name":"＊??三宅村青年館","province":"東京都","city":"三宅村","address":"三宅村阿古700-4","lat":34.064638,"lon":139.482452},{"name":"＊??三宅村青年館","province":"東京都","city":"三宅村","address":"三宅村阿古700-4","lat":34.064638,"lon":139.482452},{"name":"＊??三宅村青年館","province":"東京都","city":"三宅村","address":"三宅村阿古700-4","lat":34.064638,"lon":139.482452},{"name":"＊??三宅村青年館","province":"東京都","city":"三宅村","address":"三宅村阿古700-4","lat":34.064638,"lon":139.482452},{"name":"＊??三宅村青年館","province":"東京都","city":"三宅村","address":"三宅村阿古700-4","lat":34.064638,"lon":139.482452},{"name":"＊??三宅村青年館","province":"東京都","city":"三宅村","address":"三宅村阿古700-4","lat":34.064638,"lon":139.482452}]}