{"keyword":"器材","data":[{"name":"砂町排水機場","province":"東京都","city":"江東区","address":"東京都江東区新砂3丁目8","lat":35.65323126,"lon":139.84028308},{"name":"あけぼの水門","province":"東京都","city":"江東区","address":"東京都江東区辰巳2丁目8-10","lat":35.64798406,"lon":139.81827674},{"name":"辰巳排水機場","province":"東京都","city":"江東区","address":"東京都江東区辰巳1丁目1-44","lat":35.64585906,"lon":139.80884708},{"name":"東雲水門","province":"東京都","city":"江東区","address":"東京都江東区豊洲5丁目6-5","lat":35.64934172,"lon":139.79785354},{"name":"東雲水門（水防倉庫）","province":"東京都","city":"江東区","address":"東京都江東区東雲1丁目1-19","lat":35.64832243,"lon":139.79913123},{"name":"豊洲水門","province":"東京都","city":"江東区","address":"東京都江東区越中島3丁目1-1","lat":35.66352618,"lon":139.79429253},{"name":"佃水門","province":"東京都","city":"中央区","address":"東京都中央区晴海1丁目1-26","lat":35.66197894,"lon":139.7876958},{"name":"朝潮水門（水防倉庫）","province":"東京都","city":"中央区","address":"東京都中央区勝どき6丁目3","lat":35.65549314,"lon":139.77306391},{"name":"築地川水門","province":"東京都","city":"中央区","address":"東京都中央区浜離宮庭園1-1","lat":35.66256987,"lon":139.76322283},{"name":"浜離宮排水機場","province":"東京都","city":"中央区","address":"東京都中央区浜離宮庭園1-1","lat":35.66256987,"lon":139.76322283},{"name":"汐留川水門","province":"東京都","city":"中央区","address":"東京都中央区浜離宮庭園1-1","lat":35.66256987,"lon":139.76322283},{"name":"芝浦排水機場","province":"東京都","city":"港区","address":"東京都港区港南3丁目9-63","lat":35.63486722,"lon":139.75208869},{"name":"呑川水門","province":"東京都","city":"大田区","address":"東京都大田区大森東5丁目37-28","lat":35.56922547,"lon":139.74610619},{"name":"南前堀水門","province":"東京都","city":"大田区","address":"東京都大田区東糀谷6丁目10-18","lat":35.55664715,"lon":139.75146239}]}