{"keyword":"医薬","data":[{"name":"緑小学校","province":"広島県","city":"広島市佐伯区","address":"広島県広島市佐伯区美鈴が丘緑2丁目12-12","lat":34.39338957,"lon":132.37679687},{"name":"とちのき","province":"広島県","city":"広島市佐伯区","address":"広島県広島市佐伯区美鈴が丘緑2丁目8-12","lat":34.39433669,"lon":132.37703853},{"name":"とちのき","province":"広島県","city":"広島市佐伯区","address":"広島県広島市佐伯区美鈴が丘緑2丁目8-12","lat":34.39433669,"lon":132.37703853},{"name":"とちのき","province":"広島県","city":"広島市佐伯区","address":"広島県広島市佐伯区美鈴が丘緑2丁目8-12","lat":34.39433669,"lon":132.37703853},{"name":"とちのき","province":"広島県","city":"広島市佐伯区","address":"広島県広島市佐伯区美鈴が丘緑2丁目8-12","lat":34.39433669,"lon":132.37703853},{"name":"とちのき","province":"広島県","city":"広島市佐伯区","address":"広島県広島市佐伯区美鈴が丘緑2丁目8-12","lat":34.39433669,"lon":132.37703853},{"name":"とちのき","province":"広島県","city":"広島市佐伯区","address":"広島県広島市佐伯区美鈴が丘緑2丁目8-12","lat":34.39433669,"lon":132.37703853},{"name":"とちのき","province":"広島県","city":"広島市佐伯区","address":"広島県広島市佐伯区美鈴が丘緑2丁目8-12","lat":34.39433669,"lon":132.37703853},{"name":"とちのき","province":"広島県","city":"広島市佐伯区","address":"広島県広島市佐伯区美鈴が丘緑2丁目8-12","lat":34.39433669,"lon":132.37703853},{"name":"とちのき","province":"広島県","city":"広島市佐伯区","address":"広島県広島市佐伯区美鈴が丘緑2丁目8-12","lat":34.39433669,"lon":132.37703853},{"name":"とちのき","province":"広島県","city":"広島市佐伯区","address":"広島県広島市佐伯区美鈴が丘緑2丁目8-12","lat":34.39433669,"lon":132.37703853},{"name":"とちのき","province":"広島県","city":"広島市佐伯区","address":"広島県広島市佐伯区美鈴が丘緑2丁目8-12","lat":34.39433669,"lon":132.37703853},{"name":"とちのき","province":"広島県","city":"広島市佐伯区","address":"広島県広島市佐伯区美鈴が丘緑2丁目8-12","lat":34.39433669,"lon":132.37703853},{"name":"とちのき","province":"広島県","city":"広島市佐伯区","address":"広島県広島市佐伯区美鈴が丘緑2丁目8-12","lat":34.39433669,"lon":132.37703853},{"name":"とちのき","province":"広島県","city":"広島市佐伯区","address":"広島県広島市佐伯区美鈴が丘緑2丁目8-12","lat":34.39433669,"lon":132.37703853},{"name":"とちのき","province":"広島県","city":"広島市佐伯区","address":"広島県広島市佐伯区美鈴が丘緑2丁目8-12","lat":34.39433669,"lon":132.37703853},{"name":"とちのき","province":"広島県","city":"広島市佐伯区","address":"広島県広島市佐伯区美鈴が丘緑2丁目8-12","lat":34.39433669,"lon":132.37703853},{"name":"とちのき","province":"広島県","city":"広島市佐伯区","address":"広島県広島市佐伯区美鈴が丘緑2丁目8-12","lat":34.39433669,"lon":132.37703853},{"name":"とちのき","province":"広島県","city":"広島市佐伯区","address":"広島県広島市佐伯区美鈴が丘緑2丁目8-12","lat":34.39433669,"lon":132.37703853},{"name":"とちのき","province":"広島県","city":"広島市佐伯区","address":"広島県広島市佐伯区美鈴が丘緑2丁目8-12","lat":34.39433669,"lon":132.37703853},{"name":"とちのき","province":"広島県","city":"広島市佐伯区","address":"広島県広島市佐伯区美鈴が丘緑2丁目8-12","lat":34.39433669,"lon":132.37703853},{"name":"とちのき","province":"広島県","city":"広島市佐伯区","address":"広島県広島市佐伯区美鈴が丘緑2丁目8-12","lat":34.39433669,"lon":132.37703853},{"name":"とちのき","province":"広島県","city":"広島市佐伯区","address":"広島県広島市佐伯区美鈴が丘緑2丁目8-12","lat":34.39433669,"lon":132.37703853},{"name":"とちのき","province":"広島県","city":"広島市佐伯区","address":"広島県広島市佐伯区美鈴が丘緑2丁目8-12","lat":34.39433669,"lon":132.37703853},{"name":"とちのき","province":"広島県","city":"広島市佐伯区","address":"広島県広島市佐伯区美鈴が丘緑2丁目8-12","lat":34.39433669,"lon":132.37703853},{"name":"とちのき","province":"広島県","city":"広島市佐伯区","address":"広島県広島市佐伯区美鈴が丘緑2丁目8-12","lat":34.39433669,"lon":132.37703853},{"name":"とちのき","province":"広島県","city":"広島市佐伯区","address":"広島県広島市佐伯区美鈴が丘緑2丁目8-12","lat":34.39433669,"lon":132.37703853},{"name":"とちのき","province":"広島県","city":"広島市佐伯区","address":"広島県広島市佐伯区美鈴が丘緑2丁目8-12","lat":34.39433669,"lon":132.37703853},{"name":"とちのき","province":"広島県","city":"広島市佐伯区","address":"広島県広島市佐伯区美鈴が丘緑2丁目8-12","lat":34.39433669,"lon":132.37703853},{"name":"とちのき","province":"広島県","city":"広島市佐伯区","address":"広島県広島市佐伯区美鈴が丘緑2丁目8-12","lat":34.39433669,"lon":132.37703853},{"name":"とちのき","province":"広島県","city":"広島市佐伯区","address":"広島県広島市佐伯区美鈴が丘緑2丁目8-12","lat":34.39433669,"lon":132.37703853},{"name":"とちのき","province":"広島県","city":"広島市佐伯区","address":"広島県広島市佐伯区美鈴が丘緑2丁目8-12","lat":34.39433669,"lon":132.37703853},{"name":"とちのき","province":"広島県","city":"広島市佐伯区","address":"広島県広島市佐伯区美鈴が丘緑2丁目8-12","lat":34.39433669,"lon":132.37703853},{"name":"とちのき","province":"広島県","city":"広島市佐伯区","address":"広島県広島市佐伯区美鈴が丘緑2丁目8-12","lat":34.39433669,"lon":132.37703853},{"name":"とちのき","province":"広島県","city":"広島市佐伯区","address":"広島県広島市佐伯区美鈴が丘緑2丁目8-12","lat":34.39433669,"lon":132.37703853},{"name":"とちのき","province":"広島県","city":"広島市佐伯区","address":"広島県広島市佐伯区美鈴が丘緑2丁目8-12","lat":34.39433669,"lon":132.37703853},{"name":"とちのき","province":"広島県","city":"広島市佐伯区","address":"広島県広島市佐伯区美鈴が丘緑2丁目8-12","lat":34.39433669,"lon":132.37703853},{"name":"とちのき","province":"広島県","city":"広島市佐伯区","address":"広島県広島市佐伯区美鈴が丘緑2丁目8-12","lat":34.39433669,"lon":132.37703853},{"name":"とちのき","province":"広島県","city":"広島市佐伯区","address":"広島県広島市佐伯区美鈴が丘緑2丁目8-12","lat":34.39433669,"lon":132.37703853},{"name":"とちのき","province":"広島県","city":"広島市佐伯区","address":"広島県広島市佐伯区美鈴が丘緑2丁目8-12","lat":34.39433669,"lon":132.37703853},{"name":"とちのき","province":"広島県","city":"広島市佐伯区","address":"広島県広島市佐伯区美鈴が丘緑2丁目8-12","lat":34.39433669,"lon":132.37703853},{"name":"とちのき","province":"広島県","city":"広島市佐伯区","address":"広島県広島市佐伯区美鈴が丘緑2丁目8-12","lat":34.39433669,"lon":132.37703853},{"name":"とちのき","province":"広島県","city":"広島市佐伯区","address":"広島県広島市佐伯区美鈴が丘緑2丁目8-12","lat":34.39433669,"lon":132.37703853},{"name":"とちのき","province":"広島県","city":"広島市佐伯区","address":"広島県広島市佐伯区美鈴が丘緑2丁目8-12","lat":34.39433669,"lon":132.37703853},{"name":"とちのき","province":"広島県","city":"広島市佐伯区","address":"広島県広島市佐伯区美鈴が丘緑2丁目8-12","lat":34.39433669,"lon":132.37703853},{"name":"とちのき","province":"広島県","city":"広島市佐伯区","address":"広島県広島市佐伯区美鈴が丘緑2丁目8-12","lat":34.39433669,"lon":132.37703853},{"name":"とちのき","province":"広島県","city":"広島市佐伯区","address":"広島県広島市佐伯区美鈴が丘緑2丁目8-12","lat":34.39433669,"lon":132.37703853},{"name":"とちのき","province":"広島県","city":"広島市佐伯区","address":"広島県広島市佐伯区美鈴が丘緑2丁目8-12","lat":34.39433669,"lon":132.37703853}]}