{"keyword":"箇所","data":[{"name":"文京ふるさと歴史館","province":"東京都","city":"文京区","address":"東京都文京区本郷4-9-29","lat":35.7080142,"lon":139.7566697},{"name":"指ケ谷小学校","province":"東京都","city":"文京区","address":"東京都文京区白山2-28-4","lat":35.717306,"lon":139.750766999999},{"name":"根津幼稚園","province":"東京都","city":"文京区","address":"東京都文京区根津1-14-2","lat":35.7174499999999,"lon":139.755034999999},{"name":"本駒込幼稚園","province":"東京都","city":"文京区","address":"東京都文京区本駒込4-35-15","lat":35.718575,"lon":139.763037999999},{"name":"柳町こどもの森（幼稚園+保育園）","province":"東京都","city":"文京区","address":"東京都文京区小石川1-23-6","lat":35.713695,"lon":139.750496999999},{"name":"教育センター","province":"東京都","city":"文京区","address":"東京都文京区湯島4-7-10","lat":35.708987,"lon":139.765749999999},{"name":"大塚北会館","province":"東京都","city":"文京区","address":"東京都文京区大塚6丁目15-3","lat":35.7260258,"lon":139.72576806},{"name":"文京区民センター","province":"東京都","city":"文京区","address":"東京都文京区本郷4-15-14","lat":35.708818,"lon":139.754155999999},{"name":"動坂会館","province":"東京都","city":"文京区","address":"東京都文京区千駄木4丁目8-14","lat":35.73101246,"lon":139.75908746},{"name":"白山東会館","province":"東京都","city":"文京区","address":"東京都文京区白山1丁目29-10","lat":35.71913292,"lon":139.75308266},{"name":"本郷会館","province":"東京都","city":"文京区","address":"東京都文京区本郷2丁目21-7","lat":35.70465959,"lon":139.75909098},{"name":"根津総合センター","province":"東京都","city":"文京区","address":"東京都文京区根津1丁目14-3","lat":35.71832228,"lon":139.76341252},{"name":"目白台総合センター","province":"東京都","city":"文京区","address":"東京都文京区目白台3丁目18-7","lat":35.71719341,"lon":139.72340193},{"name":"大塚地域活動センター","province":"東京都","city":"文京区","address":"東京都文京区大塚1-5-17","lat":35.718634,"lon":139.734636999999},{"name":"根津地域活動センター\n（不忍通りふれあい館）","province":"東京都","city":"文京区","address":"東京都文京区根津2-20-7","lat":35.7191919999999,"lon":139.764204},{"name":"勤労福祉会館","province":"東京都","city":"文京区","address":"東京都文京区本駒込4丁目35-15","lat":35.73346756,"lon":139.75514043},{"name":"文京シビックセンター","province":"","city":"","address":"春日1-16-21","lat":35.7080649999999,"lon":139.752173999999},{"name":"湯島小学校育成室","province":"東京都","city":"文京区","address":"東京都文京区湯島2-28-14","lat":35.706572,"lon":139.766568},{"name":"大塚小学校育成室","province":"東京都","city":"文京区","address":"東京都文京区大塚4-1-7","lat":35.72375,"lon":139.736374},{"name":"駕籠町小学校育成室","province":"東京都","city":"文京区","address":"東京都文京区本駒込2-29-6","lat":35.728631,"lon":139.745992999999},{"name":"神明育成室","province":"東京都","city":"文京区","address":"東京都文京区本駒込4-35-15","lat":35.7332759999999,"lon":139.755369},{"name":"窪町育成室","province":"東京都","city":"文京区","address":"東京都文京区大塚3-2-3","lat":35.7188769999999,"lon":139.735628999999},{"name":"駒本育成室","province":"東京都","city":"文京区","address":"東京都文京区向丘2-37-5","lat":35.7246179999999,"lon":139.754577},{"name":"汐見育成室","province":"東京都","city":"文京区","address":"東京都文京区千駄木2-19-23","lat":35.723733,"lon":139.760914},{"name":"千駄木育成室","province":"東京都","city":"文京区","address":"東京都文京区千駄木5-44-2","lat":35.72914,"lon":139.758950999999},{"name":"文林中学校育成室","province":"東京都","city":"文京区","address":"東京都文京区千駄木5-44-12","lat":35.728461,"lon":139.758484},{"name":"本郷第三育成室","province":"東京都","city":"文京区","address":"東京都文京区本郷4-5-15","lat":35.7077689999999,"lon":139.758134},{"name":"本郷第二育成室","province":"東京都","city":"文京区","address":"東京都文京区本郷4-5-15","lat":35.7080929999999,"lon":139.758136},{"name":"誠之育成室","province":"東京都","city":"文京区","address":"東京都文京区向丘2-5-7","lat":35.7173349999999,"lon":139.75788},{"name":"茗台育成室","province":"東京都","city":"文京区","address":"東京都文京区春日2-9-5","lat":35.7133979999999,"lon":139.741275999999},{"name":"向丘育成室","province":"東京都","city":"文京区","address":"東京都文京区向丘1-3-13","lat":35.71751494,"lon":139.7565222},{"name":"柳町第二育成室","province":"東京都","city":"文京区","address":"東京都文京区小石川1-23-16","lat":35.7139319999999,"lon":139.750324},{"name":"指ヶ谷育成室","province":"東京都","city":"文京区","address":"東京都文京区白山2-28-4","lat":35.717306,"lon":139.750766999999},{"name":"柳町第三育成室","province":"東京都","city":"文京区","address":"東京都文京区小石川1-23-16","lat":35.7139319999999,"lon":139.750324},{"name":"目白台運動公園","province":"東京都","city":"文京区","address":"東京都文京区目白台1-20-2","lat":35.717258,"lon":139.723396},{"name":"高齢者あんしん相談センター\n大塚","province":"東京都","city":"文京区","address":"東京都文京区大塚4-50-1","lat":35.724654,"lon":139.730809},{"name":"高齢者あんしん相談センター\n大塚分室","province":"東京都","city":"文京区","address":"東京都文京区音羽1-15-12","lat":35.715336,"lon":139.729627},{"name":"文京白山の郷","province":"東京都","city":"文京区","address":"東京都文京区白山5丁目16-3","lat":35.72467931,"lon":139.74676075},{"name":"高齢者あんしん相談センター\n富坂分室","province":"東京都","city":"文京区","address":"東京都文京区小石川2-11-11","lat":35.711945,"lon":139.750345},{"name":"高齢者あんしん相談センター\n本富士","province":"東京都","city":"文京区","address":"東京都文京区湯島4-9-8","lat":35.709565,"lon":139.764591},{"name":"高齢者あんしん相談センター\n本富士分室","province":"東京都","city":"文京区","address":"東京都文京区本郷2-21-3","lat":35.704504,"lon":139.759142},{"name":"福祉センター江戸川橋","province":"東京都","city":"文京区","address":"東京都文京区小日向2-16-15","lat":35.710602,"lon":139.734647},{"name":"本郷福祉センター若駒の里","province":"東京都","city":"文京区","address":"東京都文京区本駒込4丁目35-15","lat":35.73346756,"lon":139.75514043},{"name":"大塚福祉作業所","province":"東京都","city":"文京区","address":"東京都文京区大塚4丁目50-1","lat":35.72475665,"lon":139.7308038},{"name":"小石川福祉作業所","province":"東京都","city":"文京区","address":"東京都文京区小石川3丁目30-6","lat":35.71408886,"lon":139.74864981},{"name":"播磨坂清掃事業所","province":"東京都","city":"文京区","address":"東京都文京区小石川5丁目40-21","lat":35.71723559,"lon":139.74281134},{"name":"文京清掃事務所","province":"東京都","city":"文京区","address":"東京都文京区後楽1丁目7-29","lat":35.70537865,"lon":139.74703915},{"name":"文京清掃事務所本郷分室","province":"東京都","city":"文京区","address":"東京都文京区湯島4丁目1-14","lat":35.70769001,"lon":139.76429613},{"name":"藍染保育園","province":"東京都","city":"文京区","address":"東京都文京区根津2-34-15","lat":35.721173,"lon":139.763272999999},{"name":"青柳保育園","province":"東京都","city":"文京区","address":"東京都文京区水道2-9-6\n※仮園舎住所","lat":35.7134679999999,"lon":139.729158},{"name":"大塚保育園","province":"東京都","city":"文京区","address":"東京都文京区大塚6-22-19","lat":35.7246349999999,"lon":139.725646},{"name":"こひなた保育園","province":"東京都","city":"文京区","address":"東京都文京区小日向1-21-1","lat":35.714013,"lon":139.736124999999},{"name":"駒込保育園","province":"東京都","city":"文京区","address":"東京都文京区千駄木3-19-17","lat":35.729655,"lon":139.760629999999},{"name":"さしがや保育園","province":"東京都","city":"文京区","address":"東京都文京区白山2-32-6","lat":35.7181039999999,"lon":139.749759},{"name":"しおみ保育園","province":"東京都","city":"文京区","address":"東京都文京区千駄木2-27-8","lat":35.724935,"lon":139.761908},{"name":"水道保育園","province":"東京都","city":"文京区","address":"東京都文京区水道1-3-26","lat":35.7095669999999,"lon":139.742295},{"name":"千石西保育園","province":"東京都","city":"文京区","address":"東京都文京区千石3-15-15","lat":35.7249139999999,"lon":139.738225999999},{"name":"千石保育園","province":"東京都","city":"文京区","address":"東京都文京区千石1-4-3","lat":35.7248149999999,"lon":139.743264},{"name":"久堅保育園","province":"東京都","city":"文京区","address":"東京都文京区小石川5-27-7","lat":35.718614,"lon":139.741553},{"name":"本郷保育園","province":"東京都","city":"文京区","address":"東京都文京区本郷1-28-12","lat":35.70644,"lon":139.756699999999},{"name":"本駒込西保育園","province":"東京都","city":"文京区","address":"東京都文京区本駒込2-9-16","lat":35.7276159999999,"lon":139.74753},{"name":"本駒込保育園","province":"東京都","city":"文京区","address":"東京都文京区本駒込5-63-2","lat":35.733842,"lon":139.752436999999},{"name":"本駒込南保育園","province":"東京都","city":"文京区","address":"東京都文京区本駒込3-11-14","lat":35.727715,"lon":139.755128},{"name":"向丘保育園","province":"東京都","city":"文京区","address":"東京都文京区向丘1-3-11","lat":35.7174869999999,"lon":139.756614},{"name":"目白台保育園","province":"東京都","city":"文京区","address":"東京都文京区目白台1-5-1","lat":35.7138309999999,"lon":139.720661},{"name":"保健サービスセンター\n本郷支所","province":"東京都","city":"文京区","address":"東京都文京区千駄木5丁目20-18","lat":35.72709628,"lon":139.76017919},{"name":"肥後細川庭園","province":"東京都","city":"文京区","address":"東京都文京区目白台1-1-22","lat":35.71313,"lon":139.721985},{"name":"豊川浴泉","province":"東京都","city":"文京区","address":"東京都文京区目白台1丁目13-1","lat":35.71446301,"lon":139.71767476},{"name":"富士見湯","province":"東京都","city":"文京区","address":"東京都文京区白山1丁目3-5","lat":35.71559439,"lon":139.75324938},{"name":"ふくの湯","province":"東京都","city":"文京区","address":"東京都文京区千駄木5丁目41-5","lat":35.7280988,"lon":139.75677383},{"name":"音羽育成室","province":"","city":"","address":"目白台3-4-14","lat":35.716464,"lon":139.727714},{"name":"保坂病児保育ルーム","province":"","city":"","address":"白山5-27-12","lat":35.724511,"lon":139.750096},{"name":"順天堂病後児保育ルーム\n「みつばち」","province":"","city":"","address":"本郷1-1-9","lat":35.702404,"lon":139.75802},{"name":"こもれびの郷","province":"東京都","city":"あきる野市","address":"東京都あきる野市雨間385-2","lat":35.72612827,"lon":139.2898441},{"name":"多摩川幼稚園","province":"東京都","city":"あきる野市","address":"東京都あきる野市雨間430","lat":35.72451742,"lon":139.29158566},{"name":"萩野センター","province":"東京都","city":"あきる野市","address":"東京都あきる野市雨間533","lat":35.72548684,"lon":139.29407707},{"name":"リーガルキャブ","province":"東京都","city":"あきる野市","address":"東京都あきる野市雨間582-5","lat":35.72699499,"lon":139.29399092},{"name":"南秋留児童館","province":"東京都","city":"あきる野市","address":"東京都あきる野市雨間801-2","lat":35.72073733,"lon":139.29209127},{"name":"南秋留小学校","province":"東京都","city":"あきる野市","address":"東京都あきる野市雨間810","lat":35.72095677,"lon":139.2927551},{"name":"鳥居場会館","province":"東京都","city":"あきる野市","address":"東京都あきる野市雨間1067-6","lat":35.72025986,"lon":139.29814354},{"name":"よつぎ第一保育園","province":"東京都","city":"あきる野市","address":"東京都あきる野市雨間1946","lat":35.71662667,"lon":139.29149979},{"name":"いきいきセンター","province":"東京都","city":"あきる野市","address":"東京都あきる野市雨間1946","lat":35.71662667,"lon":139.29149979},{"name":"東部図書館エル","province":"東京都","city":"あきる野市","address":"東京都あきる野市野辺39-27","lat":35.72519596,"lon":139.31565029},{"name":"前田小学校","province":"東京都","city":"あきる野市","address":"東京都あきる野市野辺92","lat":35.72350726,"lon":139.31466709},{"name":"前田児童館","province":"東京都","city":"あきる野市","address":"東京都あきる野市野辺126-4","lat":35.72310174,"lon":139.31365607},{"name":"東秋留駅","province":"東京都","city":"あきる野市","address":"東京都あきる野市野辺458","lat":35.7260735,"lon":139.31132281},{"name":"よつぎっ子えん東","province":"東京都","city":"あきる野市","address":"東京都あきる野市野辺462-17","lat":35.72635123,"lon":139.31077285},{"name":"リハビリデイサービス陽だまり村","province":"東京都","city":"あきる野市","address":"東京都あきる野市野辺578-1","lat":35.72392646,"lon":139.3080176},{"name":"東秋留保育園","province":"東京都","city":"あきる野市","address":"東京都あきる野市野辺1104","lat":35.72422906,"lon":139.30478453},{"name":"東秋留小学校","province":"東京都","city":"あきる野市","address":"東京都あきる野市野辺1123","lat":35.7243763,"lon":139.30554834},{"name":"若竹児童館","province":"東京都","city":"あきる野市","address":"東京都あきる野市野辺1123","lat":35.7243763,"lon":139.30554834},{"name":"野辺駐在所","province":"東京都","city":"あきる野市","address":"東京都あきる野市野辺1140","lat":35.72378475,"lon":139.30664826},{"name":"小川駐在所","province":"東京都","city":"あきる野市","address":"東京都あきる野市小川821-1","lat":35.7204272,"lon":139.31809193},{"name":"秋川ふれあいランド","province":"東京都","city":"あきる野市","address":"東京都あきる野市小川1343-101","lat":35.71683319,"lon":139.31693658},{"name":"日本アルミット（株）第一研究所","province":"東京都","city":"あきる野市","address":"東京都あきる野市小川東1丁目2-15","lat":35.71746943,"lon":139.32618864},{"name":"岡部製作所","province":"東京都","city":"あきる野市","address":"東京都あきる野市小川東1丁目2-20","lat":35.71682229,"lon":139.32607756},{"name":"星野小児科内科クリニック","province":"東京都","city":"あきる野市","address":"東京都あきる野市小川東1丁目19-20","lat":35.7183915,"lon":139.32492203},{"name":"日本アルミット（株）マイクロ接合研究所","province":"東京都","city":"あきる野市","address":"東京都あきる野市小川東1丁目23-14","lat":35.71603903,"lon":139.32490545},{"name":"玉見会館","province":"東京都","city":"あきる野市","address":"東京都あきる野市小川東2丁目9-8","lat":35.71923298,"lon":139.32099453},{"name":"ほうりんじ幼稚園","province":"東京都","city":"あきる野市","address":"東京都あきる野市小川東2丁目12-24","lat":35.71959678,"lon":139.31920021},{"name":"秋多中学校","province":"東京都","city":"あきる野市","address":"東京都あきる野市二宮334","lat":35.73098894,"lon":139.2937797},{"name":"あきる野市役所","province":"東京都","city":"あきる野市","address":"東京都あきる野市二宮350","lat":35.72920304,"lon":139.29349922},{"name":"秋留台学童クラブ","province":"東京都","city":"あきる野市","address":"東京都あきる野市二宮350","lat":35.72920304,"lon":139.29349922},{"name":"秋川健康会館","province":"東京都","city":"あきる野市","address":"東京都あきる野市二宮670","lat":35.72939777,"lon":139.30240956},{"name":"中央公民館","province":"東京都","city":"あきる野市","address":"東京都あきる野市二宮683","lat":35.73040042,"lon":139.30224009},{"name":"秋川体育館","province":"東京都","city":"あきる野市","address":"東京都あきる野市二宮683","lat":35.73040042,"lon":139.30224009},{"name":"秋川ファーマーズセンター","province":"東京都","city":"あきる野市","address":"東京都あきる野市二宮811","lat":35.72858971,"lon":139.30769802},{"name":"二宮地区会館","province":"東京都","city":"あきる野市","address":"東京都あきる野市二宮1151","lat":35.72737339,"lon":139.31347539},{"name":"二宮考古館","province":"東京都","city":"あきる野市","address":"東京都あきる野市二宮1151","lat":35.72737339,"lon":139.31347539},{"name":"二宮駐在所","province":"東京都","city":"あきる野市","address":"東京都あきる野市二宮2213","lat":35.72754851,"lon":139.3182278},{"name":"総合グラウンド（クラブハウス）","province":"東京都","city":"あきる野市","address":"東京都あきる野市二宮東1丁目11-2","lat":35.72458236,"lon":139.3234164},{"name":"屋城小学校","province":"東京都","city":"あきる野市","address":"東京都あきる野市二宮東1丁目12-1","lat":35.72389077,"lon":139.32312477},{"name":"屋城保育園","province":"東京都","city":"あきる野市","address":"東京都あきる野市二宮東1丁目12-9","lat":35.72401852,"lon":139.32260536},{"name":"屋城児童館（屋城学童クラブ）","province":"東京都","city":"あきる野市","address":"東京都あきる野市二宮東1丁目13-1","lat":35.72405185,"lon":139.32227761},{"name":"旧秋川図書館","province":"東京都","city":"あきる野市","address":"東京都あきる野市平沢32","lat":35.73062793,"lon":139.29530735},{"name":"秋川ふれあいセンター","province":"東京都","city":"あきる野市","address":"東京都あきる野市平沢175-4","lat":35.73252514,"lon":139.30191504},{"name":"東中学校","province":"東京都","city":"あきる野市","address":"東京都あきる野市平沢200","lat":35.73230853,"lon":139.3027872},{"name":"農業会館","province":"東京都","city":"あきる野市","address":"東京都あきる野市平沢300-2","lat":35.7318338,"lon":139.30920334},{"name":"草花台会館","province":"東京都","city":"あきる野市","address":"東京都あきる野市草花1327-1","lat":35.73627782,"lon":139.3139306},{"name":"草花苑","province":"東京都","city":"あきる野市","address":"東京都あきる野市草花1980","lat":35.7504954,"lon":139.30930269},{"name":"麦久保園","province":"東京都","city":"あきる野市","address":"東京都あきる野市草花2219","lat":35.74921769,"lon":139.30680295},{"name":"立川国際カントリークラブ","province":"東京都","city":"あきる野市","address":"東京都あきる野市草花2390","lat":35.75056749,"lon":139.30485031},{"name":"多西児童館","province":"東京都","city":"あきる野市","address":"東京都あきる野市草花2572","lat":35.74313209,"lon":139.29924825},{"name":"多西小学校","province":"東京都","city":"あきる野市","address":"東京都あきる野市草花2885","lat":35.74205169,"lon":139.30020376},{"name":"草花保育園","province":"東京都","city":"あきる野市","address":"東京都あきる野市草花3056","lat":35.73918824,"lon":139.30327026},{"name":"くさばな幼稚園","province":"東京都","city":"あきる野市","address":"東京都あきる野市草花3060","lat":35.73906327,"lon":139.30409796},{"name":"草花駐在所","province":"東京都","city":"あきる野市","address":"東京都あきる野市草花3062","lat":35.73882165,"lon":139.30426462},{"name":"老人保健施設さくら","province":"東京都","city":"あきる野市","address":"東京都あきる野市草花3079-5","lat":35.73781346,"lon":139.30490905},{"name":"草花小学校","province":"東京都","city":"あきる野市","address":"東京都あきる野市草花3130","lat":35.73606368,"lon":139.30494522},{"name":"草花児童センター（草花学童クラブ）","province":"東京都","city":"あきる野市","address":"東京都あきる野市草花3130","lat":35.73606368,"lon":139.30494522},{"name":"御堂中学校","province":"東京都","city":"あきる野市","address":"東京都あきる野市草花3322","lat":35.74091283,"lon":139.29623471},{"name":"御堂会館","province":"東京都","city":"あきる野市","address":"東京都あきる野市草花3482-16","lat":35.73892986,"lon":139.30037329},{"name":"菅生交流会館","province":"東京都","city":"あきる野市","address":"東京都あきる野市菅生582","lat":35.74384564,"lon":139.289488},{"name":"西多摩霊園管理事務所","province":"東京都","city":"あきる野市","address":"東京都あきる野市菅生716","lat":35.74685362,"lon":139.28909905},{"name":"菅生駐在所","province":"東京都","city":"あきる野市","address":"東京都あきる野市菅生733","lat":35.74761465,"lon":139.28968231},{"name":"和敬園","province":"東京都","city":"あきる野市","address":"東京都あきる野市菅生1159","lat":35.75077811,"lon":139.28644361},{"name":"松楓園コスモホーム","province":"東京都","city":"あきる野市","address":"東京都あきる野市菅生1159","lat":35.75077811,"lon":139.28644361},{"name":"東海大学菅生中学校","province":"東京都","city":"あきる野市","address":"東京都あきる野市菅生1468","lat":35.7561553,"lon":139.28712116},{"name":"菅生学園初等学校","province":"東京都","city":"あきる野市","address":"東京都あきる野市菅生1468","lat":35.7561553,"lon":139.28712116},{"name":"東海大学菅生高等学校","province":"東京都","city":"あきる野市","address":"東京都あきる野市菅生1817","lat":35.75682999,"lon":139.27777198},{"name":"長接骨院","province":"東京都","city":"あきる野市","address":"東京都あきる野市瀬戸岡146-1","lat":35.73579383,"lon":139.29036874},{"name":"特別養護老人ホーム南聖園","province":"東京都","city":"あきる野市","address":"東京都あきる野市瀬戸岡305-1","lat":35.73516598,"lon":139.28578863},{"name":"神明保育園","province":"東京都","city":"あきる野市","address":"東京都あきる野市瀬戸岡446","lat":35.7380935,"lon":139.2883994},{"name":"秋川あすなろ保育園","province":"東京都","city":"あきる野市","address":"東京都あきる野市原小宮2丁目6-6","lat":35.7340055,"lon":139.30160391},{"name":"秋川あすなろ保育園　赤ちゃんの家","province":"東京都","city":"あきる野市","address":"東京都あきる野市原小宮2丁目8-10","lat":35.73403884,"lon":139.30208442},{"name":"あきる野市民プール","province":"東京都","city":"あきる野市","address":"東京都あきる野市原小宮353","lat":35.73730502,"lon":139.29895402},{"name":"あきる野市民球場","province":"東京都","city":"あきる野市","address":"東京都あきる野市原小宮353","lat":35.73730502,"lon":139.29895402},{"name":"武蔵引田駅","province":"東京都","city":"あきる野市","address":"東京都あきる野市引田16","lat":35.72983836,"lon":139.2702014},{"name":"公立阿伎留医療センター","province":"東京都","city":"あきる野市","address":"東京都あきる野市引田78","lat":35.73181875,"lon":139.27214005},{"name":"秋川流域病児・病後児保育室ぬくもり","province":"東京都","city":"あきる野市","address":"東京都あきる野市引田79-1","lat":35.73310194,"lon":139.2725122},{"name":"秋川文化幼稚園","province":"東京都","city":"あきる野市","address":"東京都あきる野市引田388","lat":35.72656365,"lon":139.26826277},{"name":"楓ヶ原会館","province":"東京都","city":"あきる野市","address":"東京都あきる野市引田512-2","lat":35.72385008,"lon":139.26849891},{"name":"リバーサイドパーク一の谷","province":"東京都","city":"あきる野市","address":"東京都あきる野市引田776","lat":35.71849229,"lon":139.26700472},{"name":"一の谷児童館","province":"東京都","city":"あきる野市","address":"東京都あきる野市引田928","lat":35.72010334,"lon":139.27095989},{"name":"一の谷小学校","province":"東京都","city":"あきる野市","address":"東京都あきる野市引田980","lat":35.72024503,"lon":139.27191536},{"name":"老人保健施設 リハビリパークあきる野","province":"東京都","city":"あきる野市","address":"東京都あきる野市渕上1","lat":35.73284646,"lon":139.27380652},{"name":"渕上駐在所","province":"東京都","city":"あきる野市","address":"東京都あきる野市渕上196-1","lat":35.72568893,"lon":139.27370398},{"name":"開戸センター","province":"東京都","city":"あきる野市","address":"東京都あきる野市渕上332-1","lat":35.72260594,"lon":139.27377071},{"name":"西多摩療育支援センター","province":"東京都","city":"あきる野市","address":"東京都あきる野市上代継84-6","lat":35.73041076,"lon":139.27823952},{"name":"あきる野学園","province":"東京都","city":"あきる野市","address":"東京都あきる野市上代継123","lat":35.7306579,"lon":139.27656467},{"name":"西中学校","province":"東京都","city":"あきる野市","address":"東京都あきる野市上代継190","lat":35.72992747,"lon":139.27797845},{"name":"よつぎ第二保育園","province":"東京都","city":"あきる野市","address":"東京都あきる野市上代継218-1","lat":35.72758332,"lon":139.27900065},{"name":"西秋留小学校","province":"東京都","city":"あきる野市","address":"東京都あきる野市上代継292","lat":35.72354481,"lon":139.27651486},{"name":"西秋留保育園","province":"東京都","city":"あきる野市","address":"東京都あきる野市上代継300","lat":35.72289767,"lon":139.27711205},{"name":"若葉児童館","province":"東京都","city":"あきる野市","address":"東京都あきる野市上代継303-5","lat":35.7231421,"lon":139.27767587},{"name":"千代里会館","province":"東京都","city":"あきる野市","address":"東京都あきる野市上代継424","lat":35.72081181,"lon":139.27772037},{"name":"東京サマーランド","province":"東京都","city":"あきる野市","address":"東京都あきる野市上代継600","lat":35.71721174,"lon":139.26170243},{"name":"代継会館","province":"東京都","city":"あきる野市","address":"東京都あきる野市上代継693-1","lat":35.71885099,"lon":139.28021463},{"name":"奥村整形外科","province":"東京都","city":"あきる野市","address":"東京都あきる野市下代継19-1","lat":35.72360886,"lon":139.28253374},{"name":"秋川駅","province":"東京都","city":"あきる野市","address":"東京都あきる野市油平49","lat":35.72806682,"lon":139.28666934},{"name":"秋川駅前交番","province":"東京都","city":"あきる野市","address":"東京都あきる野市油平61-2","lat":35.72810018,"lon":139.28724984},{"name":"油平クラブハウス","province":"東京都","city":"あきる野市","address":"東京都あきる野市油平92-7","lat":35.7266198,"lon":139.28753597},{"name":"油平駐在所","province":"東京都","city":"あきる野市","address":"東京都あきる野市油平240-4","lat":35.72250637,"lon":139.28705001},{"name":"池田歯科医院","province":"東京都","city":"あきる野市","address":"東京都あきる野市油平263-1","lat":35.72258686,"lon":139.28550292},{"name":"あきる野とうきゅう","province":"東京都","city":"あきる野市","address":"東京都あきる野市秋川1丁目17-1","lat":35.73073043,"lon":139.28730808},{"name":"あきる野ルピア","province":"東京都","city":"あきる野市","address":"東京都あきる野市秋川1丁目8","lat":35.73015271,"lon":139.28710256},{"name":"子育てひろば　るぴああきる野っ子","province":"東京都","city":"あきる野市","address":"東京都あきる野市秋川1丁目8","lat":35.73015271,"lon":139.28710256},{"name":"子ども家庭支援センター","province":"東京都","city":"あきる野市","address":"東京都あきる野市秋川1丁目8","lat":35.73015271,"lon":139.28710256},{"name":"秋川キララホール","province":"東京都","city":"あきる野市","address":"東京都あきる野市秋川1丁目16-1","lat":35.73102765,"lon":139.2882802},{"name":"中央図書館","province":"東京都","city":"あきる野市","address":"東京都あきる野市秋川1丁目16-2","lat":35.73070826,"lon":139.28873295},{"name":"佐藤内科循環器クリニック","province":"東京都","city":"あきる野市","address":"東京都あきる野市秋川2丁目5-1","lat":35.72867227,"lon":139.28537222},{"name":"よつぎっ子えん西","province":"東京都","city":"あきる野市","address":"東京都あきる野市秋川2丁目7-4","lat":35.72927779,"lon":139.28651654},{"name":"東京都水道局あきる野SS","province":"東京都","city":"あきる野市","address":"東京都あきる野市秋川3丁目2-10","lat":35.73175243,"lon":139.28428611},{"name":"あきる野こどもの家","province":"東京都","city":"あきる野市","address":"東京都あきる野市秋川3丁目7-9","lat":35.73347447,"lon":139.2844527},{"name":"あきる野保健相談所","province":"東京都","city":"あきる野市","address":"東京都あきる野市秋川6丁目1-2","lat":35.72883906,"lon":139.28981625},{"name":"青梅信用金庫秋川支店","province":"東京都","city":"あきる野市","address":"東京都あきる野市秋川6丁目2-2","lat":35.72885301,"lon":139.29140499},{"name":"すもも木幼稚園","province":"東京都","city":"あきる野市","address":"東京都あきる野市秋川6丁目17-10","lat":35.73140272,"lon":139.29180487},{"name":"山田グラウンド管理事務所","province":"東京都","city":"あきる野市","address":"東京都あきる野市山田1-1","lat":35.72257487,"lon":139.25772755},{"name":"誠和保育園","province":"東京都","city":"あきる野市","address":"東京都あきる野市山田880","lat":35.72571619,"lon":139.25969956},{"name":"秋川幼稚園","province":"東京都","city":"あきる野市","address":"東京都あきる野市山田951","lat":35.72548285,"lon":139.25708032},{"name":"福楽園","province":"東京都","city":"あきる野市","address":"東京都あきる野市網代326-1","lat":35.71981401,"lon":139.25453895},{"name":"五日市カントリークラブ","province":"東京都","city":"あきる野市","address":"東京都あきる野市網代745","lat":35.71640895,"lon":139.25022007},{"name":"介護老人保健施設 オキドキ","province":"東京都","city":"あきる野市","address":"東京都あきる野市伊奈477-1","lat":35.73317083,"lon":139.25510813},{"name":"五日市ファインプラザ","province":"東京都","city":"あきる野市","address":"東京都あきる野市伊奈859-3","lat":35.72931573,"lon":139.25543038},{"name":"武蔵増戸駅","province":"東京都","city":"あきる野市","address":"東京都あきる野市伊奈873-2","lat":35.73084889,"lon":139.2559081},{"name":"増戸第１学童クラブ","province":"東京都","city":"あきる野市","address":"東京都あきる野市伊奈1157-5","lat":35.72745755,"lon":139.2475644},{"name":"増戸第２学童クラブ","province":"東京都","city":"あきる野市","address":"東京都あきる野市伊奈1157-5","lat":35.72745755,"lon":139.2475644},{"name":"五日市児童館増戸分館","province":"東京都","city":"あきる野市","address":"東京都あきる野市伊奈1173","lat":35.72802139,"lon":139.24781992},{"name":"増戸小学校","province":"東京都","city":"あきる野市","address":"東京都あきる野市伊奈1173","lat":35.72802139,"lon":139.24781992},{"name":"増戸中学校","province":"東京都","city":"あきる野市","address":"東京都あきる野市伊奈1181","lat":35.72824082,"lon":139.24969477},{"name":"伊奈駐在所","province":"東京都","city":"あきる野市","address":"東京都あきる野市伊奈1569","lat":35.72911314,"lon":139.24386752},{"name":"増戸保育園","province":"東京都","city":"あきる野市","address":"東京都あきる野市横沢134","lat":35.73234627,"lon":139.24147323},{"name":"金木犀の里","province":"東京都","city":"あきる野市","address":"東京都あきる野市三内489-1","lat":35.73712733,"lon":139.22924056},{"name":"五日市わかば保育園","province":"東京都","city":"あきる野市","address":"東京都あきる野市五日市98","lat":35.72882874,"lon":139.22475854},{"name":"五日市小学校","province":"東京都","city":"あきる野市","address":"東京都あきる野市五日市315","lat":35.73196474,"lon":139.22198905},{"name":"五日市児童館","province":"東京都","city":"あきる野市","address":"東京都あきる野市五日市315","lat":35.73196474,"lon":139.22198905},{"name":"五日市第１学童クラブ","province":"東京都","city":"あきる野市","address":"東京都あきる野市五日市315","lat":35.73196474,"lon":139.22198905},{"name":"五日市保育園","province":"東京都","city":"あきる野市","address":"東京都あきる野市五日市345","lat":35.73107857,"lon":139.22373341},{"name":"五日市図書館","province":"東京都","city":"あきる野市","address":"東京都あきる野市五日市368","lat":35.7298483,"lon":139.22226706},{"name":"希望の家","province":"東京都","city":"あきる野市","address":"東京都あきる野市五日市374-5","lat":35.72993987,"lon":139.2231475},{"name":"五日市中学校","province":"東京都","city":"あきる野市","address":"東京都あきる野市五日市400","lat":35.73035666,"lon":139.22102828},{"name":"あきる野市役所五日市出張所","province":"東京都","city":"あきる野市","address":"東京都あきる野市五日市411","lat":35.7294124,"lon":139.21998132},{"name":"五日市会館","province":"東京都","city":"あきる野市","address":"東京都あきる野市五日市412","lat":35.72977901,"lon":139.22012015},{"name":"五日市保健センター","province":"東京都","city":"あきる野市","address":"東京都あきる野市五日市414-5","lat":35.72967629,"lon":139.21948692},{"name":"子育てひろば　いつかいち","province":"東京都","city":"あきる野市","address":"東京都あきる野市五日市414-5","lat":35.72967629,"lon":139.21948692},{"name":"五日市第２学童クラブ","province":"東京都","city":"あきる野市","address":"東京都あきる野市五日市414-5","lat":35.72967629,"lon":139.21948692},{"name":"五日市警察署","province":"東京都","city":"あきる野市","address":"東京都あきる野市五日市888-7","lat":35.72795443,"lon":139.21681533},{"name":"五日市郷土館","province":"東京都","city":"あきる野市","address":"東京都あきる野市五日市920-1","lat":35.72842936,"lon":139.2169819},{"name":"黒茶屋","province":"東京都","city":"あきる野市","address":"東京都あきる野市小中野167","lat":35.72551071,"lon":139.20979446},{"name":"小和田グラウンド休憩所","province":"東京都","city":"あきる野市","address":"東京都あきる野市小和田8","lat":35.72234618,"lon":139.22531468},{"name":"第二紫水園","province":"東京都","city":"あきる野市","address":"東京都あきる野市小和田15-4","lat":35.72192404,"lon":139.22494533},{"name":"小和田会館","province":"東京都","city":"あきる野市","address":"東京都あきる野市小和田180-2","lat":35.72424918,"lon":139.21937368},{"name":"光明第六保育園","province":"東京都","city":"あきる野市","address":"東京都あきる野市留原50","lat":35.72325078,"lon":139.23451052},{"name":"留原駐在所","province":"東京都","city":"あきる野市","address":"東京都あきる野市留原266-2","lat":35.72273996,"lon":139.23191371},{"name":"紫水園","province":"東京都","city":"あきる野市","address":"東京都あきる野市留原396","lat":35.72017397,"lon":139.22823946},{"name":"秋川橋河川公園","province":"東京都","city":"あきる野市","address":"東京都あきる野市留原814","lat":35.72866739,"lon":139.22752211},{"name":"あたご苑ケアハウス","province":"東京都","city":"あきる野市","address":"東京都あきる野市入野599-1","lat":35.73609484,"lon":139.22158581},{"name":"特別養護老人ホーム　あたご苑","province":"東京都","city":"あきる野市","address":"東京都あきる野市入野811","lat":35.73625042,"lon":139.22091921},{"name":"戸倉しろやまテラス","province":"東京都","city":"あきる野市","address":"東京都あきる野市戸倉325","lat":35.72588857,"lon":139.20371761},{"name":"戸倉駐在所","province":"東京都","city":"あきる野市","address":"東京都あきる野市戸倉728-7","lat":35.73026313,"lon":139.20103967},{"name":"すぎの子保育園","province":"東京都","city":"あきる野市","address":"東京都あきる野市戸倉783","lat":35.73120752,"lon":139.19799828},{"name":"小宮駐在所","province":"東京都","city":"あきる野市","address":"東京都あきる野市乙津488-1","lat":35.73083462,"lon":139.18347957},{"name":"瀬音の湯","province":"東京都","city":"あきる野市","address":"東京都あきる野市乙津565","lat":35.7271631,"lon":139.18783828},{"name":"小宮ふるさと自然体験学校","province":"東京都","city":"あきる野市","address":"東京都あきる野市乙津1984","lat":35.73410089,"lon":139.18336243},{"name":"小宮会館","province":"東京都","city":"あきる野市","address":"東京都あきる野市乙津1997","lat":35.73357312,"lon":139.18294865},{"name":"武蔵五日市駅","province":"東京都","city":"あきる野市","address":"東京都あきる野市舘谷台16","lat":35.73236411,"lon":139.22816056},{"name":"五日市センター","province":"東京都","city":"あきる野市","address":"東京都あきる野市舘谷台17","lat":35.73198368,"lon":139.22732736},{"name":"五日市駅前交番","province":"東京都","city":"あきる野市","address":"東京都あきる野市舘谷台26","lat":35.73238903,"lon":139.22894104},{"name":"横河マニファクチャリング株式会社","province":"東京都","city":"あきる野市","address":"東京都あきる野市小峰台2","lat":35.72061506,"lon":139.23390247},{"name":"市役所 本庁舎1階 総合受付横","province":"東京都","city":"東村山市","address":"東京都東村山市本町1丁目2-3","lat":35.75418,"lon":139.468301},{"name":"市役所 いきいきプラザ1階 総合窓口横","province":"東京都","city":"東村山市","address":"東京都東村山市本町1丁目2-3","lat":35.75418,"lon":139.468301},{"name":"市民センター1階 入口付近","province":"東京都","city":"東村山市","address":"東京都東村山市本町1丁目1-1","lat":35.755291,"lon":139.46753},{"name":"東村山駅西口サンパルネ3階 健康・交流フロア","province":"東京都","city":"東村山市","address":"東京都東村山市野口町1丁目46","lat":35.759997,"lon":139.465323},{"name":"秋水園ふれあいセンター","province":"東京都","city":"東村山市","address":"東京都東村山市秋津町4丁目24-12","lat":35.77929,"lon":139.485947},{"name":"多摩湖ふれあいセンター","province":"東京都","city":"東村山市","address":"東京都東村山市多摩湖町1丁目18-16","lat":35.764064,"lon":139.449143},{"name":"恩多ふれあいセンター","province":"東京都","city":"東村山市","address":"東京都東村山市恩多町5丁目40-1","lat":35.757291,"lon":139.490009},{"name":"栄町ふれあいセンター","province":"東京都","city":"東村山市","address":"東京都東村山市栄町2丁目25-5","lat":35.747752,"lon":139.47242},{"name":"久米川ふれあいセンター","province":"東京都","city":"東村山市","address":"東京都東村山市久米川町3丁目16-4","lat":35.766096,"lon":139.474206},{"name":"青葉地域センター","province":"東京都","city":"東村山市","address":"東京都東村山市青葉町3丁目30-3","lat":35.76921,"lon":139.496263},{"name":"秋水園","province":"東京都","city":"東村山市","address":"東京都東村山市秋津町4丁目17-1","lat":35.779668,"lon":139.485337},{"name":"秋水園プール （注記）プール開放期間のみ","province":"東京都","city":"東村山市","address":"東京都東村山市秋津町4丁目17-1","lat":35.779668,"lon":139.485337},{"name":"東村山駅西口地下駐輪場","province":"東京都","city":"東村山市","address":"東京都東村山市野口町1丁目41","lat":35.761558,"lon":139.464132},{"name":"久米川駅北口地下駐輪場","province":"東京都","city":"東村山市","address":"東京都東村山市栄町1丁目3-1","lat":35.750106,"lon":139.473008},{"name":"子育て総合支援センター（地域福祉センター）","province":"東京都","city":"東村山市","address":"東京都東村山市野口町1丁目25-15","lat":35.758257,"lon":139.464253},{"name":"社会福祉センター","province":"東京都","city":"東村山市","address":"東京都東村山市諏訪町1丁目3-10","lat":35.765483,"lon":139.466712},{"name":"萩山憩いの家","province":"東京都","city":"東村山市","address":"東京都東村山市萩山町2丁目3-11","lat":35.742364,"lon":139.475627},{"name":"久米川憩いの家","province":"東京都","city":"東村山市","address":"東京都東村山市久米川町5丁目16-1","lat":35.771689,"lon":139.471999},{"name":"廻田憩いの家（第一回田児童クラブ、廻田集会所）","province":"東京都","city":"東村山市","address":"東京都東村山市廻田町3丁目12-6","lat":35.757549,"lon":139.447586},{"name":"第一保育園","province":"東京都","city":"東村山市","address":"東京都東村山市本町4丁目15-16","lat":35.75338,"lon":139.473389},{"name":"第三保育園","province":"東京都","city":"東村山市","address":"東京都東村山市多摩湖町1丁目23-4","lat":35.763727,"lon":139.452163},{"name":"第四保育園","province":"東京都","city":"東村山市","address":"東京都東村山市美住町1丁目4","lat":35.75007,"lon":139.462908},{"name":"第五保育園","province":"東京都","city":"東村山市","address":"東京都東村山市秋津町4丁目25-15","lat":35.779294,"lon":139.485108},{"name":"第七保育園","province":"東京都","city":"東村山市","address":"東京都東村山市栄町1丁目36-51","lat":35.752516,"lon":139.477233},{"name":"本町児童館","province":"東京都","city":"東村山市","address":"東京都東村山市本町4丁目19-26","lat":35.753746,"lon":139.474797},{"name":"栄町児童館","province":"東京都","city":"東村山市","address":"東京都東村山市栄町3丁目14-1","lat":35.74663,"lon":139.469211},{"name":"北山児童館","province":"東京都","city":"東村山市","address":"東京都東村山市野口町3丁目26-2","lat":35.765104,"lon":139.453386},{"name":"秋津児童館","province":"東京都","city":"東村山市","address":"東京都東村山市秋津町3丁目51-25","lat":35.773334,"lon":139.483478},{"name":"第1久米川児童クラブ","province":"東京都","city":"東村山市","address":"東京都東村山市久米川町4丁目11-19","lat":35.761767,"lon":139.473034},{"name":"久米川東児童クラブ","province":"東京都","city":"東村山市","address":"東京都東村山市久米川町2丁目44-3","lat":35.766236,"lon":139.481497},{"name":"第1・第2秋津東児童クラブ","province":"東京都","city":"東村山市","address":"東京都東村山市秋津町4丁目35-68","lat":35.774677,"lon":139.489323},{"name":"第1・第2青葉児童クラブ","province":"東京都","city":"東村山市","address":"東京都東村山市青葉町2丁目35-11","lat":35.764264,"lon":139.488665},{"name":"第1野火止児童クラブ","province":"東京都","city":"東村山市","address":"東京都東村山市恩多町5丁目45-4","lat":35.756596,"lon":139.48673},{"name":"第1東萩山児童クラブ","province":"東京都","city":"東村山市","address":"東京都東村山市萩山町5丁目7-18","lat":35.746268,"lon":139.477317},{"name":"第1・第2萩山児童クラブ","province":"東京都","city":"東村山市","address":"東京都東村山市萩山町4丁目16-5","lat":35.743035,"lon":139.478656},{"name":"富士見児童クラブ","province":"東京都","city":"東村山市","address":"東京都東村山市富士見町5丁目4-56","lat":35.747287,"lon":139.457986},{"name":"南台児童クラブ","province":"東京都","city":"東村山市","address":"東京都東村山市富士見町1丁目16-1","lat":35.744493,"lon":139.456483},{"name":"第1化成児童クラブ","province":"東京都","city":"東村山市","address":"東京都東村山市諏訪町1丁目4-1","lat":35.764986,"lon":139.465841},{"name":"美住リサイクルショップ","province":"東京都","city":"東村山市","address":"東京都東村山市美住町2丁目11-32","lat":35.757021,"lon":139.461892},{"name":"中央公民館","province":"東京都","city":"東村山市","address":"東京都東村山市本町2丁目33-2","lat":35.759786,"lon":139.466863},{"name":"富士見公民館（富士見児童館、富士見憩いの家）","province":"東京都","city":"東村山市","address":"東京都東村山市富士見町5丁目4-51","lat":35.746615,"lon":139.462885},{"name":"萩山公民館（萩山図書館）","province":"東京都","city":"東村山市","address":"東京都東村山市萩山町2丁目13-1","lat":35.741586,"lon":139.478676},{"name":"秋津公民館（秋津図書館）","province":"東京都","city":"東村山市","address":"東京都東村山市秋津町2丁目17-10","lat":35.771015,"lon":139.486598},{"name":"廻田公民館（廻田図書館）","province":"東京都","city":"東村山市","address":"東京都東村山市廻田町4丁目19-1","lat":35.759623,"lon":139.452093},{"name":"中央図書館","province":"東京都","city":"東村山市","address":"東京都東村山市本町1丁目1-10","lat":35.755239,"lon":139.468209},{"name":"富士見図書館","province":"東京都","city":"東村山市","address":"東京都東村山市富士見町1丁目7-35","lat":35.744004,"lon":139.461263},{"name":"市民スポーツセンター","province":"東京都","city":"東村山市","address":"東京都東村山市久米川町3丁目30-5","lat":35.761085,"lon":139.479636},{"name":"運動公園管理事務所","province":"東京都","city":"東村山市","address":"東京都東村山市恩多町1丁目51-1","lat":35.754234,"lon":139.489705},{"name":"ふるさと歴史館","province":"東京都","city":"東村山市","address":"東京都東村山市諏訪町1丁目6-3","lat":35.766268,"lon":139.466058},{"name":"八国山たいけんの里","province":"東京都","city":"東村山市","address":"東京都東村山市野口町3丁目48-1","lat":35.766135,"lon":139.454245},{"name":"東村山市シルバー人材センター","province":"東京都","city":"東村山市","address":"東京都東村山市久米川町4丁目9-19","lat":35.761612,"lon":139.469155},{"name":"化成小学校","province":"東京都","city":"東村山市","address":"東京都東村山市諏訪町1-4-1","lat":35.764986,"lon":139.465841},{"name":"回田小学校","province":"東京都","city":"東村山市","address":"東京都東村山市廻田町3-28-1","lat":35.759008,"lon":139.446259},{"name":"大岱小学校","province":"東京都","city":"東村山市","address":"東京都東村山市恩多町4-17-1","lat":35.756545,"lon":139.478064},{"name":"秋津小学校","province":"東京都","city":"東村山市","address":"東京都東村山市秋津町3-48-1","lat":35.772788,"lon":139.481994},{"name":"八坂小学校","province":"東京都","city":"東村山市","address":"東京都東村山市栄町3-34-1","lat":35.749013,"lon":139.465727},{"name":"萩山小学校","province":"東京都","city":"東村山市","address":"東京都東村山市萩山町4-16-1","lat":35.743933,"lon":139.477817},{"name":"南台小学校","province":"東京都","city":"東村山市","address":"東京都東村山市富士見町1-16-12","lat":35.74438,"lon":139.455407},{"name":"久米川小学校","province":"東京都","city":"東村山市","address":"東京都東村山市久米川町4-11-1","lat":35.762047,"lon":139.471642},{"name":"東萩山小学校","province":"東京都","city":"東村山市","address":"東京都東村山市萩山町5-7-1","lat":35.745691,"lon":139.478585},{"name":"青葉小学校","province":"東京都","city":"東村山市","address":"東京都東村山市青葉町2-33-1","lat":35.76467,"lon":139.49011},{"name":"北山小学校","province":"東京都","city":"東村山市","address":"東京都東村山市野口町3-45-1","lat":35.766343,"lon":139.455667},{"name":"秋津東小学校","province":"東京都","city":"東村山市","address":"東京都東村山市秋津町4-35-11","lat":35.774834,"lon":139.488824},{"name":"野火止小学校","province":"東京都","city":"東村山市","address":"東京都東村山市恩多町5-47-1","lat":35.75631,"lon":139.485649},{"name":"久米川東小学校","province":"東京都","city":"東村山市","address":"東京都東村山市久米川町2-40-10","lat":35.765645,"lon":139.482639},{"name":"富士見小学校","province":"東京都","city":"東村山市","address":"東京都東村山市富士見町5-4-57","lat":35.74667,"lon":139.458438},{"name":"東村山第一中学校","province":"東京都","city":"東村山市","address":"東京都東村山市富士見町1-5-2","lat":35.742164,"lon":139.459624},{"name":"東村山第二中学校","province":"東京都","city":"東村山市","address":"東京都東村山市久米川町2-4-1","lat":35.770055,"lon":139.474812},{"name":"東村山第三中学校","province":"東京都","city":"東村山市","address":"東京都東村山市萩山町5-2-1","lat":35.747922,"lon":139.476758},{"name":"東村山第三中学校萩山分校","province":"東京都","city":"東村山市","address":"東京都東村山市萩山町1-37-1","lat":35.735563,"lon":139.479658},{"name":"東村山第四中学校","province":"東京都","city":"東村山市","address":"東京都東村山市野口町3-24-1","lat":35.763999,"lon":139.453465},{"name":"東村山第五中学校","province":"東京都","city":"東村山市","address":"東京都東村山市恩多町4-38-1","lat":35.760687,"lon":139.480776},{"name":"東村山第六中学校","province":"東京都","city":"東村山市","address":"東京都東村山市秋津町2-29-14","lat":35.769799,"lon":139.48991},{"name":"東村山第七中学校","province":"東京都","city":"東村山市","address":"東京都東村山市美住町2-23-1","lat":35.755463,"lon":139.459433},{"name":"北山公園","province":"東京都","city":"東村山市","address":"東京都東村山市野口町3丁目地内、4丁目地内","lat":35.761981,"lon":139.457978},{"name":"農とみどりの体験パーク","province":"東京都","city":"東村山市","address":"東京都東村山市秋津町1-9-2","lat":35.774162,"lon":139.492967},{"name":"石神井庁舎","province":"東京都","city":"練馬区","address":"東京都練馬区石神井町3-30-26","lat":35.74337,"lon":139.60283},{"name":"練馬区職員研修所","province":"東京都","city":"練馬区","address":"東京都練馬区豊玉北5-27-2","lat":35.7344,"lon":139.65404},{"name":"防災学習センター","province":"東京都","city":"練馬区","address":"東京都練馬区光が丘6-4-1","lat":35.76021,"lon":139.62305},{"name":"男女共同参画センターえーる","province":"東京都","city":"練馬区","address":"東京都練馬区石神井町8-1-10","lat":35.74518,"lon":139.60163},{"name":"大泉区民事務所（リズモ大泉学園４階）","province":"東京都","city":"練馬区","address":"東京都練馬区東大泉1-28-1リズモ大泉学園4階","lat":35.7495,"lon":139.58717},{"name":"光が丘区民事務所（光が丘区民センター内）","province":"東京都","city":"練馬区","address":"東京都練馬区光が丘2-9-6光が丘区民センター2階","lat":35.75947,"lon":139.62986},{"name":"関区民事務所（関区民センター内）","province":"東京都","city":"練馬区","address":"東京都練馬区関町北1-7-2関区民センター1階","lat":35.72454,"lon":139.57782},{"name":"早宮区民事務所","province":"東京都","city":"練馬区","address":"東京都練馬区早宮1-44-191階","lat":35.75432,"lon":139.65905},{"name":"区民・産業プラザ（産業振興センター、区民交流ホール、区民協働交流センター）","province":"東京都","city":"練馬区","address":"東京都練馬区練馬1-17-13階・4階","lat":35.73808,"lon":139.65347},{"name":"サンライフ練馬（区立東京中高年齢労働者福祉センター）","province":"東京都","city":"練馬区","address":"東京都練馬区貫井1-36-18","lat":35.73742,"lon":139.63596},{"name":"勤労福祉会館","province":"東京都","city":"練馬区","address":"東京都練馬区東大泉5-40-36","lat":35.74822,"lon":139.5874},{"name":"石神井公園区民交流センター、消費生活センター","province":"東京都","city":"練馬区","address":"東京都練馬区石神井町2-14-1ピアレスA2階","lat":35.74432,"lon":139.60711},{"name":"関区民ホール","province":"東京都","city":"練馬区","address":"東京都練馬区関町北1-7-2関区民センター内","lat":35.72457,"lon":139.57797},{"name":"光が丘区民ホール","province":"東京都","city":"練馬区","address":"東京都練馬区光が丘2-9-6光が丘区民センター内","lat":35.75935,"lon":139.62947},{"name":"旭町北地区区民館","province":"東京都","city":"練馬区","address":"東京都練馬区旭町2-30-16","lat":35.77326,"lon":139.62881},{"name":"下石神井地区区民館","province":"東京都","city":"練馬区","address":"東京都練馬区下石神井6-8-15","lat":35.73395,"lon":139.6036},{"name":"関町北地区区民館","province":"東京都","city":"練馬区","address":"東京都練馬区関町北4-12-21","lat":35.72979,"lon":139.57708},{"name":"光が丘地区区民館","province":"東京都","city":"練馬区","address":"東京都練馬区光が丘3-9-4","lat":35.75802,"lon":139.62559},{"name":"高松地区区民館","province":"東京都","city":"練馬区","address":"東京都練馬区高松3-24-27","lat":35.75007,"lon":139.62513},{"name":"桜台地区区民館","province":"東京都","city":"練馬区","address":"東京都練馬区桜台3-39-17","lat":35.74604,"lon":139.66324},{"name":"春日町南地区区民館","province":"東京都","city":"練馬区","address":"東京都練馬区春日町5-20-25","lat":35.74772,"lon":139.63852},{"name":"西大泉地区区民館","province":"東京都","city":"練馬区","address":"東京都練馬区西大泉5-3-32","lat":35.76004,"lon":139.57254},{"name":"早宮地区区民館","province":"東京都","city":"練馬区","address":"東京都練馬区早宮4-14-5","lat":35.75081,"lon":139.65129},{"name":"大泉学園地区区民館","province":"東京都","city":"練馬区","address":"東京都練馬区大泉学園町8-9-5","lat":35.77292,"lon":139.59271},{"name":"田柄地区区民館","province":"東京都","city":"練馬区","address":"東京都練馬区田柄3-28-13","lat":35.76209,"lon":139.63724},{"name":"東大泉地区区民館","province":"東京都","city":"練馬区","address":"東京都練馬区東大泉3-53-1","lat":35.75615,"lon":139.58782},{"name":"南大泉地区区民館","province":"東京都","city":"練馬区","address":"東京都練馬区南大泉2-19-26","lat":35.73911,"lon":139.57041},{"name":"氷川台地区区民館","province":"東京都","city":"練馬区","address":"東京都練馬区氷川台2-16-14","lat":35.757,"lon":139.66731},{"name":"富士見台地区区民館","province":"東京都","city":"練馬区","address":"東京都練馬区富士見台3-10-1","lat":35.73875,"lon":139.6244},{"name":"豊玉北地区区民館","province":"東京都","city":"練馬区","address":"東京都練馬区豊玉北3-7-9","lat":35.73268,"lon":139.66139},{"name":"北大泉地区区民館","province":"東京都","city":"練馬区","address":"東京都練馬区大泉町2-41-26","lat":35.76472,"lon":139.60405},{"name":"北町第二地区区民館","province":"東京都","city":"練馬区","address":"東京都練馬区北町6-24-101","lat":35.76121,"lon":139.65548},{"name":"北町地区区民館","province":"東京都","city":"練馬区","address":"東京都練馬区北町2-26-1","lat":35.76746,"lon":139.66028},{"name":"立野地区区民館","province":"東京都","city":"練馬区","address":"東京都練馬区立野町15-42","lat":35.71854,"lon":139.58261},{"name":"小竹地域集会所","province":"東京都","city":"練馬区","address":"東京都練馬区小竹町1-63-2","lat":35.73875,"lon":139.67335},{"name":"旭丘地域集会所","province":"東京都","city":"練馬区","address":"東京都練馬区旭丘1-58-10","lat":35.73482,"lon":139.67414},{"name":"向山地域集会所","province":"東京都","city":"練馬区","address":"東京都練馬区向山4-21-12","lat":35.74353,"lon":139.63867},{"name":"中村地域集会所","province":"東京都","city":"練馬区","address":"東京都練馬区中村南2-23-12","lat":35.7298,"lon":139.64277},{"name":"三原台地域集会所","province":"東京都","city":"練馬区","address":"東京都練馬区三原台3-13-17","lat":35.75397,"lon":139.59941},{"name":"谷原地域集会所","province":"東京都","city":"練馬区","address":"東京都練馬区谷原5-6-7","lat":35.75143,"lon":139.613},{"name":"高野台地域集会所","province":"東京都","city":"練馬区","address":"東京都練馬区高野台3-28-11","lat":35.74568,"lon":139.61192},{"name":"南田中地域集会所","province":"東京都","city":"練馬区","address":"東京都練馬区南田中2-18-36","lat":35.73322,"lon":139.61682},{"name":"上石神井北地域集会所","province":"東京都","city":"練馬区","address":"東京都練馬区上石神井2-36-18","lat":35.7292,"lon":139.59233},{"name":"石神井台みどり地域集会所","province":"東京都","city":"練馬区","address":"東京都練馬区石神井台2-13-6","lat":35.73649,"lon":139.59203},{"name":"石神井台地域集会所","province":"東京都","city":"練馬区","address":"東京都練馬区石神井台4-5-14","lat":35.7317,"lon":139.58582},{"name":"関町地域集会所","province":"東京都","city":"練馬区","address":"東京都練馬区関町南4-22-1","lat":35.72137,"lon":139.56776},{"name":"大泉学園町地域集会所","province":"東京都","city":"練馬区","address":"東京都練馬区大泉学園町6-20-36","lat":35.77134,"lon":139.58323},{"name":"大泉町地域集会所","province":"東京都","city":"練馬区","address":"東京都練馬区大泉町4-35-17","lat":35.76387,"lon":139.59582},{"name":"東大泉地域集会所","province":"東京都","city":"練馬区","address":"東京都練馬区東大泉7-27-51","lat":35.74351,"lon":139.58043},{"name":"土支田地域集会所","province":"東京都","city":"練馬区","address":"東京都練馬区土支田2-40-21","lat":35.76432,"lon":139.61167},{"name":"北町地域集会所","province":"東京都","city":"練馬区","address":"東京都練馬区北町8-28-10","lat":35.76775,"lon":139.64969},{"name":"桜台地域集会所","province":"東京都","city":"練馬区","address":"東京都練馬区桜台1-22-9","lat":35.73899,"lon":139.6667},{"name":"上石神井南地域集会所","province":"東京都","city":"練馬区","address":"東京都練馬区上石神井1-6-16","lat":35.72529,"lon":139.59251},{"name":"大泉北地域集会所","province":"東京都","city":"練馬区","address":"東京都練馬区大泉学園町4-21-1","lat":35.76565,"lon":139.58843},{"name":"東大泉中央地域集会所","province":"東京都","city":"練馬区","address":"東京都練馬区東大泉3-18-9大泉区民事務所併設","lat":35.7515,"lon":139.58671},{"name":"南大泉地域集会所","province":"東京都","city":"練馬区","address":"東京都練馬区南大泉5-26-19","lat":35.75126,"lon":139.57353},{"name":"旭町地域集会所","province":"東京都","city":"練馬区","address":"東京都練馬区旭町3-11-6","lat":35.77432,"lon":139.62497},{"name":"田柄地域集会所","province":"東京都","city":"練馬区","address":"東京都練馬区田柄2-6-22","lat":35.76362,"lon":139.6449},{"name":"春日町地域集会所","province":"東京都","city":"練馬区","address":"東京都練馬区春日町5-30-1","lat":35.75054,"lon":139.6394},{"name":"土支田中央地域集会所","province":"東京都","city":"練馬区","address":"東京都練馬区土支田2-32-8","lat":35.76339,"lon":139.61379},{"name":"向山庭園","province":"東京都","city":"練馬区","address":"東京都練馬区向山3-1-21","lat":35.74212,"lon":139.64684},{"name":"練馬文化センター","province":"東京都","city":"練馬区","address":"東京都練馬区練馬1-17-37","lat":35.7394,"lon":139.6535},{"name":"練馬区立美術館","province":"東京都","city":"練馬区","address":"東京都練馬区貫井1-36-16","lat":35.73688,"lon":139.636},{"name":"大泉学園ホール","province":"東京都","city":"練馬区","address":"東京都練馬区東大泉1-29-1","lat":35.75038,"lon":139.58559},{"name":"石神井公園ふるさと文化館","province":"東京都","city":"練馬区","address":"東京都練馬区石神井町5-12-16","lat":35.73748,"lon":139.59948},{"name":"生涯学習センター","province":"東京都","city":"練馬区","address":"東京都練馬区豊玉北6-8-1","lat":35.73423,"lon":139.65201},{"name":"生涯学習センター分館","province":"東京都","city":"練馬区","address":"東京都練馬区高野台2-25-1","lat":35.74808,"lon":139.62123},{"name":"桜台体育館","province":"東京都","city":"練馬区","address":"東京都練馬区桜台3-28-1","lat":35.74554,"lon":139.66624},{"name":"上石神井体育館","province":"東京都","city":"練馬区","address":"東京都練馬区上石神井1-32-37","lat":35.72262,"lon":139.58728},{"name":"大泉学園町体育館","province":"東京都","city":"練馬区","address":"東京都練馬区大泉学園町5-14-24","lat":35.76534,"lon":139.58412},{"name":"光が丘体育館","province":"東京都","city":"練馬区","address":"東京都練馬区光が丘4-1-4","lat":35.7639,"lon":139.63022},{"name":"平和台体育館","province":"東京都","city":"練馬区","address":"東京都練馬区平和台2-12-5","lat":35.75937,"lon":139.66151},{"name":"中村南スポーツ交流センター","province":"東京都","city":"練馬区","address":"東京都練馬区中村南1-2-32","lat":35.72925,"lon":139.64874},{"name":"三原台温水プール","province":"東京都","city":"練馬区","address":"東京都練馬区三原台2-11-29","lat":35.75711,"lon":139.6065},{"name":"石神井プール","province":"東京都","city":"練馬区","address":"東京都練馬区石神井町5-12-16","lat":35.73727,"lon":139.59949},{"name":"練馬総合運動場公園","province":"東京都","city":"練馬区","address":"東京都練馬区練馬2-29-10","lat":35.74588,"lon":139.65409},{"name":"大泉さくら運動公園多目的運動場","province":"東京都","city":"練馬区","address":"東京都練馬区大泉学園町9-4-5","lat":35.77487,"lon":139.6011},{"name":"大泉学園町希望が丘公園運動場","province":"東京都","city":"練馬区","address":"東京都練馬区大泉学園町9-1-2","lat":35.7777,"lon":139.59001},{"name":"石神井松の風文化公園","province":"東京都","city":"練馬区","address":"東京都練馬区石神井台1-33-44","lat":35.73993,"lon":139.59391},{"name":"豊玉中公園庭球場","province":"東京都","city":"練馬区","address":"東京都練馬区豊玉中4-1-17","lat":35.73333,"lon":139.65191},{"name":"学田公園野球場","province":"東京都","city":"練馬区","address":"東京都練馬区豊玉南3-32-27","lat":35.73004,"lon":139.64913},{"name":"東台野球場","province":"東京都","city":"練馬区","address":"東京都練馬区石神井町1-11-32","lat":35.74148,"lon":139.61248},{"name":"北大泉野球場","province":"東京都","city":"練馬区","address":"東京都練馬区大泉町3-31-44","lat":35.76715,"lon":139.59628},{"name":"びくに公園庭球場","province":"東京都","city":"練馬区","address":"東京都練馬区東大泉2-28-31","lat":35.75608,"lon":139.59716},{"name":"夏の雲公園庭球場","province":"東京都","city":"練馬区","address":"東京都練馬区光が丘3-5-1","lat":35.75604,"lon":139.63174},{"name":"土支田庭球場","province":"東京都","city":"練馬区","address":"東京都練馬区土支田4-31-24","lat":35.76913,"lon":139.61518},{"name":"厚生文化会館","province":"東京都","city":"練馬区","address":"東京都練馬区練馬4-2-3","lat":35.7403,"lon":139.65029},{"name":"中村橋福祉ケアセンター（中村橋区民センター内）","province":"東京都","city":"練馬区","address":"東京都練馬区貫井1-9-1","lat":35.73813,"lon":139.63554},{"name":"はつらつセンター豊玉","province":"東京都","city":"練馬区","address":"東京都練馬区豊玉中3-3-12","lat":35.73214,"lon":139.65536},{"name":"はつらつセンター関","province":"東京都","city":"練馬区","address":"東京都練馬区関町北1-7-2(関区民センター2階)","lat":35.72454,"lon":139.57766},{"name":"北保健相談所","province":"東京都","city":"練馬区","address":"東京都練馬区北町6-35-7","lat":35.75716,"lon":139.64962},{"name":"関保健相談所","province":"東京都","city":"練馬区","address":"東京都練馬区関町東1-27-4","lat":35.72648,"lon":139.58137},{"name":"光が丘保健相談所","province":"東京都","city":"練馬区","address":"東京都練馬区光が丘2-9-6光が丘区民センター1階","lat":35.75946,"lon":139.62946},{"name":"関町リサイクルセンター","province":"東京都","city":"練馬区","address":"東京都練馬区関町北1-7-14","lat":35.72492,"lon":139.57799},{"name":"春日町リサイクルセンター","province":"東京都","city":"練馬区","address":"東京都練馬区春日町2-14-16","lat":35.75605,"lon":139.64792},{"name":"豊玉リサイクルセンター","province":"東京都","city":"練馬区","address":"東京都練馬区豊玉上2-22-15","lat":35.73697,"lon":139.66027},{"name":"土支田農業公園","province":"東京都","city":"練馬区","address":"東京都練馬区土支田3-34-26","lat":35.76082,"lon":139.60955},{"name":"牧野記念庭園","province":"東京都","city":"練馬区","address":"東京都練馬区東大泉6-34-4","lat":35.74648,"lon":139.58526},{"name":"練馬駅北口地下駐車場","province":"東京都","city":"練馬区","address":"東京都練馬区練馬1-17-5","lat":35.7386,"lon":139.6533},{"name":"石神井公園ピアレスパーキング（石神井公園駅北口駐車場）","province":"東京都","city":"練馬区","address":"東京都練馬区石神井町2-14-15","lat":35.74443,"lon":139.607},{"name":"大泉学園ゆめりあ南パーキング（大泉学園駅南口駐車場）","province":"東京都","city":"練馬区","address":"東京都練馬区東大泉5-43-1","lat":35.74855,"lon":139.58544},{"name":"上石神井児童館","province":"東京都","city":"練馬区","address":"東京都練馬区上石神井1-5-22階","lat":35.72567,"lon":139.59236},{"name":"関町児童館","province":"東京都","city":"練馬区","address":"東京都練馬区関町南4-15-7","lat":35.72268,"lon":139.57228},{"name":"北大泉児童館","province":"東京都","city":"練馬区","address":"東京都練馬区大泉町4-15-153階","lat":35.76305,"lon":139.60018},{"name":"東大泉児童館","province":"東京都","city":"練馬区","address":"東京都練馬区東大泉7-20-1","lat":35.74241,"lon":139.57715},{"name":"光が丘児童館","province":"東京都","city":"練馬区","address":"東京都練馬区光が丘1-3-1","lat":35.76768,"lon":139.63901},{"name":"北町児童館","province":"東京都","city":"練馬区","address":"東京都練馬区北町1-19-17","lat":35.76417,"lon":139.66791},{"name":"練馬子ども家庭支援センター練馬駅南分室（練馬ぴよぴよ（ひろば室））","province":"東京都","city":"練馬区","address":"東京都練馬区豊玉北5-18-12","lat":35.73707,"lon":139.65442},{"name":"練馬子ども家庭支援センター　練馬駅北分室","province":"東京都","city":"練馬区","address":"東京都練馬区練馬1-17-1ココネリ4階","lat":35.73808,"lon":139.65333},{"name":"関子ども家庭支援センター","province":"東京都","city":"練馬区","address":"東京都練馬区関町北1-21-15","lat":35.72671,"lon":139.57868},{"name":"大泉子ども家庭支援センター","province":"東京都","city":"練馬区","address":"東京都練馬区東大泉5-35-1","lat":35.74757,"lon":139.58983},{"name":"光が丘子ども家庭支援センター","province":"東京都","city":"練馬区","address":"東京都練馬区光が丘2-9-6光が丘区民センター6階","lat":35.75935,"lon":139.62973},{"name":"光が丘子ども家庭支援センター分室（光が丘ぴよぴよ（ひろば室））","province":"東京都","city":"練馬区","address":"東京都練馬区光が丘5-2-5-105","lat":35.7598,"lon":139.627},{"name":"貫井子ども家庭支援センター","province":"東京都","city":"練馬区","address":"東京都練馬区貫井3-25-15ふじみランドマンション1階","lat":35.7372,"lon":139.62742},{"name":"西大泉ぴよぴよ","province":"東京都","city":"練馬区","address":"東京都練馬区西大泉1-27-10","lat":35.75456,"lon":139.57133},{"name":"北大泉児童館ぴよぴよ","province":"東京都","city":"練馬区","address":"東京都練馬区大泉町4-15-15","lat":35.76279,"lon":139.60025},{"name":"光が丘児童館ぴよぴよ","province":"東京都","city":"練馬区","address":"東京都練馬区光が丘1-3-1","lat":35.76762,"lon":139.63916},{"name":"立野地区区民館ぴよぴよ","province":"東京都","city":"練馬区","address":"東京都練馬区立野町15-42","lat":35.71854,"lon":139.5824},{"name":"田柄地区区民館ぴよぴよ","province":"東京都","city":"練馬区","address":"東京都練馬区田柄3-28-13","lat":35.7622,"lon":139.63718},{"name":"春日町南地区区民館ぴよぴよ","province":"東京都","city":"練馬区","address":"東京都練馬区春日町5-20-25","lat":35.74775,"lon":139.63866},{"name":"こども発達支援センター","province":"東京都","city":"練馬区","address":"東京都練馬区光が丘3-1-1","lat":35.7541,"lon":139.63099},{"name":"はつらつセンター大泉","province":"東京都","city":"練馬区","address":"東京都練馬区大泉学園町1-34-20","lat":35.76336,"lon":139.58929},{"name":"大泉リサイクルセンター","province":"東京都","city":"練馬区","address":"東京都練馬区大泉学園町1-34-10","lat":35.76301,"lon":139.59081},{"name":"練馬高野台駅前地域集会所","province":"東京都","city":"練馬区","address":"東京都練馬区高野台1-7-29","lat":35.74096,"lon":139.61622},{"name":"豊玉地域集会所","province":"東京都","city":"練馬区","address":"東京都練馬区豊玉中4-13-6","lat":35.73265,"lon":139.65016},{"name":"大泉運動場","province":"東京都","city":"練馬区","address":"東京都練馬区大泉町5-24-12","lat":35.76188,"lon":139.59288},{"name":"学校教育支援センター","province":"東京都","city":"練馬区","address":"東京都練馬区光が丘6-4-1","lat":35.75998,"lon":139.62324},{"name":"心身障害者福祉集会所","province":"東京都","city":"練馬区","address":"東京都練馬区光が丘2-9-6光が丘区民センター内","lat":35.75946,"lon":139.62972},{"name":"光が丘障害者地域生活支援センターすてっぷ","province":"東京都","city":"練馬区","address":"東京都練馬区光が丘2-9-6光が丘区民センター6階","lat":35.75936,"lon":139.62986},{"name":"豊玉障害者地域生活支援センターきらら","province":"東京都","city":"練馬区","address":"東京都練馬区豊玉北5-15-19豊玉すこやかセンター6階","lat":35.73603,"lon":139.65501},{"name":"大泉障害者地域生活支援センターさくら","province":"東京都","city":"練馬区","address":"東京都練馬区東大泉5-35-2大泉子ども家庭支援センター併設","lat":35.7475,"lon":139.58964},{"name":"石神井障害者地域生活支援センターういんぐ","province":"東京都","city":"練馬区","address":"東京都練馬区石神井町7-3-28石神井保健相談所内併設","lat":35.74454,"lon":139.60119},{"name":"光が丘総合福祉事務所(光が丘区民センター内）","province":"東京都","city":"練馬区","address":"東京都練馬区光が丘2-9-6光が丘区民センター2階","lat":35.75946,"lon":139.62959},{"name":"大泉総合福祉事務所","province":"東京都","city":"練馬区","address":"東京都練馬区東大泉1-29-1ゆめりあ14階・9階","lat":35.75026,"lon":139.58578},{"name":"栄町敬老館","province":"東京都","city":"練馬区","address":"東京都練馬区栄町7-40","lat":35.73945,"lon":139.67139},{"name":"中村敬老館","province":"東京都","city":"練馬区","address":"東京都練馬区中村2-25-3","lat":35.73191,"lon":139.64218},{"name":"高野台敬老館","province":"東京都","city":"練馬区","address":"東京都練馬区高野台2-25-1","lat":35.74784,"lon":139.62096},{"name":"南田中敬老館","province":"東京都","city":"練馬区","address":"東京都練馬区南田中5-15-251階","lat":35.73777,"lon":139.61153},{"name":"石神井敬老館","province":"東京都","city":"練馬区","address":"東京都練馬区石神井町7-28-211階","lat":35.74482,"lon":139.5982},{"name":"石神井台敬老館","province":"東京都","city":"練馬区","address":"東京都練馬区石神井台2-18-13","lat":35.73542,"lon":139.58967},{"name":"東大泉敬老館","province":"東京都","city":"練馬区","address":"東京都練馬区東大泉7-20-1","lat":35.74231,"lon":139.57707},{"name":"西大泉敬老館","province":"東京都","city":"練馬区","address":"東京都練馬区西大泉3-21-162階","lat":35.75939,"lon":139.57889},{"name":"上石神井敬老館","province":"東京都","city":"練馬区","address":"東京都練馬区上石神井1-6-16","lat":35.7253,"lon":139.59264},{"name":"豊玉保健相談所","province":"東京都","city":"練馬区","address":"東京都練馬区豊玉北5-15-19","lat":35.73585,"lon":139.65497},{"name":"石神井保健相談所","province":"東京都","city":"練馬区","address":"東京都練馬区石神井町7-3-281階~2階","lat":35.7445,"lon":139.60143},{"name":"大泉交通公園","province":"東京都","city":"練馬区","address":"東京都練馬区南大泉6-16-1","lat":35.75349,"lon":139.57185},{"name":"こどもの森","province":"東京都","city":"練馬区","address":"東京都練馬区羽沢2-32-7","lat":35.7489,"lon":139.67251},{"name":"小竹図書館","province":"東京都","city":"練馬区","address":"東京都練馬区小竹町2-43-1","lat":35.74189,"lon":139.67602},{"name":"練馬図書館","province":"東京都","city":"練馬区","address":"東京都練馬区豊玉北6-8-1","lat":35.73401,"lon":139.65208},{"name":"貫井図書館","province":"東京都","city":"練馬区","address":"東京都練馬区貫井1-36-16","lat":35.73699,"lon":139.63595},{"name":"石神井図書館","province":"東京都","city":"練馬区","address":"東京都練馬区石神井台1-16-31","lat":35.73648,"lon":139.59942},{"name":"関町図書館","province":"東京都","city":"練馬区","address":"東京都練馬区関町南3-11-2","lat":35.72095,"lon":139.58034},{"name":"大泉図書館","province":"東京都","city":"練馬区","address":"東京都練馬区大泉学園町2-21-17","lat":35.76058,"lon":139.58709},{"name":"稲荷山図書館","province":"東京都","city":"練馬区","address":"東京都練馬区大泉町1-3-18","lat":35.76531,"lon":139.60922},{"name":"南大泉図書館","province":"東京都","city":"練馬区","address":"東京都練馬区南大泉1-44-7","lat":35.74335,"lon":139.5748},{"name":"光が丘図書館","province":"東京都","city":"練馬区","address":"東京都練馬区光が丘4-1-5","lat":35.76312,"lon":139.63006},{"name":"春日町図書館","province":"東京都","city":"練馬区","address":"東京都練馬区春日町5-31-2エリム春日町2階","lat":35.75129,"lon":139.63934},{"name":"平和台図書館","province":"東京都","city":"練馬区","address":"東京都練馬区平和台1-36-17","lat":35.76011,"lon":139.66476},{"name":"南田中図書館","province":"東京都","city":"練馬区","address":"東京都練馬区南田中5-15-22","lat":35.73772,"lon":139.61108},{"name":"南大泉図書館分室　こどもと本のひろば","province":"東京都","city":"練馬区","address":"東京都練馬区南大泉3-17-20","lat":35.74163,"lon":139.56996},{"name":"春日町青少年館","province":"東京都","city":"練馬区","address":"東京都練馬区春日町4-16-9","lat":35.75253,"lon":139.63913},{"name":"四季の香ローズガーデン","province":"東京都","city":"練馬区","address":"東京都練馬区光が丘5-2-6","lat":35.7608,"lon":139.6263},{"name":"中里郷土の森","province":"東京都","city":"練馬区","address":"東京都練馬区大泉町1-51-2","lat":35.76897,"lon":139.60441},{"name":"根津幼稚園","province":"東京都","city":"文京区","address":"東京都文京区根津1-14-2","lat":35.71745,"lon":139.755035},{"name":"本駒込幼稚園","province":"東京都","city":"文京区","address":"東京都文京区本駒込4-35-15","lat":35.718575,"lon":139.763038},{"name":"柳町こどもの森（幼稚園+保育園）","province":"東京都","city":"文京区","address":"東京都文京区小石川1-23-6","lat":35.713695,"lon":139.750497},{"name":"文京区民センター","province":"東京都","city":"文京区","address":"東京都文京区本郷4-15-14","lat":35.708818,"lon":139.754156},{"name":"大塚地域活動センター","province":"東京都","city":"文京区","address":"東京都文京区大塚1-5-17","lat":35.718634,"lon":139.734637},{"name":"文京シビックセンター","province":"東京都","city":"文京区","address":"東京都文京区春日1-16-21","lat":35.708065,"lon":139.752174},{"name":"駕籠町小学校育成室","province":"東京都","city":"文京区","address":"東京都文京区本駒込2-29-6","lat":35.728631,"lon":139.745993},{"name":"神明育成室","province":"東京都","city":"文京区","address":"東京都文京区本駒込4-35-15","lat":35.733276,"lon":139.755369},{"name":"窪町育成室","province":"東京都","city":"文京区","address":"東京都文京区大塚3-2-3","lat":35.718877,"lon":139.735629},{"name":"駒本育成室","province":"東京都","city":"文京区","address":"東京都文京区向丘2-37-5","lat":35.724618,"lon":139.754577},{"name":"千駄木育成室","province":"東京都","city":"文京区","address":"東京都文京区千駄木5-44-2","lat":35.72914,"lon":139.758951},{"name":"本郷第三育成室","province":"東京都","city":"文京区","address":"東京都文京区本郷4-5-15","lat":35.707769,"lon":139.758134},{"name":"本郷第二育成室","province":"東京都","city":"文京区","address":"東京都文京区本郷4-5-15","lat":35.708093,"lon":139.758136},{"name":"誠之育成室","province":"東京都","city":"文京区","address":"東京都文京区向丘2-5-7","lat":35.717335,"lon":139.75788},{"name":"茗台育成室","province":"東京都","city":"文京区","address":"東京都文京区春日2-9-5","lat":35.713398,"lon":139.741276},{"name":"柳町第二育成室","province":"東京都","city":"文京区","address":"東京都文京区小石川1-23-16","lat":35.713932,"lon":139.750324},{"name":"指ヶ谷育成室","province":"東京都","city":"文京区","address":"東京都文京区白山2-28-4","lat":35.717306,"lon":139.750767},{"name":"柳町第三育成室","province":"東京都","city":"文京区","address":"東京都文京区小石川1-23-16","lat":35.713932,"lon":139.750324},{"name":"藍染保育園","province":"東京都","city":"文京区","address":"東京都文京区根津2-34-15","lat":35.721173,"lon":139.763273},{"name":"大塚保育園","province":"東京都","city":"文京区","address":"東京都文京区大塚6-22-19","lat":35.724635,"lon":139.725646},{"name":"こひなた保育園","province":"東京都","city":"文京区","address":"東京都文京区小日向1-21-1","lat":35.714013,"lon":139.736125},{"name":"駒込保育園","province":"東京都","city":"文京区","address":"東京都文京区千駄木3-19-17","lat":35.729655,"lon":139.76063},{"name":"さしがや保育園","province":"東京都","city":"文京区","address":"東京都文京区白山2-32-6","lat":35.718104,"lon":139.749759},{"name":"水道保育園","province":"東京都","city":"文京区","address":"東京都文京区水道1-3-26","lat":35.709567,"lon":139.742295},{"name":"千石西保育園","province":"東京都","city":"文京区","address":"東京都文京区千石3-15-15","lat":35.724914,"lon":139.738226},{"name":"千石保育園","province":"東京都","city":"文京区","address":"東京都文京区千石1-4-3","lat":35.724815,"lon":139.743264},{"name":"本郷保育園","province":"東京都","city":"文京区","address":"東京都文京区本郷1-28-12","lat":35.70644,"lon":139.7567},{"name":"本駒込西保育園","province":"東京都","city":"文京区","address":"東京都文京区本駒込2-9-16","lat":35.727616,"lon":139.74753},{"name":"本駒込保育園","province":"東京都","city":"文京区","address":"東京都文京区本駒込5-63-2","lat":35.733842,"lon":139.752437},{"name":"向丘保育園","province":"東京都","city":"文京区","address":"東京都文京区向丘1-3-11","lat":35.717487,"lon":139.756614},{"name":"目白台保育園","province":"東京都","city":"文京区","address":"東京都文京区目白台1-5-1","lat":35.713831,"lon":139.720661}]}