{"category":"wireless","data":[{"name":"大田区青少年交流センター（ゆいっつ）","province":"東京都","city":"大田区","address":"東京都大田区平和島4-2-15","lat":35.58352,"lon":139.743012},{"name":"大田図書館","province":"東京都","city":"大田区","address":"東京都大田区田園調布南25番1号","lat":35.581606,"lon":139.676125},{"name":"大森南図書館","province":"東京都","city":"大田区","address":"東京都大田区大森南一丁目17番7号","lat":35.563429,"lon":139.739788},{"name":"大森東図書館","province":"東京都","city":"大田区","address":"東京都大田区大森東一丁目31番3号-104","lat":35.57617,"lon":139.739109},{"name":"大森西図書館","province":"東京都","city":"大田区","address":"東京都大田区大森西五丁目2番13号","lat":35.571869,"lon":139.72604},{"name":"入新井図書館","province":"東京都","city":"大田区","address":"東京都大田区大森北一丁目10番14号(大森複合施設ビル(Luz大森)内)","lat":35.586349,"lon":139.72822},{"name":"馬込図書館","province":"東京都","city":"大田区","address":"東京都大田区中馬込二丁目26番10号","lat":35.595677,"lon":139.71042},{"name":"池上図書館","province":"東京都","city":"大田区","address":"東京都大田区池上六丁目3番10号エトモ池上4階","lat":35.574768,"lon":139.703243},{"name":"久が原図書館","province":"東京都","city":"大田区","address":"東京都大田区久が原二丁目28番4号","lat":35.579334,"lon":139.695276},{"name":"洗足池図書館","province":"東京都","city":"大田区","address":"東京都大田区南千束二丁目2番10号","lat":35.600792,"lon":139.69193},{"name":"浜竹図書館","province":"東京都","city":"大田区","address":"東京都大田区西糀谷三丁目32番7号","lat":35.553368,"lon":139.737368},{"name":"羽田図書館","province":"東京都","city":"大田区","address":"東京都大田区羽田一丁目11番1号","lat":35.55041,"lon":139.74348},{"name":"六郷図書館","province":"東京都","city":"大田区","address":"東京都大田区南六郷三丁目10番3号","lat":35.543921,"lon":139.71401},{"name":"下丸子図書館","province":"東京都","city":"大田区","address":"東京都大田区下丸子二丁目18番11号","lat":35.565849,"lon":139.688037},{"name":"多摩川図書館","province":"東京都","city":"大田区","address":"東京都大田区多摩川二丁目24番63号","lat":35.556123,"lon":139.702316},{"name":"蒲田図書館","province":"東京都","city":"大田区","address":"東京都大田区東蒲田一丁目19番22号","lat":35.563686,"lon":139.728443},{"name":"蒲田駅前図書館","province":"東京都","city":"大田区","address":"東京都大田区蒲田五丁目13番26-301号","lat":35.559837,"lon":139.715496},{"name":"田園調布せせらぎ館","province":"東京都","city":"大田区","address":"東京都大田区田園調布1-53-12","lat":35.5899036,"lon":139.669526},{"name":"大田区役所","province":"東京都","city":"大田区","address":"東京都大田区蒲田5-13-14","lat":35.561326,"lon":139.716082},{"name":"大森東特別出張所","province":"東京都","city":"大田区","address":"東京都大田区大森南四丁目9番1号","lat":35.566933,"lon":139.7459},{"name":"大森西特別出張所","province":"東京都","city":"大田区","address":"東京都大田区大森西二丁目16番2号区民活動支援施設大森(こらぼ大森)1階","lat":35.576557,"lon":139.730251},{"name":"入新井特別出張所","province":"東京都","city":"大田区","address":"東京都大田区大森北一丁目10番14号","lat":35.586449,"lon":139.728206},{"name":"馬込特別出張所","province":"東京都","city":"大田区","address":"東京都大田区中馬込三丁目25番5号","lat":35.593962,"lon":139.709813},{"name":"池上特別出張所","province":"東京都","city":"大田区","address":"東京都大田区池上一丁目29番6号","lat":35.575115,"lon":139.710296},{"name":"新井宿特別出張所","province":"東京都","city":"大田区","address":"東京都大田区中央一丁目21番6号","lat":35.579697,"lon":139.719709},{"name":"嶺町特別出張所","province":"東京都","city":"大田区","address":"東京都大田区田園調布本町7番1号","lat":35.587911,"lon":139.67735},{"name":"田園調布特別出張所","province":"東京都","city":"大田区","address":"東京都大田区田園調布一丁目30番1号","lat":35.588316,"lon":139.67094},{"name":"鵜の木特別出張所","province":"東京都","city":"大田区","address":"東京都大田区南久が原二丁目30番5号","lat":35.574934,"lon":139.685171},{"name":"久が原特別出張所","province":"東京都","city":"大田区","address":"東京都大田区久が原四丁目12番10号","lat":35.580307,"lon":139.693975},{"name":"雪谷特別出張所","province":"東京都","city":"大田区","address":"東京都大田区東雪谷三丁目6番2号","lat":35.594554,"lon":139.691156},{"name":"千束特別出張所","province":"東京都","city":"大田区","address":"東京都大田区南千束二丁目16番19号","lat":35.604988,"lon":139.689441},{"name":"六郷特別出張所","province":"東京都","city":"大田区","address":"東京都大田区仲六郷二丁目44番11号","lat":35.550903,"lon":139.716084},{"name":"矢口特別出張所","province":"東京都","city":"大田区","address":"東京都大田区矢口二丁目21番14号","lat":35.562124,"lon":139.690283},{"name":"蒲田西特別出張所","province":"東京都","city":"大田区","address":"東京都大田区西蒲田七丁目12番2号1階","lat":35.564472,"lon":139.710686},{"name":"蒲田東特別出張所","province":"東京都","city":"大田区","address":"東京都大田区蒲田本町二丁目1番1号","lat":35.558535,"lon":139.718592},{"name":"糀谷特別出張所","province":"東京都","city":"大田区","address":"東京都大田区西糀谷二丁目14番13号","lat":35.55873,"lon":139.73676},{"name":"羽田特別出張所","province":"東京都","city":"大田区","address":"東京都大田区羽田一丁目18番13号","lat":35.549143,"lon":139.741826},{"name":"おおた国際交流センター（Minto Ota）","province":"東京都","city":"大田区","address":"東京都大田区蒲田4-16-82階","lat":35.5613404,"lon":139.7223747},{"name":"消費者生活センター","province":"東京都","city":"大田区","address":"東京都大田区蒲田五丁目13番26-101号","lat":35.559839,"lon":139.715496},{"name":"池上会館","province":"東京都","city":"大田区","address":"東京都大田区池上一丁目32番8号","lat":35.576883,"lon":139.706363},{"name":"新蒲田一丁目複合施設（カムカム新蒲田）","province":"東京都","city":"大田区","address":"東京都大田区新蒲田一丁目18番16号","lat":35.5575665,"lon":139.7110827},{"name":"城南大橋第二","province":"東京都","city":"大田区","address":"東京都大田区東海3丁目4","lat":35.57770285,"lon":139.76242682},{"name":"東邦大学医療センター大森病院","province":"東京都","city":"大田区","address":"東京都大田区大森西6丁目11-1","lat":35.56903533,"lon":139.72396297},{"name":"大森赤十字病院","province":"東京都","city":"大田区","address":"東京都大田区中央4丁目30-1","lat":35.5787979,"lon":139.71718252},{"name":"東京都保健医療公社荏原病院","province":"東京都","city":"大田区","address":"東京都大田区東雪谷4丁目5-10","lat":35.59460659,"lon":139.69367561},{"name":"臨海斎場","province":"東京都","city":"大田区","address":"東京都大田区東海1丁目3-1","lat":35.58556795,"lon":139.7528242},{"name":"馬込給水所","province":"東京都","city":"大田区","address":"東京都大田区西馬込2丁目15-6","lat":35.58832131,"lon":139.70213893},{"name":"上池台給水所","province":"東京都","city":"大田区","address":"東京都大田区上池台1丁目48-25","lat":35.6004699,"lon":139.69973594},{"name":"区立西六郷三丁目公園","province":"東京都","city":"大田区","address":"東京都大田区西六郷3丁目16-16","lat":35.54629163,"lon":139.7059358},{"name":"区立萩中公園","province":"東京都","city":"大田区","address":"東京都大田区萩中3丁目25-26","lat":35.54972234,"lon":139.73905511},{"name":"区立都堀公園","province":"東京都","city":"大田区","address":"東京都大田区大森東1丁目30","lat":35.57738779,"lon":139.73836722},{"name":"区立下丸子公園","province":"東京都","city":"大田区","address":"東京都大田区下丸子4丁目21","lat":35.56920527,"lon":139.67906532},{"name":"区立女塚なかよし公園","province":"東京都","city":"大田区","address":"東京都大田区池上5丁目24","lat":35.57274857,"lon":139.71105287},{"name":"東海給水所","province":"東京都","city":"大田区","address":"東京都大田区東海1丁目3-12","lat":35.585493,"lon":139.7537297},{"name":"荏原病院","province":"東京都","city":"大田区","address":"東京都大田区東雪谷4丁目5-10","lat":35.59460659,"lon":139.69367561},{"name":"呑川水門","province":"東京都","city":"大田区","address":"東京都大田区大森東5丁目37-28","lat":35.56922547,"lon":139.74610619},{"name":"南前堀水門","province":"東京都","city":"大田区","address":"東京都大田区東糀谷6丁目10-18","lat":35.55664715,"lon":139.75146239},{"name":"京浜トラックターミナル","province":"東京都","city":"大田区","address":"東京都大田区平和島2丁目1-1","lat":35.58746451,"lon":139.74376358},{"name":"大田区保健所（保健衛生課）","province":"東京都","city":"大田区","address":"東京都大田区蒲田5丁目13-14","lat":35.56143339,"lon":139.71606685},{"name":"大田都税事務所","province":"東京都","city":"大田区","address":"東京都大田区西蒲田7丁目11-1","lat":35.56412477,"lon":139.71108117},{"name":"城南職業能力開発センター大田校","province":"東京都","city":"大田区","address":"東京都大田区本羽田3丁目4-30","lat":35.54887804,"lon":139.73934127},{"name":"産業技術研究センター城南支所","province":"東京都","city":"大田区","address":"東京都大田区南蒲田1丁目20-20","lat":35.55879224,"lon":139.72416907},{"name":"大田桜台高等学校","province":"東京都","city":"大田区","address":"東京都大田区中馬込3丁目11-10","lat":35.59227921,"lon":139.70362198},{"name":"大森高等学校","province":"東京都","city":"大田区","address":"東京都大田区西蒲田2丁目2-1","lat":35.57117099,"lon":139.70945034},{"name":"蒲田高等学校","province":"東京都","city":"大田区","address":"東京都大田区蒲田本町1丁目1-30","lat":35.55773127,"lon":139.71513949},{"name":"田園調布高等学校","province":"東京都","city":"大田区","address":"東京都大田区田園調布南27-1","lat":35.5823113,"lon":139.67655891},{"name":"美原高等学校","province":"東京都","city":"大田区","address":"東京都大田区大森東1丁目33-1","lat":35.57802672,"lon":139.74070317},{"name":"雪谷高等学校","province":"東京都","city":"大田区","address":"東京都大田区久が原1丁目14-1","lat":35.58597717,"lon":139.68956818},{"name":"六郷工科高等学校","province":"東京都","city":"大田区","address":"東京都大田区東六郷2丁目18-2","lat":35.54798845,"lon":139.71575962},{"name":"つばさ総合高等学校","province":"東京都","city":"大田区","address":"東京都大田区本羽田3丁目11-5","lat":35.54750602,"lon":139.73922191},{"name":"京浜トラックターミナル","province":"東京都","city":"大田区","address":"東京都大田区平和島2丁目1-1","lat":35.58746451,"lon":139.74376358},{"name":"大井食品ふ頭","province":"東京都","city":"大田区","address":"東京都大田区東海5丁目","lat":35.59230672,"lon":139.77290296},{"name":"東京国際空港（羽田飛行場）","province":"東京都","city":"大田区","address":"東京都大田区羽田空港","lat":35.55306458,"lon":139.75430976},{"name":"多摩川二丁目緊急用船着場","province":"東京都","city":"大田区","address":"東京都大田区多摩川2丁目","lat":35.55788986,"lon":139.70234382},{"name":"東京都漁連水産物流通センター","province":"東京都","city":"大田区","address":"東京都大田区京浜島3丁目","lat":35.57325911,"lon":139.76385757},{"name":"大森ふるさとの浜辺公園","province":"東京都","city":"大田区","address":"東京都大田区平和の森公園2-2","lat":35.57713528,"lon":139.74270588},{"name":"羽田２、３丁目","province":"東京都","city":"大田区","address":"東京都大田区羽田5丁目23","lat":35.54810939,"lon":139.74881591},{"name":"東糀谷六丁目","province":"東京都","city":"大田区","address":"東京都大田区東糀谷6丁目","lat":35.55887451,"lon":139.75037338},{"name":"羽田空港天空橋","province":"東京都","city":"大田区","address":"東京都大田区羽田空港1丁目","lat":35.55478658,"lon":139.75528179},{"name":"大田区体育館","province":"東京都","city":"大田区","address":"東京都大田区東蒲田1丁目11-1","lat":35.56468885,"lon":139.72792128},{"name":"大田区産業プラザ（Ｐｉｏ）","province":"東京都","city":"大田区","address":"東京都大田区南蒲田1丁目20-20","lat":35.55879224,"lon":139.72416907}]}