{"keyword":"一覧","data":[{"name":"石川町文化センター","province":"東京都","city":"大田区","address":"東京都大田区石川町1丁目3-8","lat":35.60212224,"lon":139.68297911},{"name":"大森東特別出張所","province":"東京都","city":"大田区","address":"東京都大田区大森南4丁目9-1","lat":35.56688413,"lon":139.74589247},{"name":"大森スポーツセンター","province":"東京都","city":"大田区","address":"東京都大田区大森本町2丁目2-5","lat":35.58092617,"lon":139.73739209},{"name":"大田区役所本庁舎","province":"東京都","city":"大田区","address":"東京都大田区蒲田5丁目13-14","lat":35.56143339,"lon":139.71606685},{"name":"馬込駅（都営浅草線）","province":"東京都","city":"大田区","address":"東京都大田区北馬込2丁目31-9","lat":35.59700105,"lon":139.71169332},{"name":"久が原特別出張所","province":"東京都","city":"大田区","address":"東京都大田区久が原4丁目12-10","lat":35.58016138,"lon":139.69404032},{"name":"新井宿特別出張所","province":"東京都","city":"大田区","address":"東京都大田区中央1丁目21-6","lat":35.57975895,"lon":139.71961004},{"name":"嶺町文化センター","province":"東京都","city":"大田区","address":"東京都大田区田園調布本町7-1","lat":35.58786589,"lon":139.67735279},{"name":"大田市場","province":"東京都","city":"大田区","address":"東京都大田区東海3丁目2-1","lat":35.57897751,"lon":139.75888254},{"name":"糀谷文化センター","province":"東京都","city":"大田区","address":"東京都大田区西糀谷2丁目14-5","lat":35.55904852,"lon":139.73630458},{"name":"西馬込駅（都営浅草線）","province":"東京都","city":"大田区","address":"東京都大田区西馬込2丁目1-6","lat":35.58745207,"lon":139.7060914},{"name":"萩中公園水泳場","province":"東京都","city":"大田区","address":"東京都大田区萩中3丁目26-46","lat":35.55006655,"lon":139.73638297},{"name":"大田区総合体育館","province":"東京都","city":"大田区","address":"東京都大田区東蒲田1丁目11-1","lat":35.56468885,"lon":139.72792128},{"name":"平和島公園水泳場","province":"東京都","city":"大田区","address":"東京都大田区平和島4丁目2-2","lat":35.58184851,"lon":139.74213343},{"name":"鵜の木特別出張所","province":"東京都","city":"大田区","address":"東京都大田区南久が原2丁目30-5","lat":35.57494855,"lon":139.68516964},{"name":"東調布公園水泳場","province":"東京都","city":"大田区","address":"東京都大田区南雪谷5丁目13-1","lat":35.58826574,"lon":139.68930418}]}