{"keyword":"保育","data":[{"name":"美原保育園","province":"東京都","city":"大田区","address":"大田区大森東1-28-2","lat":35.576568,"lon":139.738117},{"name":"大森東一丁目保育園","province":"東京都","city":"大田区","address":"大田区大森東1-31-2-105","lat":35.576857,"lon":139.739334},{"name":"子どもの家保育園","province":"東京都","city":"大田区","address":"大田区大森東5-2-11","lat":35.569889,"lon":139.740681},{"name":"大森保育園","province":"東京都","city":"大田区","address":"大田区大森南4-10-4","lat":35.567531,"lon":139.747245},{"name":"森が崎保育園","province":"東京都","city":"大田区","address":"大田区大森南二丁目2番15号","lat":35.562893,"lon":139.742057},{"name":"そらのいえ保育園","province":"東京都","city":"大田区","address":"大田区大森中1-14-1","lat":35.569691,"lon":139.733193},{"name":"大森西保育園","province":"東京都","city":"大田区","address":"大田区大森西2-20-17","lat":35.576496,"lon":139.727676},{"name":"大森西第二保育園","province":"東京都","city":"大田区","address":"大田区大森西4-13-11-101","lat":35.572768,"lon":139.722055},{"name":"富士見橋保育園","province":"東京都","city":"大田区","address":"大田区大森西3-2-2-101","lat":35.57436,"lon":139.728415},{"name":"グローバルキッズ大森西園","province":"東京都","city":"大田区","address":"大田区大森西2-15-24","lat":35.577743,"lon":139.729893},{"name":"おはよう保育園大森町","province":"東京都","city":"大田区","address":"大田区大森西3-16-11","lat":35.572505,"lon":139.72934},{"name":"キッズルームｏｈａｎａ平和島園","province":"東京都","city":"大田区","address":"大田区大森西2-2-29","lat":35.578021,"lon":139.728348},{"name":"島田保育園","province":"東京都","city":"大田区","address":"大田区大森北3-3-5","lat":35.584048,"lon":139.732295},{"name":"大森駅前保育園","province":"東京都","city":"大田区","address":"大田区大森北1-6-6","lat":35.589808,"lon":139.729117},{"name":"大森北六丁目保育園","province":"東京都","city":"大田区","address":"大田区大森北6-9-1","lat":35.581093,"lon":139.735287},{"name":"アスク大森保育園","province":"東京都","city":"大田区","address":"大田区大森北1-10-14Luz大森5F","lat":35.586545,"lon":139.728323},{"name":"メリーポピンズアトレ大森ルーム","province":"東京都","city":"大田区","address":"大田区大森北1-6-16アトレ大森23F","lat":35.58908,"lon":139.728709},{"name":"大森北保育園","province":"東京都","city":"大田区","address":"大田区大森北3-25-2","lat":35.582503,"lon":139.731223},{"name":"えがおの森保育園・おおもり駅前","province":"東京都","city":"大田区","address":"大田区大森北1-6-8ウィラ大森ビル1階","lat":35.589425,"lon":139.728862},{"name":"キッズガーデン大森駅前","province":"東京都","city":"大田区","address":"大田区大森北1丁目2番3号大森御幸ビル4階","lat":35.587736,"lon":139.729076},{"name":"はぐはぐドンキａｄｖｅｎｔｕｒｅ保育園","province":"東京都","city":"大田区","address":"大田区大森北1-30-1","lat":35.58622,"lon":139.727684},{"name":"えがおの森保育園・かまた駅前","province":"東京都","city":"大田区","address":"大田区大森北1-6-8","lat":35.589425,"lon":139.728862},{"name":"へいわじまさくらさくほいくえん","province":"東京都","city":"大田区","address":"大田区大森北6-26-20","lat":35.578285,"lon":139.733579},{"name":"山王保育園","province":"東京都","city":"大田区","address":"大田区山王3-32-12","lat":35.587036,"lon":139.724493},{"name":"さくら中央保育園","province":"東京都","city":"大田区","address":"大田区中央5丁目30-18","lat":35.580478,"lon":139.714766},{"name":"入新井保育園","province":"東京都","city":"大田区","address":"大田区中央2-16-17","lat":35.578729,"lon":139.721746},{"name":"ナーサリー新井宿","province":"東京都","city":"大田区","address":"大田区中央4-13-18","lat":35.579356,"lon":139.714724},{"name":"中央八丁目保育園","province":"東京都","city":"大田区","address":"大田区中央8-28-12","lat":35.573654,"lon":139.717977},{"name":"美奈見ここわ","province":"東京都","city":"大田区","address":"大田区中央1-1-7","lat":35.582545,"lon":139.719574},{"name":"おおたみんなの家","province":"東京都","city":"大田区","address":"大田区南馬込1丁目9番1号先","lat":35.593788,"lon":139.713207},{"name":"グローバルキッズ　西馬込園","province":"東京都","city":"大田区","address":"大田区南馬込5-30-2","lat":35.587066,"lon":139.706472},{"name":"南馬込第二保育園","province":"東京都","city":"大田区","address":"大田区南馬込1丁目24-9","lat":35.592954,"lon":139.714629},{"name":"南馬込保育園","province":"東京都","city":"大田区","address":"大田区南馬込4-6-5","lat":35.586436,"lon":139.709866},{"name":"馬込ここわ保育園","province":"東京都","city":"大田区","address":"大田区南馬込1-1-6","lat":35.595071,"lon":139.71216},{"name":"にじいろ保育園南馬込","province":"東京都","city":"大田区","address":"大田区南馬込4-25-11","lat":35.585028,"lon":139.713877},{"name":"ナーサリールームベリーベアー西馬込","province":"東京都","city":"大田区","address":"大田区南馬込5-42-2","lat":35.58553,"lon":139.705167},{"name":"にじいろ保育園西馬込","province":"東京都","city":"大田区","address":"大田区西馬込2-28-16","lat":35.586141,"lon":139.703847},{"name":"ケンパ西馬込","province":"東京都","city":"大田区","address":"大田区西馬込1-16-18","lat":35.589907,"lon":139.705725},{"name":"馬込保育園","province":"東京都","city":"大田区","address":"大田区中馬込3-25-2","lat":35.593993,"lon":139.709813},{"name":"ポピンズナーサリースクール馬込","province":"東京都","city":"大田区","address":"大田区中馬込3-22-21","lat":35.593815,"lon":139.708205},{"name":"東蒲田保育園","province":"東京都","city":"大田区","address":"大田区東蒲田2-32-15","lat":35.56087,"lon":139.726335},{"name":"蒲田保育専門学校ふぞく北糀谷保育園","province":"東京都","city":"大田区","address":"大田区北糀谷1-14-10","lat":35.563109,"lon":139.735204},{"name":"なかよし保育園","province":"東京都","city":"大田区","address":"大田区東糀谷4-2-14","lat":35.555708,"lon":139.743277},{"name":"東糀谷保育園","province":"東京都","city":"大田区","address":"大田区東糀谷6-8-7-101","lat":35.556597,"lon":139.748226},{"name":"西糀谷しろはと保育園","province":"東京都","city":"大田区","address":"大田区西糀谷1-4-22","lat":35.560317,"lon":139.730108},{"name":"西糀谷保育園","province":"東京都","city":"大田区","address":"大田区西糀谷4-5-7","lat":35.556626,"lon":139.731958},{"name":"糀谷保育園","province":"東京都","city":"大田区","address":"大田区西糀谷2-14-18","lat":35.55869,"lon":139.736155},{"name":"浜竹保育園","province":"東京都","city":"大田区","address":"大田区西糀谷3-34-18","lat":35.553652,"lon":139.738405},{"name":"蒲田保育専門学校ふぞく糀谷駅前","province":"東京都","city":"大田区","address":"大田区西糀谷4-29-162階","lat":35.555038,"lon":139.72855},{"name":"レイモンド南蒲田保育園","province":"東京都","city":"大田区","address":"大田区南蒲田2-16-2","lat":35.555918,"lon":139.7217},{"name":"第二蒲田保育園","province":"東京都","city":"大田区","address":"大田区南蒲田1-7-20","lat":35.559359,"lon":139.727572},{"name":"羽田保育園","province":"東京都","city":"大田区","address":"大田区羽田1-17-7","lat":35.549517,"lon":139.74163},{"name":"弁天橋保育園","province":"東京都","city":"大田区","address":"大田区羽田5-18-16","lat":35.548079,"lon":139.750049},{"name":"本羽田保育園","province":"東京都","city":"大田区","address":"大田区本羽田3-17-20-108","lat":35.548214,"lon":139.733822},{"name":"いずも保育園","province":"東京都","city":"大田区","address":"大田区南六郷1-10-3-101","lat":35.54926,"lon":139.721645},{"name":"南六郷保育園","province":"東京都","city":"大田区","address":"大田区南六郷1-33-1-101","lat":35.545197,"lon":139.72534},{"name":"六郷保育園","province":"東京都","city":"大田区","address":"大田区南六郷3-10-11","lat":35.543906,"lon":139.714352},{"name":"東六郷保育園","province":"東京都","city":"大田区","address":"大田区東六郷1-13-25","lat":35.552607,"lon":139.718923},{"name":"第三蒲田保育園","province":"東京都","city":"大田区","address":"大田区萩中2-13-16","lat":35.54985,"lon":139.733055},{"name":"大田区立萩中保育園","province":"東京都","city":"大田区","address":"大田区萩中1-2-1","lat":35.55241,"lon":139.723847},{"name":"女塚保育園","province":"東京都","city":"大田区","address":"大田区西蒲田4-23-8","lat":35.568838,"lon":139.714408},{"name":"蒲田音楽学園保育園","province":"東京都","city":"大田区","address":"大田区西蒲田4-27-2","lat":35.56868,"lon":139.712697},{"name":"グローバルキッズ　蒲田園","province":"東京都","city":"大田区","address":"大田区西蒲田8-20-8","lat":35.560014,"lon":139.713706},{"name":"ぽけっとランド西蒲田保育園","province":"東京都","city":"大田区","address":"大田区西蒲田7-35-1","lat":35.563378,"lon":139.710573},{"name":"西蒲田保育園","province":"東京都","city":"大田区","address":"大田区西蒲田3-13-12","lat":35.568713,"lon":139.710586},{"name":"明日葉保育園相生園","province":"東京都","city":"大田区","address":"大田区西蒲田6-18-8","lat":35.565752,"lon":139.711259},{"name":"大森南保育園","province":"東京都","city":"大田区","address":"大田区4-14-5","lat":35.594673,"lon":139.662026},{"name":"本蒲田保育園","province":"東京都","city":"大田区","address":"大田区蒲田1-4-23","lat":35.567885,"lon":139.721649},{"name":"第一蒲田保育園","province":"東京都","city":"大田区","address":"大田区蒲田1-20-6","lat":35.563839,"lon":139.721397},{"name":"アスク蒲田一丁目保育園","province":"東京都","city":"大田区","address":"大田区蒲田1-2-13","lat":35.568546,"lon":139.72111},{"name":"キッズラボ蒲田園","province":"東京都","city":"大田区","address":"大田区蒲田5-44-51階","lat":35.560167,"lon":139.71722},{"name":"蒲田本町保育園","province":"東京都","city":"大田区","address":"大田区蒲田本町1-1-1-101","lat":35.558773,"lon":139.715028},{"name":"矢口保育園","province":"東京都","city":"大田区","address":"大田区新蒲田2-12-8","lat":35.560106,"lon":139.703671},{"name":"新蒲田保育園","province":"東京都","city":"大田区","address":"大田区新蒲田1-18-23","lat":35.55747,"lon":139.711051},{"name":"高畑保育園","province":"東京都","city":"大田区","address":"大田区仲六郷3-19-12","lat":35.546794,"lon":139.71043},{"name":"仲六郷保育園","province":"東京都","city":"大田区","address":"大田区仲六郷2-4-7","lat":35.552349,"lon":139.712885},{"name":"グローバルキッズ雑色園","province":"東京都","city":"大田区","address":"大田区仲六郷2-43-11","lat":35.55028,"lon":139.715982},{"name":"このえ雑色保育園","province":"東京都","city":"大田区","address":"大田区仲六郷2-7-11","lat":35.551802,"lon":139.714598},{"name":"西二なかよし保育園","province":"東京都","city":"大田区","address":"大田区西六郷2-30-3","lat":35.549891,"lon":139.706774},{"name":"志茂田保育園","province":"東京都","city":"大田区","address":"大田区西六郷1-3-2","lat":35.556076,"lon":139.71164},{"name":"みどり保育園","province":"東京都","city":"大田区","address":"大田区西六郷3-30-20-101","lat":35.545111,"lon":139.70493},{"name":"よいこの保育園","province":"東京都","city":"大田区","address":"大田区西六郷4-20-6","lat":35.541523,"lon":139.705781},{"name":"ポピンズナーサリースクール西六郷","province":"東京都","city":"大田区","address":"大田区西六郷3-1-7","lat":35.547055,"lon":139.709044},{"name":"洗心保育園","province":"東京都","city":"大田区","address":"大田区南千束2-2-6","lat":35.601356,"lon":139.691795},{"name":"洗足池保育園","province":"東京都","city":"大田区","address":"大田区南千束3-24-15","lat":35.6012,"lon":139.687432},{"name":"にじいろ保育園大岡山","province":"東京都","city":"大田区","address":"大田区南千束3-1-6","lat":35.604136,"lon":139.687692},{"name":"千束保育園","province":"東京都","city":"大田区","address":"大田区南千束3-23-10","lat":35.60147,"lon":139.687448},{"name":"このえ洗足池保育園","province":"東京都","city":"大田区","address":"大田区南千束3-33-7","lat":35.599934,"lon":139.687307},{"name":"ポピンズナーサリースクール長原","province":"東京都","city":"大田区","address":"大田区上池台1-16-7","lat":35.602253,"lon":139.697042},{"name":"小池保育園","province":"東京都","city":"大田区","address":"大田区上池台4-23-9","lat":35.597037,"lon":139.701091},{"name":"上池台保育園","province":"東京都","city":"大田区","address":"大田区上池台5-11-17","lat":35.592515,"lon":139.700639},{"name":"はぐはぐキッズ洗足池","province":"東京都","city":"大田区","address":"大田区上池台2-26-7","lat":35.598731,"lon":139.69262},{"name":"ながはらさくらさくほいくえん","province":"東京都","city":"大田区","address":"大田区上池台1-5-2","lat":35.60187,"lon":139.699928},{"name":"雪谷保育園","province":"東京都","city":"大田区","address":"大田区東雪谷3-6-1","lat":35.594512,"lon":139.69089},{"name":"いしかわだいさくらさくほいくえん","province":"東京都","city":"大田区","address":"大田区東雪谷2-10-7","lat":35.596167,"lon":139.683538},{"name":"ベネッセ　雪が谷大塚保育園","province":"東京都","city":"大田区","address":"大田区南雪谷3-11-20","lat":35.591924,"lon":139.686654},{"name":"太陽の子南雪谷保育園","province":"東京都","city":"大田区","address":"大田区南雪谷4-14-1","lat":35.588857,"lon":139.68408},{"name":"田園調布二丁目保育園","province":"東京都","city":"大田区","address":"大田区田園調布2-17-2","lat":35.595415,"lon":139.672861},{"name":"田園調布保育園","province":"東京都","city":"大田区","address":"大田区田園調布本町7-15","lat":35.587249,"lon":139.677103},{"name":"北嶺町保育園","province":"東京都","city":"大田区","address":"大田区北嶺町19-13","lat":35.587421,"lon":139.687268},{"name":"北嶺町第二保育園","province":"東京都","city":"大田区","address":"大田区北嶺町28-7","lat":35.586233,"lon":139.68626},{"name":"チェリッシュ桜坂保育園","province":"東京都","city":"大田区","address":"大田区北嶺町37-29","lat":35.586361,"lon":139.680411},{"name":"クオリスキッズくがはら保育園","province":"東京都","city":"大田区","address":"大田区東嶺町28-4","lat":35.580931,"lon":139.685669},{"name":"わかば保育園","province":"東京都","city":"大田区","address":"大田区田園調布南8-23","lat":35.579803,"lon":139.674057},{"name":"仲池上保育園","province":"東京都","city":"大田区","address":"大田区仲池上1-21-16","lat":35.586188,"lon":139.697859},{"name":"ベネッセ西馬込保育園","province":"東京都","city":"大田区","address":"大田区仲池上1-8-2","lat":35.588607,"lon":139.701028},{"name":"天才キッズクラブ楽学館仲池上","province":"東京都","city":"大田区","address":"大田区仲池上1-25-4","lat":35.586524,"lon":139.697164},{"name":"森の保育園","province":"東京都","city":"大田区","address":"大田区仲池上1-31-13","lat":35.58721,"lon":139.69534},{"name":"桐里保育園","province":"東京都","city":"大田区","address":"大田区池上1-13-3","lat":35.579367,"lon":139.708211},{"name":"あっぷる池上保育園","province":"東京都","city":"大田区","address":"大田区池上3-29-11","lat":35.574259,"lon":139.701745},{"name":"ケンパ池上保育園","province":"東京都","city":"大田区","address":"大田区池上4-25-9","lat":35.574804,"lon":139.704265},{"name":"池上長尾保育園","province":"東京都","city":"大田区","address":"大田区池上8-25-6","lat":35.567291,"lon":139.698516},{"name":"マミーズエンジェル池上駅前保育園","province":"東京都","city":"大田区","address":"大田区池上7-1-1","lat":35.572585,"lon":139.701001},{"name":"池上第三保育園","province":"東京都","city":"大田区","address":"大田区池上5-15-22","lat":35.571446,"lon":139.70587},{"name":"池上どろんこ保育園","province":"東京都","city":"大田区","address":"大田区池上1-19-32","lat":35.577106,"lon":139.708636},{"name":"ベネッセ池上保育園","province":"東京都","city":"大田区","address":"大田区池上3-13-4","lat":35.575448,"lon":139.702368},{"name":"クオリスキッズいけがみ","province":"東京都","city":"大田区","address":"大田区池上6-27-25","lat":35.568977,"lon":139.704684},{"name":"千鳥さくら保育園","province":"東京都","city":"大田区","address":"大田区千鳥2-28-11","lat":35.568999,"lon":139.693175},{"name":"千鳥保育園","province":"東京都","city":"大田区","address":"大田区千鳥1-1-25","lat":35.574174,"lon":139.690977},{"name":"鵜の木いまいずみ保育園","province":"東京都","city":"大田区","address":"大田区南久が原2-30-5","lat":35.574949,"lon":139.68517},{"name":"アスクみなみ久が原","province":"東京都","city":"大田区","address":"大田区南久が原1-24-24","lat":35.57461,"lon":139.686872},{"name":"久が原ハーモニー保育園","province":"東京都","city":"大田区","address":"大田区久が原1-1-9","lat":35.58741,"lon":139.692087},{"name":"アスク久が原保育園","province":"東京都","city":"大田区","address":"大田区久が原2-23-10","lat":35.580681,"lon":139.69927},{"name":"久が原保育園","province":"東京都","city":"大田区","address":"大田区久が原2-16-17","lat":35.581983,"lon":139.695448},{"name":"みらいく久が原園","province":"東京都","city":"大田区","address":"大田区久が原4-25-2","lat":35.579503,"lon":139.693118},{"name":"多摩堤保育園","province":"東京都","city":"大田区","address":"大田区鵜の木3-11-13","lat":35.577554,"lon":139.67879},{"name":"アスクうのき保育園","province":"東京都","city":"大田区","address":"大田区鵜の木2-34-20","lat":35.573954,"lon":139.679165},{"name":"くがはらさくらさく","province":"東京都","city":"大田区","address":"大田区鵜の木1-5-12","lat":35.577354,"lon":139.683031},{"name":"グローバルキッズ鵜の木園","province":"東京都","city":"大田区","address":"大田区鵜の木2-36-10","lat":35.574776,"lon":139.67817},{"name":"丸子ベビー保育園","province":"東京都","city":"大田区","address":"大田区下丸子3-21-17","lat":35.568655,"lon":139.684717},{"name":"下丸子保育園","province":"東京都","city":"大田区","address":"大田区下丸子2-20-15","lat":35.564409,"lon":139.68764},{"name":"キッズラボ下丸子園","province":"東京都","city":"大田区","address":"大田区下丸子4-6-19","lat":35.571633,"lon":139.682779},{"name":"おひさま保育園","province":"東京都","city":"大田区","address":"大田区矢口3-34-12","lat":35.559154,"lon":139.690198},{"name":"矢口第二保育園","province":"東京都","city":"大田区","address":"大田区矢口2-21-16-101","lat":35.561662,"lon":139.689609},{"name":"今泉保育園","province":"東京都","city":"大田区","address":"大田区矢口2-26-17","lat":35.562537,"lon":139.694506},{"name":"多摩川保育園","province":"東京都","city":"大田区","address":"大田区多摩川2-24-63","lat":35.556054,"lon":139.702308},{"name":"にじいろ保育園矢口渡","province":"東京都","city":"大田区","address":"大田区多摩川1-34-5","lat":35.560412,"lon":139.699172},{"name":"キッズラボ矢口渡駅前園","province":"東京都","city":"大田区","address":"大田区多摩川1-7-16","lat":35.563197,"lon":139.69931}]}