{"keyword":"公共","data":[{"name":"臨海斎場","province":"東京都","city":"大田区","address":"東京都大田区東海1-3-1","lat":35.585557,"lon":139.75282},{"name":"東京港野鳥公園","province":"東京都","city":"大田区","address":"東京都大田区東海三丁目1番","lat":35.583094,"lon":139.758329},{"name":"城南島海浜公園","province":"東京都","city":"大田区","address":"東京都大田区城南島四丁目2番2号","lat":35.578304,"lon":139.783422},{"name":"城南島ふ頭公園","province":"東京都","city":"大田区","address":"東京都大田区城南島二丁目","lat":35.578915,"lon":139.772772},{"name":"京浜島ふ頭公園","province":"東京都","city":"大田区","address":"東京都大田区京浜島二丁目","lat":35.57175,"lon":139.760513},{"name":"東海ふ頭公園","province":"東京都","city":"大田区","address":"東京都大田区東海二丁目","lat":35.57775,"lon":139.756327},{"name":"京浜島つばさ公園","province":"東京都","city":"大田区","address":"東京都大田区京浜島二丁目","lat":35.571013,"lon":139.770478},{"name":"東海緑道公園","province":"東京都","city":"大田区","address":"東京都大田区東海一丁目・二丁目・三丁目/四丁目・五丁目・六丁目","lat":35.577185,"lon":139.759561},{"name":"城南島緑道公園","province":"東京都","city":"大田区","address":"東京都大田区城南島一丁目・二丁目","lat":35.581768,"lon":139.775432},{"name":"京浜島緑道公園","province":"東京都","city":"大田区","address":"東京都大田区京浜島一丁目","lat":35.568481,"lon":139.765208}]}