{"keyword":"再生","data":[{"name":"(株)西商店  本社","province":"東京都","city":"大田区","address":"大田区池上6-28-5","lat":35.569305,"lon":139.706039},{"name":"ツチヤ産業(株)","province":"東京都","city":"大田区","address":"大田区東糀谷4-7-20","lat":35.554882,"lon":139.745468},{"name":"(株)大龍金属","province":"東京都","city":"大田区","address":"大田区京浜島2-6-10","lat":35.570194,"lon":139.768845},{"name":"(株)京福商店  京浜島営業所","province":"東京都","city":"大田区","address":"大田区京浜島2-15-3","lat":35.569153,"lon":139.764435},{"name":"京浜容器(株)","province":"東京都","city":"大田区","address":"大田区大森中1-2-25","lat":35.57193,"lon":139.73349},{"name":"(資)豊田八郎商店","province":"東京都","city":"大田区","address":"大田区久が原2-2-11","lat":35.585342,"lon":139.69603},{"name":"(有)馬場啓介商店","province":"東京都","city":"大田区","address":"大田区北千束3-4-11","lat":35.606293,"lon":139.689575},{"name":"(株)カネダ","province":"東京都","city":"大田区","address":"大田区本羽田1-26-16","lat":35.546173,"lon":139.728363},{"name":"(株)玉川軽金属","province":"東京都","city":"大田区","address":"大田区東糀谷5-12-3","lat":35.56002,"lon":139.743118},{"name":"(株)國光  中央営業所","province":"東京都","city":"大田区","address":"大田区京浜島2-14-7","lat":35.568424,"lon":139.763901},{"name":"(株)こんの  東京営業所","province":"東京都","city":"大田区","address":"大田区大森南4-10-27","lat":35.567402,"lon":139.747498},{"name":"藤ビルメンテナンス(株)","province":"東京都","city":"大田区","address":"大田区京浜島3-4-3","lat":35.574162,"lon":139.76326},{"name":"日栄産業(株)","province":"東京都","city":"大田区","address":"大田区京浜島3-5-2","lat":35.573341,"lon":139.76503},{"name":"(株)ジー・エス","province":"東京都","city":"大田区","address":"大田区京浜島2-14-10","lat":35.568424,"lon":139.763901},{"name":"(株)宮崎  六郷営業所","province":"東京都","city":"大田区","address":"大田区東六郷3-25-5","lat":35.540291,"lon":139.710144},{"name":"(有)藤井商店","province":"東京都","city":"大田区","address":"大田区矢口3-11-11","lat":35.559502,"lon":139.694366},{"name":"(株)西商店  第一瓶･缶センター","province":"東京都","city":"大田区","address":"大田区京浜島2-14-1","lat":35.568424,"lon":139.763901},{"name":"(株)木下  東京大森事業所","province":"東京都","city":"大田区","address":"大田区大森南2-9-17","lat":35.56229,"lon":139.744568},{"name":"有明興業(株)  京浜島工場","province":"東京都","city":"大田区","address":"大田区京浜島3-3-14","lat":35.573097,"lon":139.763153},{"name":"東日紙商(株)  京浜支店","province":"東京都","city":"大田区","address":"大田区東糀谷5-8-3","lat":35.559944,"lon":139.745117},{"name":"(株)西商店  京浜島事業所","province":"東京都","city":"大田区","address":"大田区京浜島2-14-14","lat":35.568424,"lon":139.763901},{"name":"品川運輸(株)  京浜島ﾘｻｲｸﾙｾﾝﾀｰﾘﾊﾞｰｽ2002","province":"東京都","city":"大田区","address":"大田区京浜島2-15-5","lat":35.569153,"lon":139.764435},{"name":"岩間茂隆  岩間商店","province":"東京都","city":"大田区","address":"大田区京浜島2-12-15","lat":35.569969,"lon":139.761841},{"name":"(株)西商店  第二瓶･缶センター","province":"東京都","city":"大田区","address":"大田区京浜島3-3-7","lat":35.573097,"lon":139.763153},{"name":"(株)エコ・エイト  京浜島クリアセンター","province":"東京都","city":"大田区","address":"大田区京浜島2-18-10","lat":35.568932,"lon":139.767059},{"name":"(株)樋口常三郎商店  羽田ヤード","province":"東京都","city":"大田区","address":"大田区東糀谷5-3-9","lat":35.560612,"lon":139.745331},{"name":"成友興業(株)  城南島第一工場","province":"東京都","city":"大田区","address":"大田区城南島3-3-3","lat":35.579407,"lon":139.780426}]}