{"keyword":"初動","data":[{"name":"大田区保健所（保健衛生課）","province":"東京都","city":"大田区","address":"東京都大田区蒲田5丁目13-14","lat":35.56143339,"lon":139.71606685},{"name":"第一自動車警ら隊蒲田分駐所","province":"東京都","city":"大田区","address":"大田区蒲田本町2-29-12","lat":35.556,"lon":139.7201},{"name":"第二方面交通機動隊","province":"東京都","city":"大田区","address":"大田区大森北6-24-20","lat":35.57914,"lon":139.7302},{"name":"池上警察署","province":"東京都","city":"大田区","address":"大田区池上3-20-10","lat":35.57434,"lon":139.6986},{"name":"大森警察署","province":"東京都","city":"大田区","address":"大田区大森中1-1-16","lat":35.57255,"lon":139.7338},{"name":"蒲田警察署","province":"東京都","city":"大田区","address":"大田区蒲田本町2-3-3","lat":35.55811,"lon":139.7204},{"name":"田園調布警察署","province":"東京都","city":"大田区","address":"大田区田園調布1-1-8","lat":35.589128,"lon":139.677331},{"name":"東京空港警察署","province":"東京都","city":"大田区","address":"大田区羽田空港3-4-1","lat":35.55513,"lon":139.7842},{"name":"第二消防方面本部","province":"東京都","city":"大田区","address":"大田区大森東1-32-8","lat":35.5788,"lon":139.7393},{"name":"第二方面訓練場","province":"東京都","city":"大田区","address":"大田区京浜島1-1","lat":35.57302,"lon":139.7576},{"name":"大森消防署","province":"東京都","city":"大田区","address":"大田区大森東1-32-8","lat":35.5788,"lon":139.7393},{"name":"蒲田消防署","province":"東京都","city":"大田区","address":"大田区蒲田本町2-28-1","lat":35.55572,"lon":139.7198},{"name":"田園調布消防署","province":"東京都","city":"大田区","address":"大田区雪谷大塚町13-22","lat":35.5898,"lon":139.6776},{"name":"矢口消防署","province":"東京都","city":"大田区","address":"大田区多摩川2-5-20","lat":35.55952,"lon":139.6992},{"name":"大田区田園調布南倉庫","province":"東京都","city":"大田区","address":"大田区田園調布南3-8区立田園調布南公園内","lat":35.57919,"lon":139.6752},{"name":"大田区南六郷倉庫","province":"東京都","city":"大田区","address":"大田区南六郷1-29-2-101都市再生機構南六郷一丁目団地内","lat":35.5462,"lon":139.7254},{"name":"東邦薬品（株）ＷＩＬＬ平和島","province":"東京都","city":"大田区","address":"大田区平和島6-1-1(株)東京流通センター内AE4-2","lat":35.57911,"lon":139.7477},{"name":"相互産業（株）","province":"東京都","city":"大田区","address":"大田区中央3-19-5","lat":35.57492,"lon":139.7186}]}