{"keyword":"区","data":[{"name":"大田区保健所（健康医療政策課）","province":"東京都","city":"大田区","address":"大田区蒲田5-13-14","lat":35.561258,"lon":139.715986},{"name":"大田区保健所(感染症対策課)","province":"東京都","city":"大田区","address":"大田区蒲田5-13-14","lat":35.561258,"lon":139.715986},{"name":"大田区保健所（生活衛生課）","province":"東京都","city":"大田区","address":"大田区大森西1-12-1","lat":35.578193,"lon":139.722935},{"name":"大田区保健所（健康づくり課）","province":"東京都","city":"大田区","address":"大田区蒲田5-13-14","lat":35.561258,"lon":139.715986},{"name":"大田区保健所（大森地域健康課）","province":"東京都","city":"大田区","address":"大田区大森西1-12-1","lat":35.578193,"lon":139.722935},{"name":"大田区保健所（調布地域健康課）","province":"東京都","city":"大田区","address":"大田区雪谷大塚町4-6","lat":35.593151,"lon":139.680594},{"name":"大田区保健所（蒲田地域健康課）","province":"東京都","city":"大田区","address":"大田区蒲田本町2-1-1","lat":35.558534,"lon":139.718422},{"name":"大田区保健所（糀谷・羽田地域健康課）","province":"東京都","city":"大田区","address":"大田区東糀谷1-21-15","lat":35.557413,"lon":139.739657},{"name":"大田区保健所（健康医療政策課）","province":"東京都","city":"大田区","address":"東京都大田区蒲田5丁目13-14","lat":35.56143339,"lon":139.71606685},{"name":"大田区保健所(感染症対策課)","province":"東京都","city":"大田区","address":"東京都大田区蒲田5丁目13-14","lat":35.56143339,"lon":139.71606685},{"name":"大田区保健所（生活衛生課）","province":"東京都","city":"大田区","address":"東京都大田区大森西1丁目12-1","lat":35.57816201,"lon":139.72294595},{"name":"大田区保健所（健康づくり課）","province":"東京都","city":"大田区","address":"東京都大田区蒲田5丁目13-14","lat":35.56143339,"lon":139.71606685},{"name":"大田区保健所（大森地域健康課）","province":"東京都","city":"大田区","address":"東京都大田区大森西1丁目12-1","lat":35.57816201,"lon":139.72294595},{"name":"大田区保健所（調布地域健康課）","province":"東京都","city":"大田区","address":"東京都大田区雪谷大塚町4-6","lat":35.5931512,"lon":139.68059373},{"name":"大田区保健所（蒲田地域健康課）","province":"東京都","city":"大田区","address":"東京都大田区蒲田本町2丁目1-1","lat":35.55854219,"lon":139.71842237},{"name":"大田区保健所（糀谷・羽田地域健康課）","province":"東京都","city":"大田区","address":"東京都大田区東糀谷1丁目21-15","lat":35.55741289,"lon":139.73965732},{"name":"大田区保健所（健康医療政策課）","province":"東京都","city":"大田区","address":"大田区蒲田5-13-14","lat":35.56125,"lon":139.71576},{"name":"大田区保健所(感染症対策課)","province":"東京都","city":"大田区","address":"大田区蒲田5-13-14","lat":35.56125,"lon":139.71576},{"name":"大田区保健所（生活衛生課）","province":"東京都","city":"大田区","address":"大田区大森西1-12-1","lat":35.57768,"lon":139.72266},{"name":"大田区保健所（健康づくり課）","province":"東京都","city":"大田区","address":"大田区蒲田5-13-14","lat":35.56125,"lon":139.71576},{"name":"大田区保健所（大森地域健康課）","province":"東京都","city":"大田区","address":"大田区大森西1-12-1","lat":35.57768,"lon":139.72266},{"name":"大田区保健所（調布地域健康課）","province":"東京都","city":"大田区","address":"大田区雪谷大塚町4-6","lat":35.59329,"lon":139.68016},{"name":"大田区保健所（蒲田地域健康課）","province":"東京都","city":"大田区","address":"大田区蒲田本町2-1-1","lat":35.55798,"lon":139.71837},{"name":"大田区保健所（糀谷・羽田地域健康課）","province":"東京都","city":"大田区","address":"大田区東糀谷1-21-15","lat":35.55752,"lon":139.73979}]}