{"keyword":"収蔵","data":[{"name":"馬込給水所","province":"東京都","city":"大田区","address":"東京都大田区西馬込2-15-6","lat":35.5886364,"lon":139.70192},{"name":"上池台給水所","province":"東京都","city":"大田区","address":"東京都大田区上池台1-48-25","lat":35.6004761,"lon":139.699734},{"name":"東海給水所","province":"東京都","city":"大田区","address":"東京都大田区東海1-3-12","lat":35.5852378,"lon":139.75335},{"name":"区立西六郷三丁目公園","province":"東京都","city":"大田区","address":"東京都大田区西六郷3-16-16","lat":35.5463837,"lon":139.705564},{"name":"区立萩中公園","province":"東京都","city":"大田区","address":"東京都大田区萩中3-25-26","lat":35.5507281,"lon":139.737397},{"name":"区立都堀公園","province":"東京都","city":"大田区","address":"東京都大田区大森東1-30","lat":35.57786,"lon":139.7384},{"name":"区立下丸子公園","province":"東京都","city":"大田区","address":"東京都大田区下丸子4-21","lat":35.569444,"lon":139.681378},{"name":"区立女塚なかよし公園","province":"東京都","city":"大田区","address":"東京都大田区池上5-24","lat":35.5727504,"lon":139.711054},{"name":"城南大橋第二","province":"東京都","city":"大田区","address":"東京都大田区東海3丁目4","lat":35.57770285,"lon":139.76242682},{"name":"東邦大学医療センター大森病院","province":"東京都","city":"大田区","address":"東京都大田区大森西6丁目11-1","lat":35.56903533,"lon":139.72396297},{"name":"大森赤十字病院","province":"東京都","city":"大田区","address":"東京都大田区中央4丁目30-1","lat":35.5787979,"lon":139.71718252},{"name":"東京都保健医療公社荏原病院","province":"東京都","city":"大田区","address":"東京都大田区東雪谷4丁目5-10","lat":35.59460659,"lon":139.69367561},{"name":"馬込給水所","province":"東京都","city":"大田区","address":"東京都大田区西馬込2丁目15-6","lat":35.58832131,"lon":139.70213893},{"name":"上池台給水所","province":"東京都","city":"大田区","address":"東京都大田区上池台1丁目48-25","lat":35.6004699,"lon":139.69973594},{"name":"区立西六郷三丁目公園","province":"東京都","city":"大田区","address":"東京都大田区西六郷3丁目16-16","lat":35.54629163,"lon":139.7059358},{"name":"区立萩中公園","province":"東京都","city":"大田区","address":"東京都大田区萩中3丁目25-26","lat":35.54972234,"lon":139.73905511},{"name":"区立都堀公園","province":"東京都","city":"大田区","address":"東京都大田区大森東1丁目30","lat":35.57738779,"lon":139.73836722},{"name":"区立下丸子公園","province":"東京都","city":"大田区","address":"東京都大田区下丸子4丁目21","lat":35.56920527,"lon":139.67906532},{"name":"区立女塚なかよし公園","province":"東京都","city":"大田区","address":"東京都大田区池上5丁目24","lat":35.57274857,"lon":139.71105287},{"name":"東海給水所","province":"東京都","city":"大田区","address":"東京都大田区東海1丁目3-12","lat":35.585493,"lon":139.7537297},{"name":"荏原病院","province":"東京都","city":"大田区","address":"東京都大田区東雪谷4丁目5-10","lat":35.59460659,"lon":139.69367561},{"name":"呑川水門","province":"東京都","city":"大田区","address":"東京都大田区大森東5丁目37-28","lat":35.56922547,"lon":139.74610619},{"name":"南前堀水門","province":"東京都","city":"大田区","address":"東京都大田区東糀谷6丁目10-18","lat":35.55664715,"lon":139.75146239},{"name":"京浜トラックターミナル","province":"東京都","city":"大田区","address":"東京都大田区平和島2丁目1-1","lat":35.58746451,"lon":139.74376358},{"name":"大田区立平和島公園運動場","province":"東京都","city":"大田区","address":"東京都大田区平和島4丁目2-2","lat":35.58184851,"lon":139.74213343},{"name":"都立大井埠頭中央海浜公園第２球技場","province":"東京都","city":"大田区","address":"東京都大田区東海1丁目4","lat":35.58593444,"lon":139.74992159},{"name":"京浜島防災広場運動場","province":"東京都","city":"大田区","address":"東京都大田区京浜島2丁目10","lat":35.57091777,"lon":139.7634161},{"name":"丸子橋野球場","province":"東京都","city":"大田区","address":"東京都大田区田園調布本町31","lat":35.58310843,"lon":139.67183161},{"name":"多摩川緑地サッカー場","province":"東京都","city":"大田区","address":"東京都大田区田園調布5丁目54","lat":35.59239824,"lon":139.65872368},{"name":"多摩川緑地野球場（西六郷４丁目）","province":"東京都","city":"大田区","address":"東京都大田区西六郷4丁目33","lat":35.54406986,"lon":139.70286408},{"name":"ガス橋緑地少年サッカー場（下丸子３丁目）","province":"東京都","city":"大田区","address":"東京都大田区下丸子3丁目30","lat":35.5668806,"lon":139.68245956},{"name":"ガス橋緑地少年野球場（下丸子２丁目）","province":"東京都","city":"大田区","address":"東京都大田区下丸子2丁目13","lat":35.56350616,"lon":139.684143},{"name":"東京都保健医療公社荏原病院ヘリポート","province":"東京都","city":"大田区","address":"東京都大田区東雪谷4丁目5-10","lat":35.59460659,"lon":139.69367561},{"name":"東京ガスグラウンド","province":"東京都","city":"大田区","address":"東京都大田区大森東3丁目28-1","lat":35.57249131,"lon":139.7398702},{"name":"多摩川緑地広場硬式野球場Ａ面（旧巨人軍グラウンド）","province":"東京都","city":"大田区","address":"東京都大田区田園調布4丁目44","lat":35.59210389,"lon":139.66145123},{"name":"多摩川大師橋緑地野球場","province":"東京都","city":"大田区","address":"東京都大田区本羽田2丁目14","lat":35.54584467,"lon":139.73048361},{"name":"区民広場（西六郷三丁目）","province":"東京都","city":"大田区","address":"東京都大田区西六郷3丁目13","lat":35.54625004,"lon":139.70335835},{"name":"大田スタジアム","province":"東京都","city":"大田区","address":"東京都大田区東海1丁目2-10","lat":35.58843701,"lon":139.75284626},{"name":"六郷橋緑地野球場","province":"東京都","city":"大田区","address":"東京都大田区東六郷3丁目","lat":35.54202554,"lon":139.71164099},{"name":"多摩川田園調布緑地サッカー場","province":"東京都","city":"大田区","address":"東京都大田区田園調布4丁目","lat":35.59272877,"lon":139.66135396},{"name":"大田区立東調布公園","province":"東京都","city":"大田区","address":"東京都大田区南雪谷5丁目13-1","lat":35.58826574,"lon":139.68930418},{"name":"多摩川大橋緑地","province":"東京都","city":"大田区","address":"東京都大田区矢口3丁目","lat":35.56021468,"lon":139.69576395},{"name":"京浜トラックターミナル","province":"東京都","city":"大田区","address":"東京都大田区平和島2丁目1-1","lat":35.58746451,"lon":139.74376358},{"name":"大井食品ふ頭","province":"東京都","city":"大田区","address":"東京都大田区東海5丁目","lat":35.59230672,"lon":139.77290296},{"name":"東京国際空港（羽田飛行場）","province":"東京都","city":"大田区","address":"東京都大田区羽田空港","lat":35.55306458,"lon":139.75430976},{"name":"大田区田園調布南倉庫","province":"東京都","city":"大田区","address":"大田区田園調布南3-8区立田園調布南公園内","lat":35.57919,"lon":139.6752},{"name":"大田区南六郷倉庫","province":"東京都","city":"大田区","address":"大田区南六郷1-29-2-101都市再生機構南六郷一丁目団地内","lat":35.5462,"lon":139.7254},{"name":"東邦薬品（株）ＷＩＬＬ平和島","province":"東京都","city":"大田区","address":"大田区平和島6-1-1(株)東京流通センター内AE4-2","lat":35.57911,"lon":139.7477},{"name":"相互産業（株）","province":"東京都","city":"大田区","address":"大田区中央3-19-5","lat":35.57492,"lon":139.7186},{"name":"東京空港事務所","province":"東京都","city":"大田区","address":"東京都大田区羽田空港3丁目3-1","lat":35.55367361,"lon":139.78221286},{"name":"城南大橋第二倉庫","province":"東京都","city":"大田区","address":"東京都大田区東海3丁目4-2","lat":35.57794447,"lon":139.76251846},{"name":"馬込給水所","province":"東京都","city":"大田区","address":"東京都大田区西馬込2-15-6","lat":35.5886364,"lon":139.70192},{"name":"上池台給水所","province":"東京都","city":"大田区","address":"東京都大田区上池台1-48-25","lat":35.6004761,"lon":139.699734},{"name":"東海給水所","province":"東京都","city":"大田区","address":"東京都大田区東海1-3-12","lat":35.5852378,"lon":139.75335},{"name":"区立西六郷三丁目公園","province":"東京都","city":"大田区","address":"東京都大田区西六郷3-16-16","lat":35.5463837,"lon":139.705564},{"name":"区立萩中公園","province":"東京都","city":"大田区","address":"東京都大田区萩中3-25-26","lat":35.5507281,"lon":139.737397},{"name":"区立都堀公園","province":"東京都","city":"大田区","address":"東京都大田区大森東1-30","lat":35.57786,"lon":139.7384},{"name":"区立下丸子公園","province":"東京都","city":"大田区","address":"東京都大田区下丸子4-21","lat":35.569444,"lon":139.681378},{"name":"区立女塚なかよし公園","province":"東京都","city":"大田区","address":"東京都大田区池上5-24","lat":35.5727504,"lon":139.711054},{"name":"城南大橋第二","province":"東京都","city":"大田区","address":"東京都大田区東海3丁目4","lat":35.57770285,"lon":139.76242682},{"name":"東邦大学医療センター大森病院","province":"東京都","city":"大田区","address":"東京都大田区大森西6丁目11-1","lat":35.56903533,"lon":139.72396297},{"name":"大森赤十字病院","province":"東京都","city":"大田区","address":"東京都大田区中央4丁目30-1","lat":35.5787979,"lon":139.71718252},{"name":"東京都保健医療公社荏原病院","province":"東京都","city":"大田区","address":"東京都大田区東雪谷4丁目5-10","lat":35.59460659,"lon":139.69367561},{"name":"馬込給水所","province":"東京都","city":"大田区","address":"東京都大田区西馬込2丁目15-6","lat":35.58832131,"lon":139.70213893},{"name":"上池台給水所","province":"東京都","city":"大田区","address":"東京都大田区上池台1丁目48-25","lat":35.6004699,"lon":139.69973594},{"name":"区立西六郷三丁目公園","province":"東京都","city":"大田区","address":"東京都大田区西六郷3丁目16-16","lat":35.54629163,"lon":139.7059358},{"name":"区立萩中公園","province":"東京都","city":"大田区","address":"東京都大田区萩中3丁目25-26","lat":35.54972234,"lon":139.73905511},{"name":"区立都堀公園","province":"東京都","city":"大田区","address":"東京都大田区大森東1丁目30","lat":35.57738779,"lon":139.73836722},{"name":"区立下丸子公園","province":"東京都","city":"大田区","address":"東京都大田区下丸子4丁目21","lat":35.56920527,"lon":139.67906532},{"name":"区立女塚なかよし公園","province":"東京都","city":"大田区","address":"東京都大田区池上5丁目24","lat":35.57274857,"lon":139.71105287},{"name":"東海給水所","province":"東京都","city":"大田区","address":"東京都大田区東海1丁目3-12","lat":35.585493,"lon":139.7537297},{"name":"荏原病院","province":"東京都","city":"大田区","address":"東京都大田区東雪谷4丁目5-10","lat":35.59460659,"lon":139.69367561},{"name":"呑川水門","province":"東京都","city":"大田区","address":"東京都大田区大森東5丁目37-28","lat":35.56922547,"lon":139.74610619},{"name":"南前堀水門","province":"東京都","city":"大田区","address":"東京都大田区東糀谷6丁目10-18","lat":35.55664715,"lon":139.75146239},{"name":"大田区立平和島公園運動場","province":"東京都","city":"大田区","address":"東京都大田区平和島4丁目2-2","lat":35.58184851,"lon":139.74213343},{"name":"都立大井埠頭中央海浜公園第２球技場","province":"東京都","city":"大田区","address":"東京都大田区東海1丁目4","lat":35.58593444,"lon":139.74992159},{"name":"京浜島防災広場運動場","province":"東京都","city":"大田区","address":"東京都大田区京浜島2丁目10","lat":35.57091777,"lon":139.7634161},{"name":"丸子橋野球場","province":"東京都","city":"大田区","address":"東京都大田区田園調布本町31","lat":35.58310843,"lon":139.67183161},{"name":"多摩川緑地サッカー場","province":"東京都","city":"大田区","address":"東京都大田区田園調布5丁目54","lat":35.59239824,"lon":139.65872368},{"name":"多摩川緑地野球場（西六郷４丁目）","province":"東京都","city":"大田区","address":"東京都大田区西六郷4丁目33","lat":35.54406986,"lon":139.70286408},{"name":"ガス橋緑地少年サッカー場（下丸子３丁目）","province":"東京都","city":"大田区","address":"東京都大田区下丸子3丁目30","lat":35.5668806,"lon":139.68245956},{"name":"ガス橋緑地少年野球場（下丸子２丁目）","province":"東京都","city":"大田区","address":"東京都大田区下丸子2丁目13","lat":35.56350616,"lon":139.684143},{"name":"東京都保健医療公社荏原病院ヘリポート","province":"東京都","city":"大田区","address":"東京都大田区東雪谷4丁目5-10","lat":35.59460659,"lon":139.69367561},{"name":"東京ガスグラウンド","province":"東京都","city":"大田区","address":"東京都大田区大森東3丁目28-1","lat":35.57249131,"lon":139.7398702},{"name":"多摩川緑地広場硬式野球場Ａ面（旧巨人軍グラウンド）","province":"東京都","city":"大田区","address":"東京都大田区田園調布4丁目44","lat":35.59210389,"lon":139.66145123},{"name":"多摩川大師橋緑地野球場","province":"東京都","city":"大田区","address":"東京都大田区本羽田2丁目14","lat":35.54584467,"lon":139.73048361},{"name":"区民広場（西六郷三丁目）","province":"東京都","city":"大田区","address":"東京都大田区西六郷3丁目13","lat":35.54625004,"lon":139.70335835},{"name":"大田スタジアム","province":"東京都","city":"大田区","address":"東京都大田区東海1丁目2-10","lat":35.58843701,"lon":139.75284626},{"name":"六郷橋緑地野球場","province":"東京都","city":"大田区","address":"東京都大田区東六郷3丁目","lat":35.54202554,"lon":139.71164099},{"name":"多摩川田園調布緑地サッカー場","province":"東京都","city":"大田区","address":"東京都大田区田園調布4丁目","lat":35.59272877,"lon":139.66135396},{"name":"大田区立東調布公園","province":"東京都","city":"大田区","address":"東京都大田区南雪谷5丁目13-1","lat":35.58826574,"lon":139.68930418},{"name":"多摩川大橋緑地","province":"東京都","city":"大田区","address":"東京都大田区矢口3丁目","lat":35.56021468,"lon":139.69576395},{"name":"大田区田園調布南倉庫","province":"東京都","city":"大田区","address":"大田区田園調布南3-8区立田園調布南公園内","lat":35.57919,"lon":139.6752},{"name":"大田区南六郷倉庫","province":"東京都","city":"大田区","address":"大田区南六郷1-29-2-101都市再生機構南六郷一丁目団地内","lat":35.5462,"lon":139.7254},{"name":"東邦薬品（株）ＷＩＬＬ平和島","province":"東京都","city":"大田区","address":"大田区平和島6-1-1(株)東京流通センター内AE4-2","lat":35.57911,"lon":139.7477},{"name":"相互産業（株）","province":"東京都","city":"大田区","address":"大田区中央3-19-5","lat":35.57492,"lon":139.7186},{"name":"城南大橋第二倉庫","province":"東京都","city":"大田区","address":"東京都大田区東海3丁目4-2","lat":35.57794447,"lon":139.76251846},{"name":"馬込給水所","province":"東京都","city":"大田区","address":"東京都大田区西馬込2-15-6","lat":35.5886364,"lon":139.70192},{"name":"上池台給水所","province":"東京都","city":"大田区","address":"東京都大田区上池台1-48-25","lat":35.6004761,"lon":139.699734},{"name":"東海給水所","province":"東京都","city":"大田区","address":"東京都大田区東海1-3-12","lat":35.5852378,"lon":139.75335},{"name":"区立西六郷三丁目公園","province":"東京都","city":"大田区","address":"東京都大田区西六郷3-16-16","lat":35.5463837,"lon":139.705564},{"name":"区立萩中公園","province":"東京都","city":"大田区","address":"東京都大田区萩中3-25-26","lat":35.5507281,"lon":139.737397},{"name":"区立都堀公園","province":"東京都","city":"大田区","address":"東京都大田区大森東1-30","lat":35.57786,"lon":139.7384},{"name":"区立下丸子公園","province":"東京都","city":"大田区","address":"東京都大田区下丸子4-21","lat":35.569444,"lon":139.681378},{"name":"区立女塚なかよし公園","province":"東京都","city":"大田区","address":"東京都大田区池上5-24","lat":35.5727504,"lon":139.711054},{"name":"城南大橋第二","province":"東京都","city":"大田区","address":"東京都大田区東海3丁目4","lat":35.57770285,"lon":139.76242682},{"name":"東邦大学医療センター大森病院","province":"東京都","city":"大田区","address":"東京都大田区大森西6丁目11-1","lat":35.56903533,"lon":139.72396297},{"name":"大森赤十字病院","province":"東京都","city":"大田区","address":"東京都大田区中央4丁目30-1","lat":35.5787979,"lon":139.71718252},{"name":"東京都保健医療公社荏原病院","province":"東京都","city":"大田区","address":"東京都大田区東雪谷4丁目5-10","lat":35.59460659,"lon":139.69367561},{"name":"馬込給水所","province":"東京都","city":"大田区","address":"東京都大田区西馬込2丁目15-6","lat":35.58832131,"lon":139.70213893},{"name":"上池台給水所","province":"東京都","city":"大田区","address":"東京都大田区上池台1丁目48-25","lat":35.6004699,"lon":139.69973594},{"name":"区立西六郷三丁目公園","province":"東京都","city":"大田区","address":"東京都大田区西六郷3丁目16-16","lat":35.54629163,"lon":139.7059358},{"name":"区立萩中公園","province":"東京都","city":"大田区","address":"東京都大田区萩中3丁目25-26","lat":35.54972234,"lon":139.73905511},{"name":"区立都堀公園","province":"東京都","city":"大田区","address":"東京都大田区大森東1丁目30","lat":35.57738779,"lon":139.73836722},{"name":"区立下丸子公園","province":"東京都","city":"大田区","address":"東京都大田区下丸子4丁目21","lat":35.56920527,"lon":139.67906532},{"name":"区立女塚なかよし公園","province":"東京都","city":"大田区","address":"東京都大田区池上5丁目24","lat":35.57274857,"lon":139.71105287},{"name":"東海給水所","province":"東京都","city":"大田区","address":"東京都大田区東海1丁目3-12","lat":35.585493,"lon":139.7537297},{"name":"荏原病院","province":"東京都","city":"大田区","address":"東京都大田区東雪谷4丁目5-10","lat":35.59460659,"lon":139.69367561},{"name":"呑川水門","province":"東京都","city":"大田区","address":"東京都大田区大森東5丁目37-28","lat":35.56922547,"lon":139.74610619},{"name":"南前堀水門","province":"東京都","city":"大田区","address":"東京都大田区東糀谷6丁目10-18","lat":35.55664715,"lon":139.75146239},{"name":"大田区立平和島公園運動場","province":"東京都","city":"大田区","address":"東京都大田区平和島4丁目2-2","lat":35.58184851,"lon":139.74213343},{"name":"都立大井埠頭中央海浜公園第２球技場","province":"東京都","city":"大田区","address":"東京都大田区東海1丁目4","lat":35.58593444,"lon":139.74992159},{"name":"京浜島防災広場運動場","province":"東京都","city":"大田区","address":"東京都大田区京浜島2丁目10","lat":35.57091777,"lon":139.7634161},{"name":"丸子橋野球場","province":"東京都","city":"大田区","address":"東京都大田区田園調布本町31","lat":35.58310843,"lon":139.67183161},{"name":"多摩川緑地サッカー場","province":"東京都","city":"大田区","address":"東京都大田区田園調布5丁目54","lat":35.59239824,"lon":139.65872368},{"name":"多摩川緑地野球場（西六郷４丁目）","province":"東京都","city":"大田区","address":"東京都大田区西六郷4丁目33","lat":35.54406986,"lon":139.70286408},{"name":"ガス橋緑地少年サッカー場（下丸子３丁目）","province":"東京都","city":"大田区","address":"東京都大田区下丸子3丁目30","lat":35.5668806,"lon":139.68245956},{"name":"ガス橋緑地少年野球場（下丸子２丁目）","province":"東京都","city":"大田区","address":"東京都大田区下丸子2丁目13","lat":35.56350616,"lon":139.684143},{"name":"東京都保健医療公社荏原病院ヘリポート","province":"東京都","city":"大田区","address":"東京都大田区東雪谷4丁目5-10","lat":35.59460659,"lon":139.69367561},{"name":"東京ガスグラウンド","province":"東京都","city":"大田区","address":"東京都大田区大森東3丁目28-1","lat":35.57249131,"lon":139.7398702},{"name":"多摩川緑地広場硬式野球場Ａ面（旧巨人軍グラウンド）","province":"東京都","city":"大田区","address":"東京都大田区田園調布4丁目44","lat":35.59210389,"lon":139.66145123},{"name":"多摩川大師橋緑地野球場","province":"東京都","city":"大田区","address":"東京都大田区本羽田2丁目14","lat":35.54584467,"lon":139.73048361},{"name":"区民広場（西六郷三丁目）","province":"東京都","city":"大田区","address":"東京都大田区西六郷3丁目13","lat":35.54625004,"lon":139.70335835},{"name":"大田スタジアム","province":"東京都","city":"大田区","address":"東京都大田区東海1丁目2-10","lat":35.58843701,"lon":139.75284626},{"name":"六郷橋緑地野球場","province":"東京都","city":"大田区","address":"東京都大田区東六郷3丁目","lat":35.54202554,"lon":139.71164099},{"name":"多摩川田園調布緑地サッカー場","province":"東京都","city":"大田区","address":"東京都大田区田園調布4丁目","lat":35.59272877,"lon":139.66135396},{"name":"大田区立東調布公園","province":"東京都","city":"大田区","address":"東京都大田区南雪谷5丁目13-1","lat":35.58826574,"lon":139.68930418},{"name":"多摩川大橋緑地","province":"東京都","city":"大田区","address":"東京都大田区矢口3丁目","lat":35.56021468,"lon":139.69576395},{"name":"大田区田園調布南倉庫","province":"東京都","city":"大田区","address":"大田区田園調布南3-8区立田園調布南公園内","lat":35.57919,"lon":139.6752},{"name":"大田区南六郷倉庫","province":"東京都","city":"大田区","address":"大田区南六郷1-29-2-101都市再生機構南六郷一丁目団地内","lat":35.5462,"lon":139.7254},{"name":"東邦薬品（株）ＷＩＬＬ平和島","province":"東京都","city":"大田区","address":"大田区平和島6-1-1(株)東京流通センター内AE4-2","lat":35.57911,"lon":139.7477},{"name":"相互産業（株）","province":"東京都","city":"大田区","address":"大田区中央3-19-5","lat":35.57492,"lon":139.7186},{"name":"城南大橋第二倉庫","province":"東京都","city":"大田区","address":"東京都大田区東海3丁目4-2","lat":35.57794447,"lon":139.76251846},{"name":"馬込給水所","province":"東京都","city":"大田区","address":"東京都大田区西馬込2-15-6","lat":35.5886364,"lon":139.70192},{"name":"上池台給水所","province":"東京都","city":"大田区","address":"東京都大田区上池台1-48-25","lat":35.6004761,"lon":139.699734},{"name":"東海給水所","province":"東京都","city":"大田区","address":"東京都大田区東海1-3-12","lat":35.5852378,"lon":139.75335},{"name":"区立西六郷三丁目公園","province":"東京都","city":"大田区","address":"東京都大田区西六郷3-16-16","lat":35.5463837,"lon":139.705564},{"name":"区立萩中公園","province":"東京都","city":"大田区","address":"東京都大田区萩中3-25-26","lat":35.5507281,"lon":139.737397},{"name":"区立都堀公園","province":"東京都","city":"大田区","address":"東京都大田区大森東1-30","lat":35.57786,"lon":139.7384},{"name":"区立下丸子公園","province":"東京都","city":"大田区","address":"東京都大田区下丸子4-21","lat":35.569444,"lon":139.681378},{"name":"区立女塚なかよし公園","province":"東京都","city":"大田区","address":"東京都大田区池上5-24","lat":35.5727504,"lon":139.711054},{"name":"城南大橋第二","province":"東京都","city":"大田区","address":"東京都大田区東海3丁目4","lat":35.57770285,"lon":139.76242682},{"name":"東邦大学医療センター大森病院","province":"東京都","city":"大田区","address":"東京都大田区大森西6丁目11-1","lat":35.56903533,"lon":139.72396297},{"name":"大森赤十字病院","province":"東京都","city":"大田区","address":"東京都大田区中央4丁目30-1","lat":35.5787979,"lon":139.71718252},{"name":"東京都保健医療公社荏原病院","province":"東京都","city":"大田区","address":"東京都大田区東雪谷4丁目5-10","lat":35.59460659,"lon":139.69367561},{"name":"荏原病院","province":"東京都","city":"大田区","address":"東京都大田区東雪谷4丁目5-10","lat":35.59460659,"lon":139.69367561},{"name":"呑川水門","province":"東京都","city":"大田区","address":"東京都大田区大森東5丁目37-28","lat":35.56922547,"lon":139.74610619},{"name":"南前堀水門","province":"東京都","city":"大田区","address":"東京都大田区東糀谷6丁目10-18","lat":35.55664715,"lon":139.75146239},{"name":"大田区立平和島公園運動場","province":"東京都","city":"大田区","address":"東京都大田区平和島4丁目2-2","lat":35.58184851,"lon":139.74213343},{"name":"都立大井埠頭中央海浜公園第２球技場","province":"東京都","city":"大田区","address":"東京都大田区東海1丁目4","lat":35.58593444,"lon":139.74992159},{"name":"京浜島防災広場運動場","province":"東京都","city":"大田区","address":"東京都大田区京浜島2丁目10","lat":35.57091777,"lon":139.7634161},{"name":"丸子橋野球場","province":"東京都","city":"大田区","address":"東京都大田区田園調布本町31","lat":35.58310843,"lon":139.67183161},{"name":"多摩川緑地サッカー場","province":"東京都","city":"大田区","address":"東京都大田区田園調布5丁目54","lat":35.59239824,"lon":139.65872368},{"name":"多摩川緑地野球場（西六郷４丁目）","province":"東京都","city":"大田区","address":"東京都大田区西六郷4丁目33","lat":35.54406986,"lon":139.70286408},{"name":"ガス橋緑地少年サッカー場（下丸子３丁目）","province":"東京都","city":"大田区","address":"東京都大田区下丸子3丁目30","lat":35.5668806,"lon":139.68245956},{"name":"ガス橋緑地少年野球場（下丸子２丁目）","province":"東京都","city":"大田区","address":"東京都大田区下丸子2丁目13","lat":35.56350616,"lon":139.684143},{"name":"東京都保健医療公社荏原病院ヘリポート","province":"東京都","city":"大田区","address":"東京都大田区東雪谷4丁目5-10","lat":35.59460659,"lon":139.69367561},{"name":"東京ガスグラウンド","province":"東京都","city":"大田区","address":"東京都大田区大森東3丁目28-1","lat":35.57249131,"lon":139.7398702},{"name":"多摩川緑地広場硬式野球場Ａ面（旧巨人軍グラウンド）","province":"東京都","city":"大田区","address":"東京都大田区田園調布4丁目44","lat":35.59210389,"lon":139.66145123},{"name":"多摩川大師橋緑地野球場","province":"東京都","city":"大田区","address":"東京都大田区本羽田2丁目14","lat":35.54584467,"lon":139.73048361},{"name":"区民広場（西六郷三丁目）","province":"東京都","city":"大田区","address":"東京都大田区西六郷3丁目13","lat":35.54625004,"lon":139.70335835},{"name":"大田スタジアム","province":"東京都","city":"大田区","address":"東京都大田区東海1丁目2-10","lat":35.58843701,"lon":139.75284626},{"name":"六郷橋緑地野球場","province":"東京都","city":"大田区","address":"東京都大田区東六郷3丁目","lat":35.54202554,"lon":139.71164099},{"name":"多摩川田園調布緑地サッカー場","province":"東京都","city":"大田区","address":"東京都大田区田園調布4丁目","lat":35.59272877,"lon":139.66135396},{"name":"大田区立東調布公園","province":"東京都","city":"大田区","address":"東京都大田区南雪谷5丁目13-1","lat":35.58826574,"lon":139.68930418},{"name":"多摩川大橋緑地","province":"東京都","city":"大田区","address":"東京都大田区矢口3丁目","lat":35.56021468,"lon":139.69576395},{"name":"大田区田園調布南倉庫","province":"東京都","city":"大田区","address":"大田区田園調布南3-8区立田園調布南公園内","lat":35.57919,"lon":139.6752},{"name":"大田区南六郷倉庫","province":"東京都","city":"大田区","address":"大田区南六郷1-29-2-101都市再生機構南六郷一丁目団地内","lat":35.5462,"lon":139.7254},{"name":"東邦薬品（株）ＷＩＬＬ平和島","province":"東京都","city":"大田区","address":"大田区平和島6-1-1(株)東京流通センター内AE4-2","lat":35.57911,"lon":139.7477},{"name":"相互産業（株）","province":"東京都","city":"大田区","address":"大田区中央3-19-5","lat":35.57492,"lon":139.7186},{"name":"城南大橋第二倉庫","province":"東京都","city":"大田区","address":"東京都大田区東海3丁目4-2","lat":35.57794447,"lon":139.76251846},{"name":"馬込給水所","province":"東京都","city":"大田区","address":"東京都大田区西馬込2-15-6","lat":35.5886364,"lon":139.70192},{"name":"上池台給水所","province":"東京都","city":"大田区","address":"東京都大田区上池台1-48-25","lat":35.6004761,"lon":139.699734},{"name":"東海給水所","province":"東京都","city":"大田区","address":"東京都大田区東海1-3-12","lat":35.5852378,"lon":139.75335},{"name":"区立西六郷三丁目公園","province":"東京都","city":"大田区","address":"東京都大田区西六郷3-16-16","lat":35.5463837,"lon":139.705564},{"name":"区立萩中公園","province":"東京都","city":"大田区","address":"東京都大田区萩中3-25-26","lat":35.5507281,"lon":139.737397},{"name":"区立都堀公園","province":"東京都","city":"大田区","address":"東京都大田区大森東1-30","lat":35.57786,"lon":139.7384},{"name":"区立下丸子公園","province":"東京都","city":"大田区","address":"東京都大田区下丸子4-21","lat":35.569444,"lon":139.681378},{"name":"区立女塚なかよし公園","province":"東京都","city":"大田区","address":"東京都大田区池上5-24","lat":35.5727504,"lon":139.711054},{"name":"城南大橋第二","province":"東京都","city":"大田区","address":"東京都大田区東海3丁目4","lat":35.57770285,"lon":139.76242682},{"name":"東邦大学医療センター大森病院","province":"東京都","city":"大田区","address":"東京都大田区大森西6丁目11-1","lat":35.56903533,"lon":139.72396297},{"name":"大森赤十字病院","province":"東京都","city":"大田区","address":"東京都大田区中央4丁目30-1","lat":35.5787979,"lon":139.71718252},{"name":"東京都保健医療公社荏原病院","province":"東京都","city":"大田区","address":"東京都大田区東雪谷4丁目5-10","lat":35.59460659,"lon":139.69367561},{"name":"荏原病院","province":"東京都","city":"大田区","address":"東京都大田区東雪谷4丁目5-10","lat":35.59460659,"lon":139.69367561},{"name":"呑川水門","province":"東京都","city":"大田区","address":"東京都大田区大森東5丁目37-28","lat":35.56922547,"lon":139.74610619},{"name":"南前堀水門","province":"東京都","city":"大田区","address":"東京都大田区東糀谷6丁目10-18","lat":35.55664715,"lon":139.75146239},{"name":"大田区田園調布南倉庫","province":"東京都","city":"大田区","address":"大田区田園調布南3-8区立田園調布南公園内","lat":35.57919,"lon":139.6752},{"name":"大田区南六郷倉庫","province":"東京都","city":"大田区","address":"大田区南六郷1-29-2-101都市再生機構南六郷一丁目団地内","lat":35.5462,"lon":139.7254},{"name":"東邦薬品（株）ＷＩＬＬ平和島","province":"東京都","city":"大田区","address":"大田区平和島6-1-1(株)東京流通センター内AE4-2","lat":35.57911,"lon":139.7477},{"name":"相互産業（株）","province":"東京都","city":"大田区","address":"大田区中央3-19-5","lat":35.57492,"lon":139.7186},{"name":"城南大橋第二倉庫","province":"東京都","city":"大田区","address":"東京都大田区東海3丁目4-2","lat":35.57794447,"lon":139.76251846},{"name":"馬込給水所","province":"東京都","city":"大田区","address":"東京都大田区西馬込2-15-6","lat":35.5886364,"lon":139.70192},{"name":"上池台給水所","province":"東京都","city":"大田区","address":"東京都大田区上池台1-48-25","lat":35.6004761,"lon":139.699734},{"name":"東海給水所","province":"東京都","city":"大田区","address":"東京都大田区東海1-3-12","lat":35.5852378,"lon":139.75335},{"name":"区立西六郷三丁目公園","province":"東京都","city":"大田区","address":"東京都大田区西六郷3-16-16","lat":35.5463837,"lon":139.705564},{"name":"区立萩中公園","province":"東京都","city":"大田区","address":"東京都大田区萩中3-25-26","lat":35.5507281,"lon":139.737397},{"name":"区立都堀公園","province":"東京都","city":"大田区","address":"東京都大田区大森東1-30","lat":35.57786,"lon":139.7384},{"name":"区立下丸子公園","province":"東京都","city":"大田区","address":"東京都大田区下丸子4-21","lat":35.569444,"lon":139.681378},{"name":"区立女塚なかよし公園","province":"東京都","city":"大田区","address":"東京都大田区池上5-24","lat":35.5727504,"lon":139.711054},{"name":"城南大橋第二","province":"東京都","city":"大田区","address":"東京都大田区東海3丁目4","lat":35.57770285,"lon":139.76242682},{"name":"東邦大学医療センター大森病院","province":"東京都","city":"大田区","address":"東京都大田区大森西6丁目11-1","lat":35.56903533,"lon":139.72396297},{"name":"大森赤十字病院","province":"東京都","city":"大田区","address":"東京都大田区中央4丁目30-1","lat":35.5787979,"lon":139.71718252},{"name":"東京都保健医療公社荏原病院","province":"東京都","city":"大田区","address":"東京都大田区東雪谷4丁目5-10","lat":35.59460659,"lon":139.69367561},{"name":"荏原病院","province":"東京都","city":"大田区","address":"東京都大田区東雪谷4丁目5-10","lat":35.59460659,"lon":139.69367561},{"name":"呑川水門","province":"東京都","city":"大田区","address":"東京都大田区大森東5丁目37-28","lat":35.56922547,"lon":139.74610619},{"name":"南前堀水門","province":"東京都","city":"大田区","address":"東京都大田区東糀谷6丁目10-18","lat":35.55664715,"lon":139.75146239},{"name":"大田区田園調布南倉庫","province":"東京都","city":"大田区","address":"大田区田園調布南3-8区立田園調布南公園内","lat":35.57919,"lon":139.6752},{"name":"大田区南六郷倉庫","province":"東京都","city":"大田区","address":"大田区南六郷1-29-2-101都市再生機構南六郷一丁目団地内","lat":35.5462,"lon":139.7254},{"name":"東邦薬品（株）ＷＩＬＬ平和島","province":"東京都","city":"大田区","address":"大田区平和島6-1-1(株)東京流通センター内AE4-2","lat":35.57911,"lon":139.7477},{"name":"相互産業（株）","province":"東京都","city":"大田区","address":"大田区中央3-19-5","lat":35.57492,"lon":139.7186},{"name":"城南大橋第二倉庫","province":"東京都","city":"大田区","address":"東京都大田区東海3丁目4-2","lat":35.57794447,"lon":139.76251846},{"name":"馬込給水所","province":"東京都","city":"大田区","address":"東京都大田区西馬込2-15-6","lat":35.5886364,"lon":139.70192},{"name":"上池台給水所","province":"東京都","city":"大田区","address":"東京都大田区上池台1-48-25","lat":35.6004761,"lon":139.699734},{"name":"東海給水所","province":"東京都","city":"大田区","address":"東京都大田区東海1-3-12","lat":35.5852378,"lon":139.75335},{"name":"区立西六郷三丁目公園","province":"東京都","city":"大田区","address":"東京都大田区西六郷3-16-16","lat":35.5463837,"lon":139.705564},{"name":"区立萩中公園","province":"東京都","city":"大田区","address":"東京都大田区萩中3-25-26","lat":35.5507281,"lon":139.737397},{"name":"区立都堀公園","province":"東京都","city":"大田区","address":"東京都大田区大森東1-30","lat":35.57786,"lon":139.7384},{"name":"区立下丸子公園","province":"東京都","city":"大田区","address":"東京都大田区下丸子4-21","lat":35.569444,"lon":139.681378},{"name":"区立女塚なかよし公園","province":"東京都","city":"大田区","address":"東京都大田区池上5-24","lat":35.5727504,"lon":139.711054},{"name":"城南大橋第二","province":"東京都","city":"大田区","address":"東京都大田区東海3丁目4","lat":35.57770285,"lon":139.76242682},{"name":"東邦大学医療センター大森病院","province":"東京都","city":"大田区","address":"東京都大田区大森西6丁目11-1","lat":35.56903533,"lon":139.72396297},{"name":"大森赤十字病院","province":"東京都","city":"大田区","address":"東京都大田区中央4丁目30-1","lat":35.5787979,"lon":139.71718252},{"name":"東京都保健医療公社荏原病院","province":"東京都","city":"大田区","address":"東京都大田区東雪谷4丁目5-10","lat":35.59460659,"lon":139.69367561},{"name":"荏原病院","province":"東京都","city":"大田区","address":"東京都大田区東雪谷4丁目5-10","lat":35.59460659,"lon":139.69367561},{"name":"呑川水門","province":"東京都","city":"大田区","address":"東京都大田区大森東5丁目37-28","lat":35.56922547,"lon":139.74610619},{"name":"南前堀水門","province":"東京都","city":"大田区","address":"東京都大田区東糀谷6丁目10-18","lat":35.55664715,"lon":139.75146239},{"name":"大田区田園調布南倉庫","province":"東京都","city":"大田区","address":"大田区田園調布南3-8区立田園調布南公園内","lat":35.57919,"lon":139.6752},{"name":"大田区南六郷倉庫","province":"東京都","city":"大田区","address":"大田区南六郷1-29-2-101都市再生機構南六郷一丁目団地内","lat":35.5462,"lon":139.7254},{"name":"東邦薬品（株）ＷＩＬＬ平和島","province":"東京都","city":"大田区","address":"大田区平和島6-1-1(株)東京流通センター内AE4-2","lat":35.57911,"lon":139.7477},{"name":"相互産業（株）","province":"東京都","city":"大田区","address":"大田区中央3-19-5","lat":35.57492,"lon":139.7186},{"name":"城南大橋第二倉庫","province":"東京都","city":"大田区","address":"東京都大田区東海3丁目4-2","lat":35.57794447,"lon":139.76251846},{"name":"馬込給水所","province":"東京都","city":"大田区","address":"東京都大田区西馬込2-15-6","lat":35.5886364,"lon":139.70192},{"name":"上池台給水所","province":"東京都","city":"大田区","address":"東京都大田区上池台1-48-25","lat":35.6004761,"lon":139.699734},{"name":"東海給水所","province":"東京都","city":"大田区","address":"東京都大田区東海1-3-12","lat":35.5852378,"lon":139.75335},{"name":"区立西六郷三丁目公園","province":"東京都","city":"大田区","address":"東京都大田区西六郷3-16-16","lat":35.5463837,"lon":139.705564},{"name":"区立萩中公園","province":"東京都","city":"大田区","address":"東京都大田区萩中3-25-26","lat":35.5507281,"lon":139.737397},{"name":"区立都堀公園","province":"東京都","city":"大田区","address":"東京都大田区大森東1-30","lat":35.57786,"lon":139.7384},{"name":"区立下丸子公園","province":"東京都","city":"大田区","address":"東京都大田区下丸子4-21","lat":35.569444,"lon":139.681378},{"name":"区立女塚なかよし公園","province":"東京都","city":"大田区","address":"東京都大田区池上5-24","lat":35.5727504,"lon":139.711054},{"name":"城南大橋第二","province":"東京都","city":"大田区","address":"東京都大田区東海3丁目4","lat":35.57770285,"lon":139.76242682},{"name":"東邦大学医療センター大森病院","province":"東京都","city":"大田区","address":"東京都大田区大森西6丁目11-1","lat":35.56903533,"lon":139.72396297},{"name":"大森赤十字病院","province":"東京都","city":"大田区","address":"東京都大田区中央4丁目30-1","lat":35.5787979,"lon":139.71718252},{"name":"東京都保健医療公社荏原病院","province":"東京都","city":"大田区","address":"東京都大田区東雪谷4丁目5-10","lat":35.59460659,"lon":139.69367561},{"name":"荏原病院","province":"東京都","city":"大田区","address":"東京都大田区東雪谷4丁目5-10","lat":35.59460659,"lon":139.69367561},{"name":"呑川水門","province":"東京都","city":"大田区","address":"東京都大田区大森東5丁目37-28","lat":35.56922547,"lon":139.74610619},{"name":"南前堀水門","province":"東京都","city":"大田区","address":"東京都大田区東糀谷6丁目10-18","lat":35.55664715,"lon":139.75146239},{"name":"大田区田園調布南倉庫","province":"東京都","city":"大田区","address":"大田区田園調布南3-8区立田園調布南公園内","lat":35.57919,"lon":139.6752},{"name":"大田区南六郷倉庫","province":"東京都","city":"大田区","address":"大田区南六郷1-29-2-101都市再生機構南六郷一丁目団地内","lat":35.5462,"lon":139.7254},{"name":"東邦薬品（株）ＷＩＬＬ平和島","province":"東京都","city":"大田区","address":"大田区平和島6-1-1(株)東京流通センター内AE4-2","lat":35.57911,"lon":139.7477},{"name":"相互産業（株）","province":"東京都","city":"大田区","address":"大田区中央3-19-5","lat":35.57492,"lon":139.7186},{"name":"城南大橋第二倉庫","province":"東京都","city":"大田区","address":"東京都大田区東海3丁目4-2","lat":35.57794447,"lon":139.76251846},{"name":"馬込給水所","province":"東京都","city":"大田区","address":"東京都大田区西馬込2-15-6","lat":35.5886364,"lon":139.70192},{"name":"上池台給水所","province":"東京都","city":"大田区","address":"東京都大田区上池台1-48-25","lat":35.6004761,"lon":139.699734},{"name":"東海給水所","province":"東京都","city":"大田区","address":"東京都大田区東海1-3-12","lat":35.5852378,"lon":139.75335},{"name":"区立西六郷三丁目公園","province":"東京都","city":"大田区","address":"東京都大田区西六郷3-16-16","lat":35.5463837,"lon":139.705564},{"name":"区立萩中公園","province":"東京都","city":"大田区","address":"東京都大田区萩中3-25-26","lat":35.5507281,"lon":139.737397},{"name":"区立都堀公園","province":"東京都","city":"大田区","address":"東京都大田区大森東1-30","lat":35.57786,"lon":139.7384},{"name":"区立下丸子公園","province":"東京都","city":"大田区","address":"東京都大田区下丸子4-21","lat":35.569444,"lon":139.681378},{"name":"区立女塚なかよし公園","province":"東京都","city":"大田区","address":"東京都大田区池上5-24","lat":35.5727504,"lon":139.711054},{"name":"城南大橋第二","province":"東京都","city":"大田区","address":"東京都大田区東海3丁目4","lat":35.57770285,"lon":139.76242682},{"name":"東邦大学医療センター大森病院","province":"東京都","city":"大田区","address":"東京都大田区大森西6丁目11-1","lat":35.56903533,"lon":139.72396297},{"name":"大森赤十字病院","province":"東京都","city":"大田区","address":"東京都大田区中央4丁目30-1","lat":35.5787979,"lon":139.71718252},{"name":"東京都保健医療公社荏原病院","province":"東京都","city":"大田区","address":"東京都大田区東雪谷4丁目5-10","lat":35.59460659,"lon":139.69367561},{"name":"荏原病院","province":"東京都","city":"大田区","address":"東京都大田区東雪谷4丁目5-10","lat":35.59460659,"lon":139.69367561},{"name":"呑川水門","province":"東京都","city":"大田区","address":"東京都大田区大森東5丁目37-28","lat":35.56922547,"lon":139.74610619},{"name":"南前堀水門","province":"東京都","city":"大田区","address":"東京都大田区東糀谷6丁目10-18","lat":35.55664715,"lon":139.75146239},{"name":"大田区田園調布南倉庫","province":"東京都","city":"大田区","address":"大田区田園調布南3-8区立田園調布南公園内","lat":35.57919,"lon":139.6752},{"name":"大田区南六郷倉庫","province":"東京都","city":"大田区","address":"大田区南六郷1-29-2-101都市再生機構南六郷一丁目団地内","lat":35.5462,"lon":139.7254},{"name":"東邦薬品（株）ＷＩＬＬ平和島","province":"東京都","city":"大田区","address":"大田区平和島6-1-1(株)東京流通センター内AE4-2","lat":35.57911,"lon":139.7477},{"name":"相互産業（株）","province":"東京都","city":"大田区","address":"大田区中央3-19-5","lat":35.57492,"lon":139.7186},{"name":"城南大橋第二倉庫","province":"東京都","city":"大田区","address":"東京都大田区東海3丁目4-2","lat":35.57794447,"lon":139.76251846},{"name":"馬込給水所","province":"東京都","city":"大田区","address":"東京都大田区西馬込2-15-6","lat":35.5886364,"lon":139.70192},{"name":"上池台給水所","province":"東京都","city":"大田区","address":"東京都大田区上池台1-48-25","lat":35.6004761,"lon":139.699734},{"name":"東海給水所","province":"東京都","city":"大田区","address":"東京都大田区東海1-3-12","lat":35.5852378,"lon":139.75335},{"name":"区立西六郷三丁目公園","province":"東京都","city":"大田区","address":"東京都大田区西六郷3-16-16","lat":35.5463837,"lon":139.705564},{"name":"区立萩中公園","province":"東京都","city":"大田区","address":"東京都大田区萩中3-25-26","lat":35.5507281,"lon":139.737397},{"name":"区立都堀公園","province":"東京都","city":"大田区","address":"東京都大田区大森東1-30","lat":35.57786,"lon":139.7384},{"name":"区立下丸子公園","province":"東京都","city":"大田区","address":"東京都大田区下丸子4-21","lat":35.569444,"lon":139.681378},{"name":"区立女塚なかよし公園","province":"東京都","city":"大田区","address":"東京都大田区池上5-24","lat":35.5727504,"lon":139.711054},{"name":"城南大橋第二","province":"東京都","city":"大田区","address":"東京都大田区東海3丁目4","lat":35.57770285,"lon":139.76242682},{"name":"東邦大学医療センター大森病院","province":"東京都","city":"大田区","address":"東京都大田区大森西6丁目11-1","lat":35.56903533,"lon":139.72396297},{"name":"大森赤十字病院","province":"東京都","city":"大田区","address":"東京都大田区中央4丁目30-1","lat":35.5787979,"lon":139.71718252},{"name":"東京都保健医療公社荏原病院","province":"東京都","city":"大田区","address":"東京都大田区東雪谷4丁目5-10","lat":35.59460659,"lon":139.69367561},{"name":"荏原病院","province":"東京都","city":"大田区","address":"東京都大田区東雪谷4丁目5-10","lat":35.59460659,"lon":139.69367561},{"name":"呑川水門","province":"東京都","city":"大田区","address":"東京都大田区大森東5丁目37-28","lat":35.56922547,"lon":139.74610619},{"name":"南前堀水門","province":"東京都","city":"大田区","address":"東京都大田区東糀谷6丁目10-18","lat":35.55664715,"lon":139.75146239},{"name":"大田区田園調布南倉庫","province":"東京都","city":"大田区","address":"大田区田園調布南3-8区立田園調布南公園内","lat":35.57919,"lon":139.6752},{"name":"大田区南六郷倉庫","province":"東京都","city":"大田区","address":"大田区南六郷1-29-2-101都市再生機構南六郷一丁目団地内","lat":35.5462,"lon":139.7254},{"name":"東邦薬品（株）ＷＩＬＬ平和島","province":"東京都","city":"大田区","address":"大田区平和島6-1-1(株)東京流通センター内AE4-2","lat":35.57911,"lon":139.7477},{"name":"相互産業（株）","province":"東京都","city":"大田区","address":"大田区中央3-19-5","lat":35.57492,"lon":139.7186},{"name":"城南大橋第二倉庫","province":"東京都","city":"大田区","address":"東京都大田区東海3丁目4-2","lat":35.57794447,"lon":139.76251846},{"name":"馬込給水所","province":"東京都","city":"大田区","address":"東京都大田区西馬込2-15-6","lat":35.5886364,"lon":139.70192},{"name":"上池台給水所","province":"東京都","city":"大田区","address":"東京都大田区上池台1-48-25","lat":35.6004761,"lon":139.699734},{"name":"東海給水所","province":"東京都","city":"大田区","address":"東京都大田区東海1-3-12","lat":35.5852378,"lon":139.75335},{"name":"区立西六郷三丁目公園","province":"東京都","city":"大田区","address":"東京都大田区西六郷3-16-16","lat":35.5463837,"lon":139.705564},{"name":"区立萩中公園","province":"東京都","city":"大田区","address":"東京都大田区萩中3-25-26","lat":35.5507281,"lon":139.737397},{"name":"区立都堀公園","province":"東京都","city":"大田区","address":"東京都大田区大森東1-30","lat":35.57786,"lon":139.7384},{"name":"区立下丸子公園","province":"東京都","city":"大田区","address":"東京都大田区下丸子4-21","lat":35.569444,"lon":139.681378},{"name":"区立女塚なかよし公園","province":"東京都","city":"大田区","address":"東京都大田区池上5-24","lat":35.5727504,"lon":139.711054},{"name":"城南大橋第二","province":"東京都","city":"大田区","address":"東京都大田区東海3丁目4","lat":35.57770285,"lon":139.76242682},{"name":"呑川水門","province":"東京都","city":"大田区","address":"東京都大田区大森東5丁目37-28","lat":35.56922547,"lon":139.74610619},{"name":"南前堀水門","province":"東京都","city":"大田区","address":"東京都大田区東糀谷6丁目10-18","lat":35.55664715,"lon":139.75146239},{"name":"大田区田園調布南倉庫","province":"東京都","city":"大田区","address":"大田区田園調布南3-8区立田園調布南公園内","lat":35.57919,"lon":139.6752},{"name":"大田区南六郷倉庫","province":"東京都","city":"大田区","address":"大田区南六郷1-29-2-101都市再生機構南六郷一丁目団地内","lat":35.5462,"lon":139.7254},{"name":"東邦薬品（株）ＷＩＬＬ平和島","province":"東京都","city":"大田区","address":"大田区平和島6-1-1(株)東京流通センター内AE4-2","lat":35.57911,"lon":139.7477},{"name":"相互産業（株）","province":"東京都","city":"大田区","address":"大田区中央3-19-5","lat":35.57492,"lon":139.7186},{"name":"城南大橋第二倉庫","province":"東京都","city":"大田区","address":"東京都大田区東海3丁目4-2","lat":35.57794447,"lon":139.76251846},{"name":"馬込給水所","province":"東京都","city":"大田区","address":"東京都大田区西馬込2-15-6","lat":35.5886364,"lon":139.70192},{"name":"上池台給水所","province":"東京都","city":"大田区","address":"東京都大田区上池台1-48-25","lat":35.6004761,"lon":139.699734},{"name":"東海給水所","province":"東京都","city":"大田区","address":"東京都大田区東海1-3-12","lat":35.5852378,"lon":139.75335},{"name":"区立西六郷三丁目公園","province":"東京都","city":"大田区","address":"東京都大田区西六郷3-16-16","lat":35.5463837,"lon":139.705564},{"name":"区立萩中公園","province":"東京都","city":"大田区","address":"東京都大田区萩中3-25-26","lat":35.5507281,"lon":139.737397},{"name":"区立都堀公園","province":"東京都","city":"大田区","address":"東京都大田区大森東1-30","lat":35.57786,"lon":139.7384},{"name":"区立下丸子公園","province":"東京都","city":"大田区","address":"東京都大田区下丸子4-21","lat":35.569444,"lon":139.681378},{"name":"区立女塚なかよし公園","province":"東京都","city":"大田区","address":"東京都大田区池上5-24","lat":35.5727504,"lon":139.711054},{"name":"城南大橋第二","province":"東京都","city":"大田区","address":"東京都大田区東海3丁目4","lat":35.57770285,"lon":139.76242682},{"name":"呑川水門","province":"東京都","city":"大田区","address":"東京都大田区大森東5丁目37-28","lat":35.56922547,"lon":139.74610619},{"name":"南前堀水門","province":"東京都","city":"大田区","address":"東京都大田区東糀谷6丁目10-18","lat":35.55664715,"lon":139.75146239},{"name":"大田区田園調布南倉庫","province":"東京都","city":"大田区","address":"大田区田園調布南3-8区立田園調布南公園内","lat":35.57919,"lon":139.6752},{"name":"大田区南六郷倉庫","province":"東京都","city":"大田区","address":"大田区南六郷1-29-2-101都市再生機構南六郷一丁目団地内","lat":35.5462,"lon":139.7254},{"name":"東邦薬品（株）ＷＩＬＬ平和島","province":"東京都","city":"大田区","address":"大田区平和島6-1-1(株)東京流通センター内AE4-2","lat":35.57911,"lon":139.7477},{"name":"相互産業（株）","province":"東京都","city":"大田区","address":"大田区中央3-19-5","lat":35.57492,"lon":139.7186},{"name":"城南大橋第二倉庫","province":"東京都","city":"大田区","address":"東京都大田区東海3丁目4-2","lat":35.57794447,"lon":139.76251846},{"name":"馬込給水所","province":"東京都","city":"大田区","address":"東京都大田区西馬込2-15-6","lat":35.5886364,"lon":139.70192},{"name":"上池台給水所","province":"東京都","city":"大田区","address":"東京都大田区上池台1-48-25","lat":35.6004761,"lon":139.699734},{"name":"東海給水所","province":"東京都","city":"大田区","address":"東京都大田区東海1-3-12","lat":35.5852378,"lon":139.75335},{"name":"区立西六郷三丁目公園","province":"東京都","city":"大田区","address":"東京都大田区西六郷3-16-16","lat":35.5463837,"lon":139.705564},{"name":"区立萩中公園","province":"東京都","city":"大田区","address":"東京都大田区萩中3-25-26","lat":35.5507281,"lon":139.737397},{"name":"区立都堀公園","province":"東京都","city":"大田区","address":"東京都大田区大森東1-30","lat":35.57786,"lon":139.7384},{"name":"区立下丸子公園","province":"東京都","city":"大田区","address":"東京都大田区下丸子4-21","lat":35.569444,"lon":139.681378},{"name":"区立女塚なかよし公園","province":"東京都","city":"大田区","address":"東京都大田区池上5-24","lat":35.5727504,"lon":139.711054},{"name":"城南大橋第二","province":"東京都","city":"大田区","address":"東京都大田区東海3丁目4","lat":35.57770285,"lon":139.76242682},{"name":"大田区田園調布南倉庫","province":"東京都","city":"大田区","address":"大田区田園調布南3-8区立田園調布南公園内","lat":35.57919,"lon":139.6752},{"name":"大田区南六郷倉庫","province":"東京都","city":"大田区","address":"大田区南六郷1-29-2-101都市再生機構南六郷一丁目団地内","lat":35.5462,"lon":139.7254},{"name":"東邦薬品（株）ＷＩＬＬ平和島","province":"東京都","city":"大田区","address":"大田区平和島6-1-1(株)東京流通センター内AE4-2","lat":35.57911,"lon":139.7477},{"name":"相互産業（株）","province":"東京都","city":"大田区","address":"大田区中央3-19-5","lat":35.57492,"lon":139.7186},{"name":"城南大橋第二倉庫","province":"東京都","city":"大田区","address":"東京都大田区東海3丁目4-2","lat":35.57794447,"lon":139.76251846},{"name":"馬込給水所","province":"東京都","city":"大田区","address":"東京都大田区西馬込2-15-6","lat":35.5886364,"lon":139.70192},{"name":"上池台給水所","province":"東京都","city":"大田区","address":"東京都大田区上池台1-48-25","lat":35.6004761,"lon":139.699734},{"name":"東海給水所","province":"東京都","city":"大田区","address":"東京都大田区東海1-3-12","lat":35.5852378,"lon":139.75335},{"name":"区立西六郷三丁目公園","province":"東京都","city":"大田区","address":"東京都大田区西六郷3-16-16","lat":35.5463837,"lon":139.705564},{"name":"区立萩中公園","province":"東京都","city":"大田区","address":"東京都大田区萩中3-25-26","lat":35.5507281,"lon":139.737397},{"name":"区立都堀公園","province":"東京都","city":"大田区","address":"東京都大田区大森東1-30","lat":35.57786,"lon":139.7384},{"name":"区立下丸子公園","province":"東京都","city":"大田区","address":"東京都大田区下丸子4-21","lat":35.569444,"lon":139.681378},{"name":"区立女塚なかよし公園","province":"東京都","city":"大田区","address":"東京都大田区池上5-24","lat":35.5727504,"lon":139.711054},{"name":"城南大橋第二","province":"東京都","city":"大田区","address":"東京都大田区東海3丁目4","lat":35.57770285,"lon":139.76242682},{"name":"大田区田園調布南倉庫","province":"東京都","city":"大田区","address":"大田区田園調布南3-8区立田園調布南公園内","lat":35.57919,"lon":139.6752},{"name":"大田区南六郷倉庫","province":"東京都","city":"大田区","address":"大田区南六郷1-29-2-101都市再生機構南六郷一丁目団地内","lat":35.5462,"lon":139.7254},{"name":"東邦薬品（株）ＷＩＬＬ平和島","province":"東京都","city":"大田区","address":"大田区平和島6-1-1(株)東京流通センター内AE4-2","lat":35.57911,"lon":139.7477},{"name":"相互産業（株）","province":"東京都","city":"大田区","address":"大田区中央3-19-5","lat":35.57492,"lon":139.7186},{"name":"城南大橋第二倉庫","province":"東京都","city":"大田区","address":"東京都大田区東海3丁目4-2","lat":35.57794447,"lon":139.76251846},{"name":"馬込給水所","province":"東京都","city":"大田区","address":"東京都大田区西馬込2-15-6","lat":35.5886364,"lon":139.70192},{"name":"上池台給水所","province":"東京都","city":"大田区","address":"東京都大田区上池台1-48-25","lat":35.6004761,"lon":139.699734},{"name":"東海給水所","province":"東京都","city":"大田区","address":"東京都大田区東海1-3-12","lat":35.5852378,"lon":139.75335},{"name":"区立西六郷三丁目公園","province":"東京都","city":"大田区","address":"東京都大田区西六郷3-16-16","lat":35.5463837,"lon":139.705564},{"name":"区立萩中公園","province":"東京都","city":"大田区","address":"東京都大田区萩中3-25-26","lat":35.5507281,"lon":139.737397},{"name":"区立都堀公園","province":"東京都","city":"大田区","address":"東京都大田区大森東1-30","lat":35.57786,"lon":139.7384},{"name":"区立下丸子公園","province":"東京都","city":"大田区","address":"東京都大田区下丸子4-21","lat":35.569444,"lon":139.681378},{"name":"区立女塚なかよし公園","province":"東京都","city":"大田区","address":"東京都大田区池上5-24","lat":35.5727504,"lon":139.711054},{"name":"城南大橋第二","province":"東京都","city":"大田区","address":"東京都大田区東海3丁目4","lat":35.57770285,"lon":139.76242682},{"name":"大田区田園調布南倉庫","province":"東京都","city":"大田区","address":"大田区田園調布南3-8区立田園調布南公園内","lat":35.57919,"lon":139.6752},{"name":"大田区南六郷倉庫","province":"東京都","city":"大田区","address":"大田区南六郷1-29-2-101都市再生機構南六郷一丁目団地内","lat":35.5462,"lon":139.7254},{"name":"東邦薬品（株）ＷＩＬＬ平和島","province":"東京都","city":"大田区","address":"大田区平和島6-1-1(株)東京流通センター内AE4-2","lat":35.57911,"lon":139.7477},{"name":"相互産業（株）","province":"東京都","city":"大田区","address":"大田区中央3-19-5","lat":35.57492,"lon":139.7186},{"name":"城南大橋第二倉庫","province":"東京都","city":"大田区","address":"東京都大田区東海3丁目4-2","lat":35.57794447,"lon":139.76251846},{"name":"馬込給水所","province":"東京都","city":"大田区","address":"東京都大田区西馬込2-15-6","lat":35.5886364,"lon":139.70192},{"name":"上池台給水所","province":"東京都","city":"大田区","address":"東京都大田区上池台1-48-25","lat":35.6004761,"lon":139.699734},{"name":"東海給水所","province":"東京都","city":"大田区","address":"東京都大田区東海1-3-12","lat":35.5852378,"lon":139.75335},{"name":"区立西六郷三丁目公園","province":"東京都","city":"大田区","address":"東京都大田区西六郷3-16-16","lat":35.5463837,"lon":139.705564},{"name":"区立萩中公園","province":"東京都","city":"大田区","address":"東京都大田区萩中3-25-26","lat":35.5507281,"lon":139.737397},{"name":"区立都堀公園","province":"東京都","city":"大田区","address":"東京都大田区大森東1-30","lat":35.57786,"lon":139.7384},{"name":"区立下丸子公園","province":"東京都","city":"大田区","address":"東京都大田区下丸子4-21","lat":35.569444,"lon":139.681378},{"name":"区立女塚なかよし公園","province":"東京都","city":"大田区","address":"東京都大田区池上5-24","lat":35.5727504,"lon":139.711054},{"name":"城南大橋第二","province":"東京都","city":"大田区","address":"東京都大田区東海3丁目4","lat":35.57770285,"lon":139.76242682},{"name":"大田区田園調布南倉庫","province":"東京都","city":"大田区","address":"大田区田園調布南3-8区立田園調布南公園内","lat":35.57919,"lon":139.6752},{"name":"大田区南六郷倉庫","province":"東京都","city":"大田区","address":"大田区南六郷1-29-2-101都市再生機構南六郷一丁目団地内","lat":35.5462,"lon":139.7254},{"name":"東邦薬品（株）ＷＩＬＬ平和島","province":"東京都","city":"大田区","address":"大田区平和島6-1-1(株)東京流通センター内AE4-2","lat":35.57911,"lon":139.7477},{"name":"相互産業（株）","province":"東京都","city":"大田区","address":"大田区中央3-19-5","lat":35.57492,"lon":139.7186},{"name":"城南大橋第二倉庫","province":"東京都","city":"大田区","address":"東京都大田区東海3丁目4-2","lat":35.57794447,"lon":139.76251846},{"name":"馬込給水所","province":"東京都","city":"大田区","address":"東京都大田区西馬込2-15-6","lat":35.5886364,"lon":139.70192},{"name":"上池台給水所","province":"東京都","city":"大田区","address":"東京都大田区上池台1-48-25","lat":35.6004761,"lon":139.699734},{"name":"東海給水所","province":"東京都","city":"大田区","address":"東京都大田区東海1-3-12","lat":35.5852378,"lon":139.75335},{"name":"区立西六郷三丁目公園","province":"東京都","city":"大田区","address":"東京都大田区西六郷3-16-16","lat":35.5463837,"lon":139.705564},{"name":"区立萩中公園","province":"東京都","city":"大田区","address":"東京都大田区萩中3-25-26","lat":35.5507281,"lon":139.737397},{"name":"区立都堀公園","province":"東京都","city":"大田区","address":"東京都大田区大森東1-30","lat":35.57786,"lon":139.7384},{"name":"区立下丸子公園","province":"東京都","city":"大田区","address":"東京都大田区下丸子4-21","lat":35.569444,"lon":139.681378},{"name":"区立女塚なかよし公園","province":"東京都","city":"大田区","address":"東京都大田区池上5-24","lat":35.5727504,"lon":139.711054},{"name":"城南大橋第二","province":"東京都","city":"大田区","address":"東京都大田区東海3丁目4","lat":35.57770285,"lon":139.76242682},{"name":"大田区田園調布南倉庫","province":"東京都","city":"大田区","address":"大田区田園調布南3-8区立田園調布南公園内","lat":35.57919,"lon":139.6752},{"name":"大田区南六郷倉庫","province":"東京都","city":"大田区","address":"大田区南六郷1-29-2-101都市再生機構南六郷一丁目団地内","lat":35.5462,"lon":139.7254},{"name":"東邦薬品（株）ＷＩＬＬ平和島","province":"東京都","city":"大田区","address":"大田区平和島6-1-1(株)東京流通センター内AE4-2","lat":35.57911,"lon":139.7477},{"name":"相互産業（株）","province":"東京都","city":"大田区","address":"大田区中央3-19-5","lat":35.57492,"lon":139.7186},{"name":"城南大橋第二倉庫","province":"東京都","city":"大田区","address":"東京都大田区東海3丁目4-2","lat":35.57794447,"lon":139.76251846},{"name":"馬込給水所","province":"東京都","city":"大田区","address":"東京都大田区西馬込2-15-6","lat":35.5886364,"lon":139.70192},{"name":"上池台給水所","province":"東京都","city":"大田区","address":"東京都大田区上池台1-48-25","lat":35.6004761,"lon":139.699734},{"name":"東海給水所","province":"東京都","city":"大田区","address":"東京都大田区東海1-3-12","lat":35.5852378,"lon":139.75335},{"name":"区立西六郷三丁目公園","province":"東京都","city":"大田区","address":"東京都大田区西六郷3-16-16","lat":35.5463837,"lon":139.705564},{"name":"区立萩中公園","province":"東京都","city":"大田区","address":"東京都大田区萩中3-25-26","lat":35.5507281,"lon":139.737397},{"name":"区立都堀公園","province":"東京都","city":"大田区","address":"東京都大田区大森東1-30","lat":35.57786,"lon":139.7384},{"name":"区立下丸子公園","province":"東京都","city":"大田区","address":"東京都大田区下丸子4-21","lat":35.569444,"lon":139.681378},{"name":"区立女塚なかよし公園","province":"東京都","city":"大田区","address":"東京都大田区池上5-24","lat":35.5727504,"lon":139.711054},{"name":"城南大橋第二","province":"東京都","city":"大田区","address":"東京都大田区東海3丁目4","lat":35.57770285,"lon":139.76242682},{"name":"大田区田園調布南倉庫","province":"東京都","city":"大田区","address":"大田区田園調布南3-8区立田園調布南公園内","lat":35.57919,"lon":139.6752},{"name":"大田区南六郷倉庫","province":"東京都","city":"大田区","address":"大田区南六郷1-29-2-101都市再生機構南六郷一丁目団地内","lat":35.5462,"lon":139.7254},{"name":"東邦薬品（株）ＷＩＬＬ平和島","province":"東京都","city":"大田区","address":"大田区平和島6-1-1(株)東京流通センター内AE4-2","lat":35.57911,"lon":139.7477},{"name":"相互産業（株）","province":"東京都","city":"大田区","address":"大田区中央3-19-5","lat":35.57492,"lon":139.7186},{"name":"城南大橋第二倉庫","province":"東京都","city":"大田区","address":"東京都大田区東海3丁目4-2","lat":35.57794447,"lon":139.76251846},{"name":"馬込給水所","province":"東京都","city":"大田区","address":"東京都大田区西馬込2-15-6","lat":35.5886364,"lon":139.70192},{"name":"上池台給水所","province":"東京都","city":"大田区","address":"東京都大田区上池台1-48-25","lat":35.6004761,"lon":139.699734},{"name":"東海給水所","province":"東京都","city":"大田区","address":"東京都大田区東海1-3-12","lat":35.5852378,"lon":139.75335},{"name":"区立西六郷三丁目公園","province":"東京都","city":"大田区","address":"東京都大田区西六郷3-16-16","lat":35.5463837,"lon":139.705564},{"name":"区立萩中公園","province":"東京都","city":"大田区","address":"東京都大田区萩中3-25-26","lat":35.5507281,"lon":139.737397},{"name":"区立都堀公園","province":"東京都","city":"大田区","address":"東京都大田区大森東1-30","lat":35.57786,"lon":139.7384},{"name":"区立下丸子公園","province":"東京都","city":"大田区","address":"東京都大田区下丸子4-21","lat":35.569444,"lon":139.681378},{"name":"区立女塚なかよし公園","province":"東京都","city":"大田区","address":"東京都大田区池上5-24","lat":35.5727504,"lon":139.711054},{"name":"城南大橋第二","province":"東京都","city":"大田区","address":"東京都大田区東海3丁目4","lat":35.57770285,"lon":139.76242682},{"name":"大田区田園調布南倉庫","province":"東京都","city":"大田区","address":"大田区田園調布南3-8区立田園調布南公園内","lat":35.57919,"lon":139.6752},{"name":"大田区南六郷倉庫","province":"東京都","city":"大田区","address":"大田区南六郷1-29-2-101都市再生機構南六郷一丁目団地内","lat":35.5462,"lon":139.7254},{"name":"東邦薬品（株）ＷＩＬＬ平和島","province":"東京都","city":"大田区","address":"大田区平和島6-1-1(株)東京流通センター内AE4-2","lat":35.57911,"lon":139.7477},{"name":"相互産業（株）","province":"東京都","city":"大田区","address":"大田区中央3-19-5","lat":35.57492,"lon":139.7186},{"name":"城南大橋第二倉庫","province":"東京都","city":"大田区","address":"東京都大田区東海3丁目4-2","lat":35.57794447,"lon":139.76251846},{"name":"馬込給水所","province":"東京都","city":"大田区","address":"東京都大田区西馬込2-15-6","lat":35.5886364,"lon":139.70192},{"name":"上池台給水所","province":"東京都","city":"大田区","address":"東京都大田区上池台1-48-25","lat":35.6004761,"lon":139.699734},{"name":"東海給水所","province":"東京都","city":"大田区","address":"東京都大田区東海1-3-12","lat":35.5852378,"lon":139.75335},{"name":"区立西六郷三丁目公園","province":"東京都","city":"大田区","address":"東京都大田区西六郷3-16-16","lat":35.5463837,"lon":139.705564},{"name":"区立萩中公園","province":"東京都","city":"大田区","address":"東京都大田区萩中3-25-26","lat":35.5507281,"lon":139.737397},{"name":"区立都堀公園","province":"東京都","city":"大田区","address":"東京都大田区大森東1-30","lat":35.57786,"lon":139.7384},{"name":"区立下丸子公園","province":"東京都","city":"大田区","address":"東京都大田区下丸子4-21","lat":35.569444,"lon":139.681378},{"name":"区立女塚なかよし公園","province":"東京都","city":"大田区","address":"東京都大田区池上5-24","lat":35.5727504,"lon":139.711054},{"name":"城南大橋第二","province":"東京都","city":"大田区","address":"東京都大田区東海3丁目4","lat":35.57770285,"lon":139.76242682},{"name":"大田区田園調布南倉庫","province":"東京都","city":"大田区","address":"大田区田園調布南3-8区立田園調布南公園内","lat":35.57919,"lon":139.6752},{"name":"大田区南六郷倉庫","province":"東京都","city":"大田区","address":"大田区南六郷1-29-2-101都市再生機構南六郷一丁目団地内","lat":35.5462,"lon":139.7254},{"name":"東邦薬品（株）ＷＩＬＬ平和島","province":"東京都","city":"大田区","address":"大田区平和島6-1-1(株)東京流通センター内AE4-2","lat":35.57911,"lon":139.7477},{"name":"相互産業（株）","province":"東京都","city":"大田区","address":"大田区中央3-19-5","lat":35.57492,"lon":139.7186},{"name":"城南大橋第二倉庫","province":"東京都","city":"大田区","address":"東京都大田区東海3丁目4-2","lat":35.57794447,"lon":139.76251846},{"name":"馬込給水所","province":"東京都","city":"大田区","address":"東京都大田区西馬込2-15-6","lat":35.5886364,"lon":139.70192},{"name":"上池台給水所","province":"東京都","city":"大田区","address":"東京都大田区上池台1-48-25","lat":35.6004761,"lon":139.699734},{"name":"東海給水所","province":"東京都","city":"大田区","address":"東京都大田区東海1-3-12","lat":35.5852378,"lon":139.75335},{"name":"区立西六郷三丁目公園","province":"東京都","city":"大田区","address":"東京都大田区西六郷3-16-16","lat":35.5463837,"lon":139.705564},{"name":"区立萩中公園","province":"東京都","city":"大田区","address":"東京都大田区萩中3-25-26","lat":35.5507281,"lon":139.737397},{"name":"区立都堀公園","province":"東京都","city":"大田区","address":"東京都大田区大森東1-30","lat":35.57786,"lon":139.7384},{"name":"区立下丸子公園","province":"東京都","city":"大田区","address":"東京都大田区下丸子4-21","lat":35.569444,"lon":139.681378},{"name":"区立女塚なかよし公園","province":"東京都","city":"大田区","address":"東京都大田区池上5-24","lat":35.5727504,"lon":139.711054},{"name":"城南大橋第二","province":"東京都","city":"大田区","address":"東京都大田区東海3丁目4","lat":35.57770285,"lon":139.76242682},{"name":"大田区田園調布南倉庫","province":"東京都","city":"大田区","address":"大田区田園調布南3-8区立田園調布南公園内","lat":35.57919,"lon":139.6752},{"name":"大田区南六郷倉庫","province":"東京都","city":"大田区","address":"大田区南六郷1-29-2-101都市再生機構南六郷一丁目団地内","lat":35.5462,"lon":139.7254},{"name":"東邦薬品（株）ＷＩＬＬ平和島","province":"東京都","city":"大田区","address":"大田区平和島6-1-1(株)東京流通センター内AE4-2","lat":35.57911,"lon":139.7477},{"name":"相互産業（株）","province":"東京都","city":"大田区","address":"大田区中央3-19-5","lat":35.57492,"lon":139.7186},{"name":"城南大橋第二倉庫","province":"東京都","city":"大田区","address":"東京都大田区東海3丁目4-2","lat":35.57794447,"lon":139.76251846},{"name":"馬込給水所","province":"東京都","city":"大田区","address":"東京都大田区西馬込2-15-6","lat":35.5886364,"lon":139.70192},{"name":"上池台給水所","province":"東京都","city":"大田区","address":"東京都大田区上池台1-48-25","lat":35.6004761,"lon":139.699734},{"name":"東海給水所","province":"東京都","city":"大田区","address":"東京都大田区東海1-3-12","lat":35.5852378,"lon":139.75335},{"name":"区立西六郷三丁目公園","province":"東京都","city":"大田区","address":"東京都大田区西六郷3-16-16","lat":35.5463837,"lon":139.705564},{"name":"区立萩中公園","province":"東京都","city":"大田区","address":"東京都大田区萩中3-25-26","lat":35.5507281,"lon":139.737397},{"name":"区立都堀公園","province":"東京都","city":"大田区","address":"東京都大田区大森東1-30","lat":35.57786,"lon":139.7384},{"name":"区立下丸子公園","province":"東京都","city":"大田区","address":"東京都大田区下丸子4-21","lat":35.569444,"lon":139.681378},{"name":"区立女塚なかよし公園","province":"東京都","city":"大田区","address":"東京都大田区池上5-24","lat":35.5727504,"lon":139.711054},{"name":"城南大橋第二","province":"東京都","city":"大田区","address":"東京都大田区東海3丁目4","lat":35.57770285,"lon":139.76242682},{"name":"大田区田園調布南倉庫","province":"東京都","city":"大田区","address":"大田区田園調布南3-8区立田園調布南公園内","lat":35.57919,"lon":139.6752},{"name":"大田区南六郷倉庫","province":"東京都","city":"大田区","address":"大田区南六郷1-29-2-101都市再生機構南六郷一丁目団地内","lat":35.5462,"lon":139.7254},{"name":"東邦薬品（株）ＷＩＬＬ平和島","province":"東京都","city":"大田区","address":"大田区平和島6-1-1(株)東京流通センター内AE4-2","lat":35.57911,"lon":139.7477},{"name":"相互産業（株）","province":"東京都","city":"大田区","address":"大田区中央3-19-5","lat":35.57492,"lon":139.7186},{"name":"城南大橋第二倉庫","province":"東京都","city":"大田区","address":"東京都大田区東海3丁目4-2","lat":35.57794447,"lon":139.76251846},{"name":"馬込給水所","province":"東京都","city":"大田区","address":"東京都大田区西馬込2-15-6","lat":35.5886364,"lon":139.70192},{"name":"上池台給水所","province":"東京都","city":"大田区","address":"東京都大田区上池台1-48-25","lat":35.6004761,"lon":139.699734},{"name":"東海給水所","province":"東京都","city":"大田区","address":"東京都大田区東海1-3-12","lat":35.5852378,"lon":139.75335},{"name":"区立西六郷三丁目公園","province":"東京都","city":"大田区","address":"東京都大田区西六郷3-16-16","lat":35.5463837,"lon":139.705564},{"name":"区立萩中公園","province":"東京都","city":"大田区","address":"東京都大田区萩中3-25-26","lat":35.5507281,"lon":139.737397},{"name":"区立都堀公園","province":"東京都","city":"大田区","address":"東京都大田区大森東1-30","lat":35.57786,"lon":139.7384},{"name":"区立下丸子公園","province":"東京都","city":"大田区","address":"東京都大田区下丸子4-21","lat":35.569444,"lon":139.681378},{"name":"区立女塚なかよし公園","province":"東京都","city":"大田区","address":"東京都大田区池上5-24","lat":35.5727504,"lon":139.711054},{"name":"城南大橋第二","province":"東京都","city":"大田区","address":"東京都大田区東海3丁目4","lat":35.57770285,"lon":139.76242682},{"name":"大田区田園調布南倉庫","province":"東京都","city":"大田区","address":"大田区田園調布南3-8区立田園調布南公園内","lat":35.57919,"lon":139.6752},{"name":"大田区南六郷倉庫","province":"東京都","city":"大田区","address":"大田区南六郷1-29-2-101都市再生機構南六郷一丁目団地内","lat":35.5462,"lon":139.7254},{"name":"東邦薬品（株）ＷＩＬＬ平和島","province":"東京都","city":"大田区","address":"大田区平和島6-1-1(株)東京流通センター内AE4-2","lat":35.57911,"lon":139.7477},{"name":"相互産業（株）","province":"東京都","city":"大田区","address":"大田区中央3-19-5","lat":35.57492,"lon":139.7186},{"name":"城南大橋第二倉庫","province":"東京都","city":"大田区","address":"東京都大田区東海3丁目4-2","lat":35.57794447,"lon":139.76251846},{"name":"馬込給水所","province":"東京都","city":"大田区","address":"東京都大田区西馬込2-15-6","lat":35.5886364,"lon":139.70192},{"name":"上池台給水所","province":"東京都","city":"大田区","address":"東京都大田区上池台1-48-25","lat":35.6004761,"lon":139.699734},{"name":"東海給水所","province":"東京都","city":"大田区","address":"東京都大田区東海1-3-12","lat":35.5852378,"lon":139.75335},{"name":"区立西六郷三丁目公園","province":"東京都","city":"大田区","address":"東京都大田区西六郷3-16-16","lat":35.5463837,"lon":139.705564},{"name":"区立萩中公園","province":"東京都","city":"大田区","address":"東京都大田区萩中3-25-26","lat":35.5507281,"lon":139.737397},{"name":"区立都堀公園","province":"東京都","city":"大田区","address":"東京都大田区大森東1-30","lat":35.57786,"lon":139.7384},{"name":"区立下丸子公園","province":"東京都","city":"大田区","address":"東京都大田区下丸子4-21","lat":35.569444,"lon":139.681378},{"name":"区立女塚なかよし公園","province":"東京都","city":"大田区","address":"東京都大田区池上5-24","lat":35.5727504,"lon":139.711054},{"name":"城南大橋第二","province":"東京都","city":"大田区","address":"東京都大田区東海3丁目4","lat":35.57770285,"lon":139.76242682},{"name":"大田区田園調布南倉庫","province":"東京都","city":"大田区","address":"大田区田園調布南3-8区立田園調布南公園内","lat":35.57919,"lon":139.6752},{"name":"大田区南六郷倉庫","province":"東京都","city":"大田区","address":"大田区南六郷1-29-2-101都市再生機構南六郷一丁目団地内","lat":35.5462,"lon":139.7254},{"name":"東邦薬品（株）ＷＩＬＬ平和島","province":"東京都","city":"大田区","address":"大田区平和島6-1-1(株)東京流通センター内AE4-2","lat":35.57911,"lon":139.7477},{"name":"相互産業（株）","province":"東京都","city":"大田区","address":"大田区中央3-19-5","lat":35.57492,"lon":139.7186},{"name":"城南大橋第二倉庫","province":"東京都","city":"大田区","address":"東京都大田区東海3丁目4-2","lat":35.57794447,"lon":139.76251846},{"name":"馬込給水所","province":"東京都","city":"大田区","address":"東京都大田区西馬込2-15-6","lat":35.5886364,"lon":139.70192},{"name":"上池台給水所","province":"東京都","city":"大田区","address":"東京都大田区上池台1-48-25","lat":35.6004761,"lon":139.699734},{"name":"東海給水所","province":"東京都","city":"大田区","address":"東京都大田区東海1-3-12","lat":35.5852378,"lon":139.75335},{"name":"区立西六郷三丁目公園","province":"東京都","city":"大田区","address":"東京都大田区西六郷3-16-16","lat":35.5463837,"lon":139.705564},{"name":"区立萩中公園","province":"東京都","city":"大田区","address":"東京都大田区萩中3-25-26","lat":35.5507281,"lon":139.737397},{"name":"区立都堀公園","province":"東京都","city":"大田区","address":"東京都大田区大森東1-30","lat":35.57786,"lon":139.7384},{"name":"区立下丸子公園","province":"東京都","city":"大田区","address":"東京都大田区下丸子4-21","lat":35.569444,"lon":139.681378},{"name":"区立女塚なかよし公園","province":"東京都","city":"大田区","address":"東京都大田区池上5-24","lat":35.5727504,"lon":139.711054},{"name":"城南大橋第二","province":"東京都","city":"大田区","address":"東京都大田区東海3丁目4","lat":35.57770285,"lon":139.76242682},{"name":"大田区田園調布南倉庫","province":"東京都","city":"大田区","address":"大田区田園調布南3-8区立田園調布南公園内","lat":35.57919,"lon":139.6752},{"name":"大田区南六郷倉庫","province":"東京都","city":"大田区","address":"大田区南六郷1-29-2-101都市再生機構南六郷一丁目団地内","lat":35.5462,"lon":139.7254},{"name":"東邦薬品（株）ＷＩＬＬ平和島","province":"東京都","city":"大田区","address":"大田区平和島6-1-1(株)東京流通センター内AE4-2","lat":35.57911,"lon":139.7477},{"name":"相互産業（株）","province":"東京都","city":"大田区","address":"大田区中央3-19-5","lat":35.57492,"lon":139.7186},{"name":"城南大橋第二倉庫","province":"東京都","city":"大田区","address":"東京都大田区東海3丁目4-2","lat":35.57794447,"lon":139.76251846},{"name":"馬込給水所","province":"東京都","city":"大田区","address":"東京都大田区西馬込2-15-6","lat":35.5886364,"lon":139.70192},{"name":"上池台給水所","province":"東京都","city":"大田区","address":"東京都大田区上池台1-48-25","lat":35.6004761,"lon":139.699734},{"name":"東海給水所","province":"東京都","city":"大田区","address":"東京都大田区東海1-3-12","lat":35.5852378,"lon":139.75335},{"name":"区立西六郷三丁目公園","province":"東京都","city":"大田区","address":"東京都大田区西六郷3-16-16","lat":35.5463837,"lon":139.705564},{"name":"区立萩中公園","province":"東京都","city":"大田区","address":"東京都大田区萩中3-25-26","lat":35.5507281,"lon":139.737397},{"name":"区立都堀公園","province":"東京都","city":"大田区","address":"東京都大田区大森東1-30","lat":35.57786,"lon":139.7384},{"name":"区立下丸子公園","province":"東京都","city":"大田区","address":"東京都大田区下丸子4-21","lat":35.569444,"lon":139.681378},{"name":"区立女塚なかよし公園","province":"東京都","city":"大田区","address":"東京都大田区池上5-24","lat":35.5727504,"lon":139.711054},{"name":"城南大橋第二","province":"東京都","city":"大田区","address":"東京都大田区東海3丁目4","lat":35.57770285,"lon":139.76242682},{"name":"大田区田園調布南倉庫","province":"東京都","city":"大田区","address":"大田区田園調布南3-8区立田園調布南公園内","lat":35.57919,"lon":139.6752},{"name":"大田区南六郷倉庫","province":"東京都","city":"大田区","address":"大田区南六郷1-29-2-101都市再生機構南六郷一丁目団地内","lat":35.5462,"lon":139.7254},{"name":"東邦薬品（株）ＷＩＬＬ平和島","province":"東京都","city":"大田区","address":"大田区平和島6-1-1(株)東京流通センター内AE4-2","lat":35.57911,"lon":139.7477},{"name":"相互産業（株）","province":"東京都","city":"大田区","address":"大田区中央3-19-5","lat":35.57492,"lon":139.7186},{"name":"城南大橋第二倉庫","province":"東京都","city":"大田区","address":"東京都大田区東海3丁目4-2","lat":35.57794447,"lon":139.76251846},{"name":"馬込給水所","province":"東京都","city":"大田区","address":"東京都大田区西馬込2-15-6","lat":35.5886364,"lon":139.70192},{"name":"上池台給水所","province":"東京都","city":"大田区","address":"東京都大田区上池台1-48-25","lat":35.6004761,"lon":139.699734},{"name":"東海給水所","province":"東京都","city":"大田区","address":"東京都大田区東海1-3-12","lat":35.5852378,"lon":139.75335},{"name":"区立西六郷三丁目公園","province":"東京都","city":"大田区","address":"東京都大田区西六郷3-16-16","lat":35.5463837,"lon":139.705564},{"name":"区立萩中公園","province":"東京都","city":"大田区","address":"東京都大田区萩中3-25-26","lat":35.5507281,"lon":139.737397},{"name":"区立都堀公園","province":"東京都","city":"大田区","address":"東京都大田区大森東1-30","lat":35.57786,"lon":139.7384},{"name":"区立下丸子公園","province":"東京都","city":"大田区","address":"東京都大田区下丸子4-21","lat":35.569444,"lon":139.681378},{"name":"区立女塚なかよし公園","province":"東京都","city":"大田区","address":"東京都大田区池上5-24","lat":35.5727504,"lon":139.711054},{"name":"城南大橋第二","province":"東京都","city":"大田区","address":"東京都大田区東海3丁目4","lat":35.57770285,"lon":139.76242682},{"name":"大田区田園調布南倉庫","province":"東京都","city":"大田区","address":"大田区田園調布南3-8区立田園調布南公園内","lat":35.57919,"lon":139.6752},{"name":"大田区南六郷倉庫","province":"東京都","city":"大田区","address":"大田区南六郷1-29-2-101都市再生機構南六郷一丁目団地内","lat":35.5462,"lon":139.7254},{"name":"東邦薬品（株）ＷＩＬＬ平和島","province":"東京都","city":"大田区","address":"大田区平和島6-1-1(株)東京流通センター内AE4-2","lat":35.57911,"lon":139.7477},{"name":"相互産業（株）","province":"東京都","city":"大田区","address":"大田区中央3-19-5","lat":35.57492,"lon":139.7186},{"name":"城南大橋第二倉庫","province":"東京都","city":"大田区","address":"東京都大田区東海3丁目4-2","lat":35.57794447,"lon":139.76251846},{"name":"馬込給水所","province":"東京都","city":"大田区","address":"東京都大田区西馬込2-15-6","lat":35.5886364,"lon":139.70192},{"name":"上池台給水所","province":"東京都","city":"大田区","address":"東京都大田区上池台1-48-25","lat":35.6004761,"lon":139.699734},{"name":"東海給水所","province":"東京都","city":"大田区","address":"東京都大田区東海1-3-12","lat":35.5852378,"lon":139.75335},{"name":"区立西六郷三丁目公園","province":"東京都","city":"大田区","address":"東京都大田区西六郷3-16-16","lat":35.5463837,"lon":139.705564},{"name":"区立萩中公園","province":"東京都","city":"大田区","address":"東京都大田区萩中3-25-26","lat":35.5507281,"lon":139.737397},{"name":"区立都堀公園","province":"東京都","city":"大田区","address":"東京都大田区大森東1-30","lat":35.57786,"lon":139.7384},{"name":"区立下丸子公園","province":"東京都","city":"大田区","address":"東京都大田区下丸子4-21","lat":35.569444,"lon":139.681378},{"name":"区立女塚なかよし公園","province":"東京都","city":"大田区","address":"東京都大田区池上5-24","lat":35.5727504,"lon":139.711054},{"name":"城南大橋第二","province":"東京都","city":"大田区","address":"東京都大田区東海3丁目4","lat":35.57770285,"lon":139.76242682},{"name":"大田区田園調布南倉庫","province":"東京都","city":"大田区","address":"大田区田園調布南3-8区立田園調布南公園内","lat":35.57919,"lon":139.6752},{"name":"大田区南六郷倉庫","province":"東京都","city":"大田区","address":"大田区南六郷1-29-2-101都市再生機構南六郷一丁目団地内","lat":35.5462,"lon":139.7254},{"name":"東邦薬品（株）ＷＩＬＬ平和島","province":"東京都","city":"大田区","address":"大田区平和島6-1-1(株)東京流通センター内AE4-2","lat":35.57911,"lon":139.7477},{"name":"相互産業（株）","province":"東京都","city":"大田区","address":"大田区中央3-19-5","lat":35.57492,"lon":139.7186},{"name":"城南大橋第二倉庫","province":"東京都","city":"大田区","address":"東京都大田区東海3丁目4-2","lat":35.57794447,"lon":139.76251846},{"name":"馬込給水所","province":"東京都","city":"大田区","address":"東京都大田区西馬込2-15-6","lat":35.5886364,"lon":139.70192},{"name":"上池台給水所","province":"東京都","city":"大田区","address":"東京都大田区上池台1-48-25","lat":35.6004761,"lon":139.699734},{"name":"東海給水所","province":"東京都","city":"大田区","address":"東京都大田区東海1-3-12","lat":35.5852378,"lon":139.75335},{"name":"区立西六郷三丁目公園","province":"東京都","city":"大田区","address":"東京都大田区西六郷3-16-16","lat":35.5463837,"lon":139.705564},{"name":"区立萩中公園","province":"東京都","city":"大田区","address":"東京都大田区萩中3-25-26","lat":35.5507281,"lon":139.737397},{"name":"区立都堀公園","province":"東京都","city":"大田区","address":"東京都大田区大森東1-30","lat":35.57786,"lon":139.7384},{"name":"区立下丸子公園","province":"東京都","city":"大田区","address":"東京都大田区下丸子4-21","lat":35.569444,"lon":139.681378},{"name":"区立女塚なかよし公園","province":"東京都","city":"大田区","address":"東京都大田区池上5-24","lat":35.5727504,"lon":139.711054},{"name":"城南大橋第二","province":"東京都","city":"大田区","address":"東京都大田区東海3丁目4","lat":35.57770285,"lon":139.76242682},{"name":"大田区田園調布南倉庫","province":"東京都","city":"大田区","address":"大田区田園調布南3-8区立田園調布南公園内","lat":35.57919,"lon":139.6752},{"name":"大田区南六郷倉庫","province":"東京都","city":"大田区","address":"大田区南六郷1-29-2-101都市再生機構南六郷一丁目団地内","lat":35.5462,"lon":139.7254},{"name":"東邦薬品（株）ＷＩＬＬ平和島","province":"東京都","city":"大田区","address":"大田区平和島6-1-1(株)東京流通センター内AE4-2","lat":35.57911,"lon":139.7477},{"name":"相互産業（株）","province":"東京都","city":"大田区","address":"大田区中央3-19-5","lat":35.57492,"lon":139.7186},{"name":"城南大橋第二倉庫","province":"東京都","city":"大田区","address":"東京都大田区東海3丁目4-2","lat":35.57794447,"lon":139.76251846},{"name":"馬込給水所","province":"東京都","city":"大田区","address":"東京都大田区西馬込2-15-6","lat":35.5886364,"lon":139.70192},{"name":"上池台給水所","province":"東京都","city":"大田区","address":"東京都大田区上池台1-48-25","lat":35.6004761,"lon":139.699734},{"name":"東海給水所","province":"東京都","city":"大田区","address":"東京都大田区東海1-3-12","lat":35.5852378,"lon":139.75335},{"name":"区立西六郷三丁目公園","province":"東京都","city":"大田区","address":"東京都大田区西六郷3-16-16","lat":35.5463837,"lon":139.705564},{"name":"区立萩中公園","province":"東京都","city":"大田区","address":"東京都大田区萩中3-25-26","lat":35.5507281,"lon":139.737397},{"name":"区立都堀公園","province":"東京都","city":"大田区","address":"東京都大田区大森東1-30","lat":35.57786,"lon":139.7384},{"name":"区立下丸子公園","province":"東京都","city":"大田区","address":"東京都大田区下丸子4-21","lat":35.569444,"lon":139.681378},{"name":"区立女塚なかよし公園","province":"東京都","city":"大田区","address":"東京都大田区池上5-24","lat":35.5727504,"lon":139.711054},{"name":"城南大橋第二","province":"東京都","city":"大田区","address":"東京都大田区東海3丁目4","lat":35.57770285,"lon":139.76242682},{"name":"大田区田園調布南倉庫","province":"東京都","city":"大田区","address":"大田区田園調布南3-8区立田園調布南公園内","lat":35.57919,"lon":139.6752},{"name":"大田区南六郷倉庫","province":"東京都","city":"大田区","address":"大田区南六郷1-29-2-101都市再生機構南六郷一丁目団地内","lat":35.5462,"lon":139.7254},{"name":"東邦薬品（株）ＷＩＬＬ平和島","province":"東京都","city":"大田区","address":"大田区平和島6-1-1(株)東京流通センター内AE4-2","lat":35.57911,"lon":139.7477},{"name":"相互産業（株）","province":"東京都","city":"大田区","address":"大田区中央3-19-5","lat":35.57492,"lon":139.7186},{"name":"城南大橋第二倉庫","province":"東京都","city":"大田区","address":"東京都大田区東海3丁目4-2","lat":35.57794447,"lon":139.76251846},{"name":"馬込給水所","province":"東京都","city":"大田区","address":"東京都大田区西馬込2-15-6","lat":35.5886364,"lon":139.70192},{"name":"上池台給水所","province":"東京都","city":"大田区","address":"東京都大田区上池台1-48-25","lat":35.6004761,"lon":139.699734},{"name":"東海給水所","province":"東京都","city":"大田区","address":"東京都大田区東海1-3-12","lat":35.5852378,"lon":139.75335},{"name":"区立西六郷三丁目公園","province":"東京都","city":"大田区","address":"東京都大田区西六郷3-16-16","lat":35.5463837,"lon":139.705564},{"name":"区立萩中公園","province":"東京都","city":"大田区","address":"東京都大田区萩中3-25-26","lat":35.5507281,"lon":139.737397},{"name":"区立都堀公園","province":"東京都","city":"大田区","address":"東京都大田区大森東1-30","lat":35.57786,"lon":139.7384},{"name":"区立下丸子公園","province":"東京都","city":"大田区","address":"東京都大田区下丸子4-21","lat":35.569444,"lon":139.681378},{"name":"区立女塚なかよし公園","province":"東京都","city":"大田区","address":"東京都大田区池上5-24","lat":35.5727504,"lon":139.711054},{"name":"城南大橋第二","province":"東京都","city":"大田区","address":"東京都大田区東海3丁目4","lat":35.57770285,"lon":139.76242682},{"name":"大田区田園調布南倉庫","province":"東京都","city":"大田区","address":"大田区田園調布南3-8区立田園調布南公園内","lat":35.57919,"lon":139.6752},{"name":"大田区南六郷倉庫","province":"東京都","city":"大田区","address":"大田区南六郷1-29-2-101都市再生機構南六郷一丁目団地内","lat":35.5462,"lon":139.7254},{"name":"東邦薬品（株）ＷＩＬＬ平和島","province":"東京都","city":"大田区","address":"大田区平和島6-1-1(株)東京流通センター内AE4-2","lat":35.57911,"lon":139.7477},{"name":"相互産業（株）","province":"東京都","city":"大田区","address":"大田区中央3-19-5","lat":35.57492,"lon":139.7186},{"name":"城南大橋第二倉庫","province":"東京都","city":"大田区","address":"東京都大田区東海3丁目4-2","lat":35.57794447,"lon":139.76251846},{"name":"馬込給水所","province":"東京都","city":"大田区","address":"東京都大田区西馬込2-15-6","lat":35.5886364,"lon":139.70192},{"name":"上池台給水所","province":"東京都","city":"大田区","address":"東京都大田区上池台1-48-25","lat":35.6004761,"lon":139.699734},{"name":"東海給水所","province":"東京都","city":"大田区","address":"東京都大田区東海1-3-12","lat":35.5852378,"lon":139.75335},{"name":"区立西六郷三丁目公園","province":"東京都","city":"大田区","address":"東京都大田区西六郷3-16-16","lat":35.5463837,"lon":139.705564},{"name":"区立萩中公園","province":"東京都","city":"大田区","address":"東京都大田区萩中3-25-26","lat":35.5507281,"lon":139.737397},{"name":"区立都堀公園","province":"東京都","city":"大田区","address":"東京都大田区大森東1-30","lat":35.57786,"lon":139.7384},{"name":"区立下丸子公園","province":"東京都","city":"大田区","address":"東京都大田区下丸子4-21","lat":35.569444,"lon":139.681378},{"name":"区立女塚なかよし公園","province":"東京都","city":"大田区","address":"東京都大田区池上5-24","lat":35.5727504,"lon":139.711054},{"name":"城南大橋第二","province":"東京都","city":"大田区","address":"東京都大田区東海3丁目4","lat":35.57770285,"lon":139.76242682},{"name":"大田区田園調布南倉庫","province":"東京都","city":"大田区","address":"大田区田園調布南3-8区立田園調布南公園内","lat":35.57919,"lon":139.6752},{"name":"大田区南六郷倉庫","province":"東京都","city":"大田区","address":"大田区南六郷1-29-2-101都市再生機構南六郷一丁目団地内","lat":35.5462,"lon":139.7254},{"name":"東邦薬品（株）ＷＩＬＬ平和島","province":"東京都","city":"大田区","address":"大田区平和島6-1-1(株)東京流通センター内AE4-2","lat":35.57911,"lon":139.7477},{"name":"相互産業（株）","province":"東京都","city":"大田区","address":"大田区中央3-19-5","lat":35.57492,"lon":139.7186},{"name":"城南大橋第二倉庫","province":"東京都","city":"大田区","address":"東京都大田区東海3丁目4-2","lat":35.57794447,"lon":139.76251846},{"name":"馬込給水所","province":"東京都","city":"大田区","address":"東京都大田区西馬込2-15-6","lat":35.5886364,"lon":139.70192},{"name":"上池台給水所","province":"東京都","city":"大田区","address":"東京都大田区上池台1-48-25","lat":35.6004761,"lon":139.699734},{"name":"東海給水所","province":"東京都","city":"大田区","address":"東京都大田区東海1-3-12","lat":35.5852378,"lon":139.75335},{"name":"区立西六郷三丁目公園","province":"東京都","city":"大田区","address":"東京都大田区西六郷3-16-16","lat":35.5463837,"lon":139.705564},{"name":"区立萩中公園","province":"東京都","city":"大田区","address":"東京都大田区萩中3-25-26","lat":35.5507281,"lon":139.737397},{"name":"区立都堀公園","province":"東京都","city":"大田区","address":"東京都大田区大森東1-30","lat":35.57786,"lon":139.7384},{"name":"区立下丸子公園","province":"東京都","city":"大田区","address":"東京都大田区下丸子4-21","lat":35.569444,"lon":139.681378},{"name":"区立女塚なかよし公園","province":"東京都","city":"大田区","address":"東京都大田区池上5-24","lat":35.5727504,"lon":139.711054},{"name":"城南大橋第二","province":"東京都","city":"大田区","address":"東京都大田区東海3丁目4","lat":35.57770285,"lon":139.76242682},{"name":"城南大橋第二倉庫","province":"東京都","city":"大田区","address":"東京都大田区東海3丁目4-2","lat":35.57794447,"lon":139.76251846},{"name":"馬込給水所","province":"東京都","city":"大田区","address":"東京都大田区西馬込2-15-6","lat":35.5886364,"lon":139.70192},{"name":"上池台給水所","province":"東京都","city":"大田区","address":"東京都大田区上池台1-48-25","lat":35.6004761,"lon":139.699734},{"name":"東海給水所","province":"東京都","city":"大田区","address":"東京都大田区東海1-3-12","lat":35.5852378,"lon":139.75335},{"name":"区立西六郷三丁目公園","province":"東京都","city":"大田区","address":"東京都大田区西六郷3-16-16","lat":35.5463837,"lon":139.705564},{"name":"区立萩中公園","province":"東京都","city":"大田区","address":"東京都大田区萩中3-25-26","lat":35.5507281,"lon":139.737397},{"name":"区立都堀公園","province":"東京都","city":"大田区","address":"東京都大田区大森東1-30","lat":35.57786,"lon":139.7384},{"name":"区立下丸子公園","province":"東京都","city":"大田区","address":"東京都大田区下丸子4-21","lat":35.569444,"lon":139.681378},{"name":"区立女塚なかよし公園","province":"東京都","city":"大田区","address":"東京都大田区池上5-24","lat":35.5727504,"lon":139.711054},{"name":"城南大橋第二","province":"東京都","city":"大田区","address":"東京都大田区東海3丁目4","lat":35.57770285,"lon":139.76242682},{"name":"城南大橋第二倉庫","province":"東京都","city":"大田区","address":"東京都大田区東海3丁目4-2","lat":35.57794447,"lon":139.76251846},{"name":"馬込給水所","province":"東京都","city":"大田区","address":"東京都大田区西馬込2-15-6","lat":35.5886364,"lon":139.70192},{"name":"上池台給水所","province":"東京都","city":"大田区","address":"東京都大田区上池台1-48-25","lat":35.6004761,"lon":139.699734},{"name":"東海給水所","province":"東京都","city":"大田区","address":"東京都大田区東海1-3-12","lat":35.5852378,"lon":139.75335},{"name":"区立西六郷三丁目公園","province":"東京都","city":"大田区","address":"東京都大田区西六郷3-16-16","lat":35.5463837,"lon":139.705564},{"name":"区立萩中公園","province":"東京都","city":"大田区","address":"東京都大田区萩中3-25-26","lat":35.5507281,"lon":139.737397},{"name":"区立都堀公園","province":"東京都","city":"大田区","address":"東京都大田区大森東1-30","lat":35.57786,"lon":139.7384},{"name":"区立下丸子公園","province":"東京都","city":"大田区","address":"東京都大田区下丸子4-21","lat":35.569444,"lon":139.681378},{"name":"区立女塚なかよし公園","province":"東京都","city":"大田区","address":"東京都大田区池上5-24","lat":35.5727504,"lon":139.711054},{"name":"城南大橋第二","province":"東京都","city":"大田区","address":"東京都大田区東海3丁目4","lat":35.57770285,"lon":139.76242682},{"name":"城南大橋第二倉庫","province":"東京都","city":"大田区","address":"東京都大田区東海3丁目4-2","lat":35.57794447,"lon":139.76251846},{"name":"馬込給水所","province":"東京都","city":"大田区","address":"東京都大田区西馬込2-15-6","lat":35.5886364,"lon":139.70192},{"name":"上池台給水所","province":"東京都","city":"大田区","address":"東京都大田区上池台1-48-25","lat":35.6004761,"lon":139.699734},{"name":"東海給水所","province":"東京都","city":"大田区","address":"東京都大田区東海1-3-12","lat":35.5852378,"lon":139.75335},{"name":"区立西六郷三丁目公園","province":"東京都","city":"大田区","address":"東京都大田区西六郷3-16-16","lat":35.5463837,"lon":139.705564},{"name":"区立萩中公園","province":"東京都","city":"大田区","address":"東京都大田区萩中3-25-26","lat":35.5507281,"lon":139.737397},{"name":"区立都堀公園","province":"東京都","city":"大田区","address":"東京都大田区大森東1-30","lat":35.57786,"lon":139.7384},{"name":"区立下丸子公園","province":"東京都","city":"大田区","address":"東京都大田区下丸子4-21","lat":35.569444,"lon":139.681378},{"name":"区立女塚なかよし公園","province":"東京都","city":"大田区","address":"東京都大田区池上5-24","lat":35.5727504,"lon":139.711054},{"name":"城南大橋第二","province":"東京都","city":"大田区","address":"東京都大田区東海3丁目4","lat":35.57770285,"lon":139.76242682},{"name":"城南大橋第二倉庫","province":"東京都","city":"大田区","address":"東京都大田区東海3丁目4-2","lat":35.57794447,"lon":139.76251846},{"name":"馬込給水所","province":"東京都","city":"大田区","address":"東京都大田区西馬込2-15-6","lat":35.5886364,"lon":139.70192},{"name":"上池台給水所","province":"東京都","city":"大田区","address":"東京都大田区上池台1-48-25","lat":35.6004761,"lon":139.699734},{"name":"東海給水所","province":"東京都","city":"大田区","address":"東京都大田区東海1-3-12","lat":35.5852378,"lon":139.75335},{"name":"区立西六郷三丁目公園","province":"東京都","city":"大田区","address":"東京都大田区西六郷3-16-16","lat":35.5463837,"lon":139.705564},{"name":"区立萩中公園","province":"東京都","city":"大田区","address":"東京都大田区萩中3-25-26","lat":35.5507281,"lon":139.737397},{"name":"区立都堀公園","province":"東京都","city":"大田区","address":"東京都大田区大森東1-30","lat":35.57786,"lon":139.7384},{"name":"区立下丸子公園","province":"東京都","city":"大田区","address":"東京都大田区下丸子4-21","lat":35.569444,"lon":139.681378},{"name":"区立女塚なかよし公園","province":"東京都","city":"大田区","address":"東京都大田区池上5-24","lat":35.5727504,"lon":139.711054},{"name":"城南大橋第二","province":"東京都","city":"大田区","address":"東京都大田区東海3丁目4","lat":35.57770285,"lon":139.76242682},{"name":"城南大橋第二倉庫","province":"東京都","city":"大田区","address":"東京都大田区東海3丁目4-2","lat":35.57794447,"lon":139.76251846},{"name":"馬込給水所","province":"東京都","city":"大田区","address":"東京都大田区西馬込2-15-6","lat":35.5886364,"lon":139.70192},{"name":"上池台給水所","province":"東京都","city":"大田区","address":"東京都大田区上池台1-48-25","lat":35.6004761,"lon":139.699734},{"name":"東海給水所","province":"東京都","city":"大田区","address":"東京都大田区東海1-3-12","lat":35.5852378,"lon":139.75335},{"name":"区立西六郷三丁目公園","province":"東京都","city":"大田区","address":"東京都大田区西六郷3-16-16","lat":35.5463837,"lon":139.705564},{"name":"区立萩中公園","province":"東京都","city":"大田区","address":"東京都大田区萩中3-25-26","lat":35.5507281,"lon":139.737397},{"name":"区立都堀公園","province":"東京都","city":"大田区","address":"東京都大田区大森東1-30","lat":35.57786,"lon":139.7384},{"name":"区立下丸子公園","province":"東京都","city":"大田区","address":"東京都大田区下丸子4-21","lat":35.569444,"lon":139.681378},{"name":"区立女塚なかよし公園","province":"東京都","city":"大田区","address":"東京都大田区池上5-24","lat":35.5727504,"lon":139.711054},{"name":"城南大橋第二","province":"東京都","city":"大田区","address":"東京都大田区東海3丁目4","lat":35.57770285,"lon":139.76242682},{"name":"城南大橋第二倉庫","province":"東京都","city":"大田区","address":"東京都大田区東海3丁目4-2","lat":35.57794447,"lon":139.76251846},{"name":"馬込給水所","province":"東京都","city":"大田区","address":"東京都大田区西馬込2-15-6","lat":35.5886364,"lon":139.70192},{"name":"上池台給水所","province":"東京都","city":"大田区","address":"東京都大田区上池台1-48-25","lat":35.6004761,"lon":139.699734},{"name":"東海給水所","province":"東京都","city":"大田区","address":"東京都大田区東海1-3-12","lat":35.5852378,"lon":139.75335},{"name":"区立西六郷三丁目公園","province":"東京都","city":"大田区","address":"東京都大田区西六郷3-16-16","lat":35.5463837,"lon":139.705564},{"name":"区立萩中公園","province":"東京都","city":"大田区","address":"東京都大田区萩中3-25-26","lat":35.5507281,"lon":139.737397},{"name":"区立都堀公園","province":"東京都","city":"大田区","address":"東京都大田区大森東1-30","lat":35.57786,"lon":139.7384},{"name":"区立下丸子公園","province":"東京都","city":"大田区","address":"東京都大田区下丸子4-21","lat":35.569444,"lon":139.681378},{"name":"区立女塚なかよし公園","province":"東京都","city":"大田区","address":"東京都大田区池上5-24","lat":35.5727504,"lon":139.711054},{"name":"城南大橋第二","province":"東京都","city":"大田区","address":"東京都大田区東海3丁目4","lat":35.57770285,"lon":139.76242682},{"name":"城南大橋第二倉庫","province":"東京都","city":"大田区","address":"東京都大田区東海3丁目4-2","lat":35.57794447,"lon":139.76251846},{"name":"馬込給水所","province":"東京都","city":"大田区","address":"東京都大田区西馬込2-15-6","lat":35.5886364,"lon":139.70192},{"name":"上池台給水所","province":"東京都","city":"大田区","address":"東京都大田区上池台1-48-25","lat":35.6004761,"lon":139.699734},{"name":"東海給水所","province":"東京都","city":"大田区","address":"東京都大田区東海1-3-12","lat":35.5852378,"lon":139.75335},{"name":"区立西六郷三丁目公園","province":"東京都","city":"大田区","address":"東京都大田区西六郷3-16-16","lat":35.5463837,"lon":139.705564},{"name":"区立萩中公園","province":"東京都","city":"大田区","address":"東京都大田区萩中3-25-26","lat":35.5507281,"lon":139.737397},{"name":"区立都堀公園","province":"東京都","city":"大田区","address":"東京都大田区大森東1-30","lat":35.57786,"lon":139.7384},{"name":"区立下丸子公園","province":"東京都","city":"大田区","address":"東京都大田区下丸子4-21","lat":35.569444,"lon":139.681378},{"name":"区立女塚なかよし公園","province":"東京都","city":"大田区","address":"東京都大田区池上5-24","lat":35.5727504,"lon":139.711054},{"name":"城南大橋第二","province":"東京都","city":"大田区","address":"東京都大田区東海3丁目4","lat":35.57770285,"lon":139.76242682},{"name":"城南大橋第二倉庫","province":"東京都","city":"大田区","address":"東京都大田区東海3丁目4-2","lat":35.57794447,"lon":139.76251846},{"name":"馬込給水所","province":"東京都","city":"大田区","address":"東京都大田区西馬込2-15-6","lat":35.5886364,"lon":139.70192},{"name":"上池台給水所","province":"東京都","city":"大田区","address":"東京都大田区上池台1-48-25","lat":35.6004761,"lon":139.699734},{"name":"東海給水所","province":"東京都","city":"大田区","address":"東京都大田区東海1-3-12","lat":35.5852378,"lon":139.75335},{"name":"区立西六郷三丁目公園","province":"東京都","city":"大田区","address":"東京都大田区西六郷3-16-16","lat":35.5463837,"lon":139.705564},{"name":"区立萩中公園","province":"東京都","city":"大田区","address":"東京都大田区萩中3-25-26","lat":35.5507281,"lon":139.737397},{"name":"区立都堀公園","province":"東京都","city":"大田区","address":"東京都大田区大森東1-30","lat":35.57786,"lon":139.7384},{"name":"区立下丸子公園","province":"東京都","city":"大田区","address":"東京都大田区下丸子4-21","lat":35.569444,"lon":139.681378},{"name":"区立女塚なかよし公園","province":"東京都","city":"大田区","address":"東京都大田区池上5-24","lat":35.5727504,"lon":139.711054},{"name":"城南大橋第二","province":"東京都","city":"大田区","address":"東京都大田区東海3丁目4","lat":35.57770285,"lon":139.76242682},{"name":"城南大橋第二倉庫","province":"東京都","city":"大田区","address":"東京都大田区東海3丁目4-2","lat":35.57794447,"lon":139.76251846},{"name":"馬込給水所","province":"東京都","city":"大田区","address":"東京都大田区西馬込2-15-6","lat":35.5886364,"lon":139.70192},{"name":"上池台給水所","province":"東京都","city":"大田区","address":"東京都大田区上池台1-48-25","lat":35.6004761,"lon":139.699734},{"name":"東海給水所","province":"東京都","city":"大田区","address":"東京都大田区東海1-3-12","lat":35.5852378,"lon":139.75335},{"name":"区立西六郷三丁目公園","province":"東京都","city":"大田区","address":"東京都大田区西六郷3-16-16","lat":35.5463837,"lon":139.705564},{"name":"区立萩中公園","province":"東京都","city":"大田区","address":"東京都大田区萩中3-25-26","lat":35.5507281,"lon":139.737397},{"name":"区立都堀公園","province":"東京都","city":"大田区","address":"東京都大田区大森東1-30","lat":35.57786,"lon":139.7384},{"name":"区立下丸子公園","province":"東京都","city":"大田区","address":"東京都大田区下丸子4-21","lat":35.569444,"lon":139.681378},{"name":"区立女塚なかよし公園","province":"東京都","city":"大田区","address":"東京都大田区池上5-24","lat":35.5727504,"lon":139.711054},{"name":"城南大橋第二","province":"東京都","city":"大田区","address":"東京都大田区東海3丁目4","lat":35.57770285,"lon":139.76242682},{"name":"城南大橋第二倉庫","province":"東京都","city":"大田区","address":"東京都大田区東海3丁目4-2","lat":35.57794447,"lon":139.76251846},{"name":"馬込給水所","province":"東京都","city":"大田区","address":"東京都大田区西馬込2-15-6","lat":35.5886364,"lon":139.70192},{"name":"上池台給水所","province":"東京都","city":"大田区","address":"東京都大田区上池台1-48-25","lat":35.6004761,"lon":139.699734},{"name":"東海給水所","province":"東京都","city":"大田区","address":"東京都大田区東海1-3-12","lat":35.5852378,"lon":139.75335},{"name":"区立西六郷三丁目公園","province":"東京都","city":"大田区","address":"東京都大田区西六郷3-16-16","lat":35.5463837,"lon":139.705564},{"name":"区立萩中公園","province":"東京都","city":"大田区","address":"東京都大田区萩中3-25-26","lat":35.5507281,"lon":139.737397},{"name":"区立都堀公園","province":"東京都","city":"大田区","address":"東京都大田区大森東1-30","lat":35.57786,"lon":139.7384},{"name":"区立下丸子公園","province":"東京都","city":"大田区","address":"東京都大田区下丸子4-21","lat":35.569444,"lon":139.681378},{"name":"区立女塚なかよし公園","province":"東京都","city":"大田区","address":"東京都大田区池上5-24","lat":35.5727504,"lon":139.711054},{"name":"城南大橋第二","province":"東京都","city":"大田区","address":"東京都大田区東海3丁目4","lat":35.57770285,"lon":139.76242682},{"name":"城南大橋第二倉庫","province":"東京都","city":"大田区","address":"東京都大田区東海3丁目4-2","lat":35.57794447,"lon":139.76251846},{"name":"馬込給水所","province":"東京都","city":"大田区","address":"東京都大田区西馬込2-15-6","lat":35.5886364,"lon":139.70192},{"name":"上池台給水所","province":"東京都","city":"大田区","address":"東京都大田区上池台1-48-25","lat":35.6004761,"lon":139.699734},{"name":"東海給水所","province":"東京都","city":"大田区","address":"東京都大田区東海1-3-12","lat":35.5852378,"lon":139.75335},{"name":"区立西六郷三丁目公園","province":"東京都","city":"大田区","address":"東京都大田区西六郷3-16-16","lat":35.5463837,"lon":139.705564},{"name":"区立萩中公園","province":"東京都","city":"大田区","address":"東京都大田区萩中3-25-26","lat":35.5507281,"lon":139.737397},{"name":"区立都堀公園","province":"東京都","city":"大田区","address":"東京都大田区大森東1-30","lat":35.57786,"lon":139.7384},{"name":"区立下丸子公園","province":"東京都","city":"大田区","address":"東京都大田区下丸子4-21","lat":35.569444,"lon":139.681378},{"name":"区立女塚なかよし公園","province":"東京都","city":"大田区","address":"東京都大田区池上5-24","lat":35.5727504,"lon":139.711054},{"name":"城南大橋第二","province":"東京都","city":"大田区","address":"東京都大田区東海3丁目4","lat":35.57770285,"lon":139.76242682},{"name":"城南大橋第二倉庫","province":"東京都","city":"大田区","address":"東京都大田区東海3丁目4-2","lat":35.57794447,"lon":139.76251846},{"name":"馬込給水所","province":"東京都","city":"大田区","address":"東京都大田区西馬込2-15-6","lat":35.5886364,"lon":139.70192},{"name":"上池台給水所","province":"東京都","city":"大田区","address":"東京都大田区上池台1-48-25","lat":35.6004761,"lon":139.699734},{"name":"東海給水所","province":"東京都","city":"大田区","address":"東京都大田区東海1-3-12","lat":35.5852378,"lon":139.75335},{"name":"区立西六郷三丁目公園","province":"東京都","city":"大田区","address":"東京都大田区西六郷3-16-16","lat":35.5463837,"lon":139.705564},{"name":"区立萩中公園","province":"東京都","city":"大田区","address":"東京都大田区萩中3-25-26","lat":35.5507281,"lon":139.737397},{"name":"区立都堀公園","province":"東京都","city":"大田区","address":"東京都大田区大森東1-30","lat":35.57786,"lon":139.7384},{"name":"区立下丸子公園","province":"東京都","city":"大田区","address":"東京都大田区下丸子4-21","lat":35.569444,"lon":139.681378},{"name":"区立女塚なかよし公園","province":"東京都","city":"大田区","address":"東京都大田区池上5-24","lat":35.5727504,"lon":139.711054},{"name":"城南大橋第二","province":"東京都","city":"大田区","address":"東京都大田区東海3丁目4","lat":35.57770285,"lon":139.76242682},{"name":"城南大橋第二倉庫","province":"東京都","city":"大田区","address":"東京都大田区東海3丁目4-2","lat":35.57794447,"lon":139.76251846}]}