{"keyword":"子ども","data":[{"name":"大森駅東口自転車駐車場","province":"東京都","city":"大田区","address":"東京都大田区大森北1丁目1","lat":35.58817492,"lon":139.72892009},{"name":"大森駅入新井自転車駐車場","province":"東京都","city":"大田区","address":"東京都大田区大森北4丁目27","lat":35.58491133,"lon":139.72591489},{"name":"大森複合施設ビル地下（区営）自転車駐車場","province":"東京都","city":"大田区","address":"東京都大田区大森北1丁目10-14","lat":35.58654455,"lon":139.7283202},{"name":"大森駅入新井公園自転車駐車場","province":"東京都","city":"大田区","address":"東京都大田区大森北1丁目20","lat":35.58643631,"lon":139.73065893},{"name":"大森駅西口自転車駐車場","province":"東京都","city":"大田区","address":"東京都大田区山王2丁目8","lat":35.58883586,"lon":139.72641746},{"name":"大森駅西口臨時自転車駐車場","province":"東京都","city":"大田区","address":"東京都大田区山王2丁目3","lat":35.58694443,"lon":139.72633421},{"name":"大森駅山王小前自転車駐車場","province":"東京都","city":"大田区","address":"東京都大田区山王1丁目26","lat":35.59211596,"lon":139.72593959},{"name":"平和島駅前国道下自転車駐車場","province":"東京都","city":"大田区","address":"東京都大田区大森北6丁目29","lat":35.57892354,"lon":139.7352701},{"name":"馬込駅前自転車駐車場","province":"東京都","city":"大田区","address":"東京都大田区東馬込1丁目32","lat":35.59534015,"lon":139.71246831},{"name":"西馬込駅前自転車駐車場","province":"東京都","city":"大田区","address":"東京都大田区西馬込2丁目20","lat":35.58637995,"lon":139.70501654},{"name":"池上駅前自転車駐車場","province":"東京都","city":"大田区","address":"東京都大田区池上6丁目8","lat":35.57161267,"lon":139.70271499},{"name":"梅屋敷駅自転車駐車場","province":"東京都","city":"大田区","address":"東京都大田区大森西6丁目15","lat":35.56791069,"lon":139.72816556},{"name":"昭和島駅前自転車駐車場","province":"東京都","city":"大田区","address":"東京都大田区昭和島2丁目2","lat":35.57201973,"lon":139.7501641},{"name":"大森海岸駅前臨時自転車駐車場","province":"東京都","city":"大田区","address":"東京都大田区大森北2丁目18","lat":35.58654203,"lon":139.73549748},{"name":"流通センター駅前自転車駐車場","province":"東京都","city":"大田区","address":"東京都大田区平和島6丁目2","lat":35.58214049,"lon":139.74933574},{"name":"鵜の木駅前自転車駐車場","province":"東京都","city":"大田区","address":"東京都大田区鵜の木2丁目4","lat":35.57544855,"lon":139.68062014},{"name":"鵜の木駅前交番横自転車駐車場","province":"東京都","city":"大田区","address":"東京都大田区鵜の木1丁目16","lat":35.57536521,"lon":139.68178112},{"name":"沼部駅前自転車駐車場","province":"東京都","city":"大田区","address":"東京都大田区田園調布本町28","lat":35.58239743,"lon":139.67380089},{"name":"多摩川駅前自転車駐車場","province":"東京都","city":"大田区","address":"東京都大田区田園調布1丁目53","lat":35.58951282,"lon":139.66942294},{"name":"多摩川台公園下自転車駐車場","province":"東京都","city":"大田区","address":"東京都大田区田園調布1丁目56-10","lat":35.58827692,"lon":139.66855091},{"name":"田園調布駅南自転車駐車場","province":"東京都","city":"大田区","address":"東京都大田区田園調布2丁目62-5","lat":35.59595611,"lon":139.66746145},{"name":"大岡山駅前地下自転車駐車場","province":"東京都","city":"大田区","address":"東京都大田区北千束3丁目27-2","lat":35.60758832,"lon":139.68627025},{"name":"北千束駅前自転車駐車場","province":"東京都","city":"大田区","address":"東京都大田区北千束2丁目15","lat":35.60570257,"lon":139.69307805},{"name":"雪が谷大塚駅前自転車駐車場","province":"東京都","city":"大田区","address":"東京都大田区南雪谷2丁目17","lat":35.5901572,"lon":139.6796246},{"name":"雪谷大塚町自転車駐車場","province":"東京都","city":"大田区","address":"東京都大田区雪谷大塚町1","lat":35.59425936,"lon":139.68086863},{"name":"石川台駅線路脇自転車駐車場","province":"東京都","city":"大田区","address":"東京都大田区東雪谷2丁目4","lat":35.59736732,"lon":139.68509859},{"name":"石川台駅前自転車駐車場","province":"東京都","city":"大田区","address":"東京都大田区東雪谷2丁目24","lat":35.5973229,"lon":139.68624292},{"name":"石川台駅一の橋自転車駐車場","province":"東京都","city":"大田区","address":"東京都大田区東雪谷2丁目11","lat":35.59598971,"lon":139.68419597},{"name":"洗足池駅前自転車駐車場","province":"東京都","city":"大田区","address":"東京都大田区東雪谷1丁目1","lat":35.5998143,"lon":139.69055072},{"name":"洗足池公園前自転車駐車場","province":"東京都","city":"大田区","address":"東京都大田区南千束2丁目33","lat":35.60131968,"lon":139.69026457},{"name":"長原駅前自転車駐車場","province":"東京都","city":"大田区","address":"東京都大田区上池台1丁目18","lat":35.60150586,"lon":139.69655286},{"name":"長原駅交番横自転車駐車場","province":"東京都","city":"大田区","address":"東京都大田区上池台1丁目7","lat":35.60207804,"lon":139.69862488},{"name":"長原駅北側自転車駐車場","province":"東京都","city":"大田区","address":"東京都大田区上池台1丁目4","lat":35.60226415,"lon":139.69955257},{"name":"久が原駅前自転車駐車場","province":"東京都","city":"大田区","address":"東京都大田区南久が原2丁目7","lat":35.57917281,"lon":139.68530259},{"name":"蒲田駅東口自転車駐車場","province":"東京都","city":"大田区","address":"東京都大田区蒲田5丁目12","lat":35.56333313,"lon":139.71673611},{"name":"蒲田交差東口自転車駐車場","province":"東京都","city":"大田区","address":"東京都大田区蒲田5丁目3-5","lat":35.56394416,"lon":139.71749433},{"name":"アロマ地下自転車駐車場","province":"東京都","city":"大田区","address":"東京都大田区蒲田5丁目37","lat":35.56070571,"lon":139.71782225},{"name":"蒲田駅東口環八横自転車駐車場","province":"東京都","city":"大田区","address":"東京都大田区蒲田5丁目47","lat":35.55973646,"lon":139.71582535},{"name":"蒲田駅消費者生活センター横自転車駐車場","province":"東京都","city":"大田区","address":"東京都大田区蒲田5丁目13","lat":35.56225827,"lon":139.7161529},{"name":"蒲田駅東口陸橋下自転車駐車場","province":"東京都","city":"大田区","address":"東京都大田区蒲田5丁目13","lat":35.56225827,"lon":139.7161529},{"name":"区役所本庁舎前自転車駐車場","province":"東京都","city":"大田区","address":"東京都大田区蒲田5丁目40","lat":35.56085571,"lon":139.71643907},{"name":"蒲田五丁目45番自転車駐車場","province":"東京都","city":"大田区","address":"東京都大田区蒲田5丁目45","lat":35.56006696,"lon":139.71607807},{"name":"蒲田呑川右岸自転車駐車場","province":"東京都","city":"大田区","address":"東京都大田区蒲田5丁目3-5","lat":35.56394416,"lon":139.71749433},{"name":"蒲田あやめ橋自転車駐車場","province":"東京都","city":"大田区","address":"東京都大田区蒲田5丁目27","lat":35.56255261,"lon":139.72065236},{"name":"蒲田駅西口自転車駐車場","province":"東京都","city":"大田区","address":"東京都大田区西蒲田8丁目1","lat":35.56124734,"lon":139.71451427},{"name":"蒲田駅西口御園自転車駐車場","province":"東京都","city":"大田区","address":"東京都大田区西蒲田7丁目70-1","lat":35.56177784,"lon":139.71316439},{"name":"蒲田駅西口環八下自転車駐車場","province":"東京都","city":"大田区","address":"東京都大田区新蒲田1丁目1","lat":35.55937823,"lon":139.71382839},{"name":"蒲田駅西蒲田公園自転車駐車場","province":"東京都","city":"大田区","address":"東京都大田区西蒲田8丁目6","lat":35.56126686,"lon":139.7106314},{"name":"日本工学院地下自転車駐車場","province":"東京都","city":"大田区","address":"東京都大田区西蒲田5丁目24","lat":35.56426913,"lon":139.71638889},{"name":"蒲田駅西口呑川横自転車駐車場","province":"東京都","city":"大田区","address":"東京都大田区西蒲田5丁目13","lat":35.56621889,"lon":139.71645822},{"name":"蒲田駅東口臨時駐輪帯自転車駐車場","province":"東京都","city":"大田区","address":"東京都大田区蒲田5丁目12","lat":35.56333313,"lon":139.71673611},{"name":"蒲田駅西口臨時駐輪帯自転車駐車場","province":"東京都","city":"大田区","address":"東京都大田区西蒲田7丁目1","lat":35.56363866,"lon":139.71610839},{"name":"産業プラザ横自転車駐車場","province":"東京都","city":"大田区","address":"東京都大田区南蒲田1丁目20","lat":35.55918937,"lon":139.72393293},{"name":"雑色駅高架下自転車駐車場","province":"東京都","city":"大田区","address":"東京都大田区仲六郷2丁目40","lat":35.54913549,"lon":139.71374309},{"name":"雑色駅西口自転車駐車場","province":"東京都","city":"大田区","address":"東京都大田区仲六郷2丁目29","lat":35.54978816,"lon":139.71466516},{"name":"六郷土手（高架下）自転車駐車場","province":"東京都","city":"大田区","address":"東京都大田区仲六郷4丁目31","lat":35.54119236,"lon":139.70874688},{"name":"矢口渡駅前自転車駐車場","province":"東京都","city":"大田区","address":"東京都大田区多摩川1丁目19","lat":35.56301134,"lon":139.69882167},{"name":"武蔵新田（土手側）自転車駐車場","province":"東京都","city":"大田区","address":"東京都大田区矢口1丁目2","lat":35.56603594,"lon":139.69524134},{"name":"下丸子駅前自転車駐車場","province":"東京都","city":"大田区","address":"東京都大田区下丸子3丁目1","lat":35.57138802,"lon":139.68707248},{"name":"蓮沼自転車駐車場","province":"東京都","city":"大田区","address":"東京都大田区西蒲田7丁目38","lat":35.56287221,"lon":139.70887039},{"name":"千鳥町駅前自転車駐車場","province":"東京都","city":"大田区","address":"東京都大田区千鳥3丁目7","lat":35.57305432,"lon":139.69046914},{"name":"穴守稲荷駅前自転車駐車場","province":"東京都","city":"大田区","address":"東京都大田区羽田4丁目11","lat":35.54945353,"lon":139.74747977},{"name":"天空橋駅前自転車駐車場","province":"東京都","city":"大田区","address":"東京都大田区羽田空港1丁目1","lat":35.54928456,"lon":139.75326842},{"name":"大森町駅自転車駐車場","province":"東京都","city":"大田区","address":"東京都大田区大森西3丁目21","lat":35.57312966,"lon":139.73143176},{"name":"京急蒲田駅空港線高架下自転車駐車場","province":"東京都","city":"大田区","address":"東京都大田区南蒲田1丁目20","lat":35.55918937,"lon":139.72393293},{"name":"京急蒲田駅本線高架下自転車駐車場","province":"東京都","city":"大田区","address":"東京都大田区蒲田4丁目48","lat":35.55985032,"lon":139.72323568},{"name":"糀谷駅自転車駐車場","province":"東京都","city":"大田区","address":"東京都大田区西糀谷4丁目12","lat":35.55545698,"lon":139.72906909},{"name":"糀谷駅前地下自転車駐車場","province":"東京都","city":"大田区","address":"東京都大田区西糀谷4丁目29-16","lat":35.55500147,"lon":139.7286136},{"name":"御嶽山駅前第一自転車駐車場","province":"東京都","city":"大田区","address":"東京都大田区北嶺町11","lat":35.58593562,"lon":139.68284677},{"name":"御嶽山駅前第二自転車駐車場","province":"東京都","city":"大田区","address":"東京都大田区北嶺町37","lat":35.58631056,"lon":139.68143856},{"name":"久が原駅前第二自転車駐車場","province":"東京都","city":"大田区","address":"東京都大田区東嶺町34","lat":35.58105864,"lon":139.68393871},{"name":"馬込坂下自転車駐車場","province":"東京都","city":"大田区","address":"東京都大田区西馬込1丁目19","lat":35.58943797,"lon":139.70746342},{"name":"久が原駅前第三自転車駐車場","province":"東京都","city":"大田区","address":"東京都大田区南久が原2丁目1-18","lat":35.57938109,"lon":139.68611914},{"name":"西馬込駅前第二自転車駐車場","province":"東京都","city":"大田区","address":"東京都大田区西馬込2丁目18","lat":35.58719647,"lon":139.70302778},{"name":"蒲田五丁目44番自転車駐車場","province":"東京都","city":"大田区","address":"東京都大田区蒲田5丁目44","lat":35.55991141,"lon":139.71704186},{"name":"大田都税事務所","province":"東京都","city":"大田区","address":"東京都大田区新蒲田1丁目18-22","lat":35.557443,"lon":139.710733},{"name":"大井ふ頭中央海浜公園ホッケー競技場","province":"東京都","city":"大田区","address":"東京都大田区東海1丁目2-1","lat":35.588825,"lon":139.753293},{"name":"大井ふ頭中央海浜公園ホッケー競技場","province":"東京都","city":"大田区","address":"東京都大田区東海1丁目2-1","lat":35.58881,"lon":139.753399},{"name":"大井ふ頭中央海浜公園ホッケー競技場","province":"東京都","city":"大田区","address":"東京都大田区東海1丁目2-1","lat":35.588868,"lon":139.753054},{"name":"大井ふ頭中央海浜公園ホッケー競技場","province":"東京都","city":"大田区","address":"東京都大田区東海1丁目2-1","lat":35.588868,"lon":139.753014},{"name":"地方独立行政法人東京都立病院機構　東京都立荏原病院","province":"東京都","city":"大田区","address":"東京都大田区東雪谷4丁目5-10","lat":35.593999,"lon":139.692898},{"name":"東京都中央卸売市場大田市場（事務棟）","province":"東京都","city":"大田区","address":"東京都大田区東海3丁目2-1","lat":35.579016,"lon":139.758734},{"name":"大井中央海浜公園","province":"東京都","city":"大田区","address":"東京都大田区東海1丁目1","lat":35.589033,"lon":139.750192},{"name":"大井中央海浜公園","province":"東京都","city":"大田区","address":"東京都大田区東海1丁目4","lat":35.585077,"lon":139.751562},{"name":"大井中央海浜公園","province":"東京都","city":"大田区","address":"東京都大田区東海1丁目2","lat":35.588216,"lon":139.751111},{"name":"大井中央海浜公園","province":"東京都","city":"大田区","address":"東京都大田区東海1丁目1","lat":35.588011,"lon":139.750383},{"name":"城南島海浜公園","province":"東京都","city":"大田区","address":"東京都大田区城南島4丁目2","lat":35.578382,"lon":139.783217},{"name":"城南島海浜公園","province":"東京都","city":"大田区","address":"東京都大田区城南島4丁目1","lat":35.5807,"lon":139.785557},{"name":"城南島海浜公園","province":"東京都","city":"大田区","address":"東京都大田区城南島4丁目1","lat":35.582085,"lon":139.783537},{"name":"東海ふ頭公園","province":"東京都","city":"大田区","address":"東京都大田区東海2丁目3","lat":35.577934,"lon":139.756133},{"name":"京浜島つばさ公園","province":"東京都","city":"大田区","address":"東京都大田区京浜島2丁目5","lat":35.567172,"lon":139.767332},{"name":"京浜島つばさ公園","province":"東京都","city":"大田区","address":"東京都大田区京浜島2丁目5","lat":35.571387,"lon":139.770572},{"name":"東京港野鳥公園","province":"東京都","city":"大田区","address":"東京都大田区東海3丁目1","lat":35.583588,"lon":139.760458},{"name":"東京港野鳥公園","province":"東京都","city":"大田区","address":"東京都大田区東海3丁目1","lat":35.583916,"lon":139.760419},{"name":"都営浅草線西馬込駅","province":"東京都","city":"大田区","address":"東京都大田区西馬込2丁目1","lat":35.587452,"lon":139.706039},{"name":"都営浅草線馬込駅","province":"東京都","city":"大田区","address":"東京都大田区北馬込2丁目31","lat":35.597218,"lon":139.711996},{"name":"大森消防署山谷出張所","province":"東京都","city":"大田区","address":"東京都大田区大森西5丁目14-5","lat":35.569765,"lon":139.729981},{"name":"大森消防署森ケ崎出張所","province":"東京都","city":"大田区","address":"東京都大田区大森南3丁目33-8","lat":35.564541,"lon":139.745669},{"name":"大森消防署馬込出張所","province":"東京都","city":"大田区","address":"東京都大田区南馬込5丁目2-3","lat":35.591449,"lon":139.709962},{"name":"蒲田消防署　空港分署","province":"東京都","city":"大田区","address":"東京都大田区羽田空港1丁目1-2","lat":35.54911,"lon":139.753255},{"name":"大田区役所本庁舎","province":"東京都","city":"大田区","address":"東京都大田区蒲田5丁目13-14","lat":35.561376,"lon":139.715968},{"name":"六郷地域力推進センター","province":"東京都","city":"大田区","address":"東京都大田区仲六郷2丁目44-11","lat":35.551015,"lon":139.71604},{"name":"大田区役所本庁舎","province":"東京都","city":"大田区","address":"東京都大田区蒲田5丁目13-14","lat":35.561369,"lon":139.715993},{"name":"大田区役所本庁舎","province":"東京都","city":"大田区","address":"東京都大田区蒲田5丁目13-14","lat":35.561865,"lon":139.716212},{"name":"大田区大森地域庁舎","province":"東京都","city":"大田区","address":"東京都大田区大森西1丁目12-1","lat":35.578186,"lon":139.722901},{"name":"大田区役所久が原特別出張所","province":"東京都","city":"大田区","address":"東京都大田区久が原4丁目12-10","lat":35.580315,"lon":139.693955},{"name":"大田区蒲田地域庁舎","province":"東京都","city":"大田区","address":"東京都大田区蒲田本町2丁目1-1","lat":35.55851,"lon":139.718337},{"name":"大田区役所 糀谷･羽田地域庁舎","province":"東京都","city":"大田区","address":"東京都大田区東糀谷1丁目21-15","lat":35.557255,"lon":139.739743},{"name":"調布地域庁舎","province":"東京都","city":"大田区","address":"東京都大田区雪谷大塚町4-6","lat":35.593181,"lon":139.680602},{"name":"大田区大森東特別出張所","province":"東京都","city":"大田区","address":"東京都大田区大森南4丁目9","lat":35.566864,"lon":139.74603},{"name":"馬込特別出張所","province":"東京都","city":"大田区","address":"東京都大田区中馬込3丁目25-5","lat":35.594049,"lon":139.709977},{"name":"池上特別出張所","province":"東京都","city":"大田区","address":"東京都大田区池上1丁目29-6","lat":35.575007,"lon":139.710412},{"name":"大田区新井宿特別出張所","province":"東京都","city":"大田区","address":"東京都大田区中央1丁目21-6","lat":35.579707,"lon":139.719739},{"name":"大田区新井宿特別出張所","province":"東京都","city":"大田区","address":"東京都大田区中央1丁目21-6","lat":35.579622,"lon":139.719712},{"name":"大田区嶺町特別出張所","province":"東京都","city":"大田区","address":"東京都大田区田園調布本町7-1","lat":35.587878,"lon":139.677445},{"name":"鵜の木特別出張所","province":"東京都","city":"大田区","address":"東京都大田区南久が原2丁目30-5","lat":35.574921,"lon":139.685267},{"name":"糀谷特別出張所","province":"東京都","city":"大田区","address":"東京都大田区西糀谷2丁目14-13","lat":35.558682,"lon":139.736727},{"name":"雪谷特別出張所","province":"東京都","city":"大田区","address":"東京都大田区東雪谷3丁目6-2","lat":35.594582,"lon":139.691034},{"name":"雪谷特別出張所","province":"東京都","city":"大田区","address":"東京都大田区東雪谷3丁目6-2","lat":35.594605,"lon":139.690998},{"name":"田園調布特別出張所","province":"東京都","city":"大田区","address":"東京都大田区田園調布1丁目30-1","lat":35.588066,"lon":139.671144},{"name":"エセナおおた","province":"東京都","city":"大田区","address":"東京都大田区大森北4丁目16-4","lat":35.583488,"lon":139.726907},{"name":"大田区矢口特別出張所（矢口区民センター）","province":"東京都","city":"大田区","address":"東京都大田区矢口2丁目21-14","lat":35.562187,"lon":139.690423},{"name":"大田区矢口特別出張所（矢口区民センター）","province":"東京都","city":"大田区","address":"東京都大田区矢口2丁目21-14","lat":35.562123,"lon":139.690429},{"name":"ふれあいはすぬま","province":"東京都","city":"大田区","address":"東京都大田区西蒲田3丁目19-1","lat":35.567991,"lon":139.707596},{"name":"消費者生活センター","province":"東京都","city":"大田区","address":"東京都大田区蒲田5丁目13-26","lat":35.559838,"lon":139.715468},{"name":"大森西区民センター","province":"東京都","city":"大田区","address":"東京都大田区大森西2丁目20-17","lat":35.576532,"lon":139.727722},{"name":"大森西区民センター","province":"東京都","city":"大田区","address":"東京都大田区大森西2丁目20-17","lat":35.576452,"lon":139.727654},{"name":"馬込区民センター","province":"東京都","city":"大田区","address":"東京都大田区南馬込4丁目6-5","lat":35.586442,"lon":139.709978},{"name":"ライフコミュニティ西馬込","province":"東京都","city":"大田区","address":"東京都大田区西馬込2丁目20-1","lat":35.586461,"lon":139.705193},{"name":"池上会館","province":"東京都","city":"大田区","address":"東京都大田区池上1丁目32","lat":35.577383,"lon":139.706156},{"name":"池上会館","province":"東京都","city":"大田区","address":"東京都大田区池上1丁目32-8","lat":35.577427,"lon":139.706409},{"name":"池上会館","province":"東京都","city":"大田区","address":"東京都大田区池上1丁目32-8","lat":35.577287,"lon":139.706462},{"name":"大田区新井宿会館","province":"東京都","city":"大田区","address":"東京都大田区中央4丁目31-14","lat":35.579799,"lon":139.718477},{"name":"美原文化センター","province":"東京都","city":"大田区","address":"東京都大田区大森東1丁目28-9","lat":35.577156,"lon":139.73811},{"name":"南馬込文化センター","province":"東京都","city":"大田区","address":"東京都大田区南馬込3丁目24","lat":35.584929,"lon":139.71881},{"name":"糀谷文化センター","province":"東京都","city":"大田区","address":"東京都大田区西糀谷2丁目14-5","lat":35.559088,"lon":139.736378},{"name":"大田区立石川町文化センター","province":"東京都","city":"大田区","address":"東京都大田区石川町1丁目3-8","lat":35.602065,"lon":139.683038},{"name":"大森南図書館","province":"東京都","city":"大田区","address":"東京都大田区大森南1丁目17-7","lat":35.563421,"lon":139.739717},{"name":"萩中文化センター","province":"東京都","city":"大田区","address":"東京都大田区萩中1丁目7-30","lat":35.550384,"lon":139.728375},{"name":"大田区民プラザ","province":"東京都","city":"大田区","address":"東京都大田区下丸子3丁目1-3","lat":35.571425,"lon":139.686371},{"name":"大田区民プラザ","province":"東京都","city":"大田区","address":"東京都大田区下丸子3丁目1-3","lat":35.571313,"lon":139.686552},{"name":"大田区産業プラザPiO","province":"東京都","city":"大田区","address":"東京都大田区南蒲田1丁目20-20","lat":35.558747,"lon":139.723915},{"name":"大田区産業プラザPiO","province":"東京都","city":"大田区","address":"東京都大田区南蒲田1丁目20-20","lat":35.558817,"lon":139.724257},{"name":"大田区産業プラザPiO","province":"東京都","city":"大田区","address":"東京都大田区南蒲田1丁目20-20","lat":35.558654,"lon":139.724374},{"name":"大田区産業プラザPiO","province":"東京都","city":"大田区","address":"東京都大田区南蒲田1丁目20-20","lat":35.558668,"lon":139.724099},{"name":"大田区産業プラザPiO","province":"東京都","city":"大田区","address":"東京都大田区南蒲田1丁目20-20","lat":35.558618,"lon":139.724097},{"name":"大田区産業プラザPiO","province":"東京都","city":"大田区","address":"東京都大田区南蒲田1丁目20-20","lat":35.558599,"lon":139.724132},{"name":"多摩川集会室（多摩川児童館）","province":"東京都","city":"大田区","address":"東京都大田区多摩川2丁目24-25","lat":35.555251,"lon":139.704546},{"name":"大田区立障がい者総合サポートセンター","province":"東京都","city":"大田区","address":"東京都大田区中央4丁目30","lat":35.579414,"lon":139.718032},{"name":"池上文化センター","province":"東京都","city":"大田区","address":"東京都大田区池上4丁目21-13","lat":35.575325,"lon":139.703697},{"name":"大田区青少年交流センターゆいっつ","province":"東京都","city":"大田区","address":"東京都大田区平和島4丁目2-15","lat":35.583639,"lon":139.743053},{"name":"大田区青少年交流センターゆいっつ","province":"東京都","city":"大田区","address":"東京都大田区平和島4丁目2","lat":35.583392,"lon":139.743014},{"name":"大田区青少年交流センターゆいっつ","province":"東京都","city":"大田区","address":"東京都大田区平和島4丁目2","lat":35.583409,"lon":139.743074},{"name":"大田区青少年交流センターゆいっつ","province":"東京都","city":"大田区","address":"東京都大田区平和島4丁目2-15","lat":35.583642,"lon":139.743053},{"name":"大田区青少年交流センターゆいっつ","province":"東京都","city":"大田区","address":"東京都大田区平和島4丁目2","lat":35.583471,"lon":139.743215},{"name":"大田区青少年交流センターゆいっつ","province":"東京都","city":"大田区","address":"東京都大田区平和島4丁目2","lat":35.583467,"lon":139.743188},{"name":"久が原図書館","province":"東京都","city":"大田区","address":"東京都大田区久が原2丁目28-4","lat":35.579328,"lon":139.695364},{"name":"大森東図書館","province":"東京都","city":"大田区","address":"東京都大田区大森東1丁目31-3","lat":35.576213,"lon":139.738683},{"name":"大森西図書館","province":"東京都","city":"大田区","address":"東京都大田区大森西5丁目2-13","lat":35.571812,"lon":139.726004},{"name":"浜竹図書館","province":"東京都","city":"大田区","address":"東京都大田区西糀谷3丁目32-7","lat":35.553343,"lon":139.737448},{"name":"洗足池図書館","province":"東京都","city":"大田区","address":"東京都大田区南千束2丁目2-10","lat":35.600722,"lon":139.691921},{"name":"六郷図書館","province":"東京都","city":"大田区","address":"東京都大田区南六郷3丁目10-3","lat":35.543918,"lon":139.714155},{"name":"羽田図書館","province":"東京都","city":"大田区","address":"東京都大田区羽田1丁目11-1","lat":35.550357,"lon":139.74343},{"name":"下丸子図書館","province":"東京都","city":"大田区","address":"東京都大田区下丸子2丁目18-11","lat":35.565748,"lon":139.688114},{"name":"多摩川図書館","province":"東京都","city":"大田区","address":"東京都大田区多摩川2丁目24-63","lat":35.556151,"lon":139.702315},{"name":"多摩川図書館","province":"東京都","city":"大田区","address":"東京都大田区多摩川2丁目24-63","lat":35.556158,"lon":139.70236},{"name":"蒲田図書館","province":"東京都","city":"大田区","address":"東京都大田区東蒲田1丁目19-22","lat":35.563669,"lon":139.728418},{"name":"蒲田駅前図書館","province":"東京都","city":"大田区","address":"東京都大田区蒲田5丁目13-26","lat":35.559833,"lon":139.715474},{"name":"池上図書館","province":"東京都","city":"大田区","address":"東京都大田区池上6丁目3-10","lat":35.572131,"lon":139.703088},{"name":"山王草堂記念館","province":"東京都","city":"大田区","address":"東京都大田区山王1丁目41-21","lat":35.593288,"lon":139.721193},{"name":"大田文化の森","province":"東京都","city":"大田区","address":"東京都大田区中央2丁目10-1","lat":35.579038,"lon":139.720357},{"name":"大田文化の森","province":"東京都","city":"大田区","address":"東京都大田区中央2丁目10-1","lat":35.579255,"lon":139.720341},{"name":"大田文化の森","province":"東京都","city":"大田区","address":"東京都大田区中央2丁目10-1","lat":35.579155,"lon":139.72038},{"name":"大田文化の森","province":"東京都","city":"大田区","address":"東京都大田区中央2丁目10-1","lat":35.579114,"lon":139.720387},{"name":"大田文化の森","province":"東京都","city":"大田区","address":"東京都大田区中央2丁目10-1","lat":35.579076,"lon":139.720398},{"name":"郷土博物館","province":"東京都","city":"大田区","address":"東京都大田区南馬込5丁目11-13","lat":35.588506,"lon":139.710716},{"name":"尾?士郎記念館","province":"東京都","city":"大田区","address":"東京都大田区山王1丁目36","lat":35.592475,"lon":139.72156},{"name":"龍子記念館","province":"東京都","city":"大田区","address":"東京都大田区中央4丁目2-1","lat":35.582386,"lon":139.71523},{"name":"大森 海苔のふるさと館","province":"東京都","city":"大田区","address":"東京都大田区平和の森公園2-2","lat":35.577114,"lon":139.742692},{"name":"森ケ崎緑華園","province":"東京都","city":"大田区","address":"東京都大田区大森南4丁目3","lat":35.567823,"lon":139.745438},{"name":"大田区民ホール・アプリコ","province":"東京都","city":"大田区","address":"東京都大田区蒲田5丁目37-3","lat":35.560284,"lon":139.717872},{"name":"大田区民ホール・アプリコ","province":"東京都","city":"大田区","address":"東京都大田区蒲田5丁目37-3","lat":35.560243,"lon":139.718081},{"name":"大田区民ホール・アプリコ","province":"東京都","city":"大田区","address":"東京都大田区蒲田5丁目37-1","lat":35.560435,"lon":139.717988},{"name":"タワーふれあい公園前緑地","province":"東京都","city":"大田区","address":"東京都大田区多摩川2丁目24","lat":35.554363,"lon":139.703302},{"name":"まごめばし児童公園","province":"東京都","city":"大田区","address":"東京都大田区中馬込3丁目29","lat":35.593313,"lon":139.71055},{"name":"鵜の木二丁目児童公園","province":"東京都","city":"大田区","address":"東京都大田区鵜の木2丁目32","lat":35.573183,"lon":139.680102},{"name":"下丸子公園","province":"東京都","city":"大田区","address":"東京都大田区下丸子4丁目21","lat":35.569261,"lon":139.681636},{"name":"下丸子二丁目公園","province":"東京都","city":"大田区","address":"東京都大田区下丸子2丁目24","lat":35.563225,"lon":139.686954},{"name":"蒲田一丁目公園","province":"東京都","city":"大田区","address":"東京都大田区蒲田1丁目7","lat":35.567215,"lon":139.720927},{"name":"蒲田本町二丁目公園","province":"東京都","city":"大田区","address":"東京都大田区蒲田本町2丁目30","lat":35.556879,"lon":139.720881},{"name":"久が原公園","province":"東京都","city":"大田区","address":"東京都大田区久が原3丁目27","lat":35.581858,"lon":139.69113},{"name":"宮ノ下にこにこ児童公園","province":"東京都","city":"大田区","address":"東京都大田区中馬込3丁目23","lat":35.592958,"lon":139.708439},{"name":"京浜蒲田公園","province":"東京都","city":"大田区","address":"東京都大田区蒲田4丁目17","lat":35.561207,"lon":139.722128},{"name":"根ヶ原緑地","province":"東京都","city":"大田区","address":"東京都大田区山王3丁目15","lat":35.582185,"lon":139.721013},{"name":"桜並木公園","province":"東京都","city":"大田区","address":"東京都大田区南馬込4丁目11","lat":35.58447,"lon":139.711643},{"name":"山王三丁目児童公園","province":"東京都","city":"大田区","address":"東京都大田区山王3丁目8","lat":35.581769,"lon":139.723953},{"name":"若竹公園","province":"東京都","city":"大田区","address":"東京都大田区大森西1丁目8","lat":35.578038,"lon":139.726585},{"name":"小池公園","province":"東京都","city":"大田区","address":"東京都大田区上池台1丁目36","lat":35.598657,"lon":139.69696},{"name":"昭和島二丁目公園","province":"東京都","city":"大田区","address":"東京都大田区昭和島2丁目4","lat":35.574386,"lon":139.752105},{"name":"上池台三丁目公園","province":"東京都","city":"大田区","address":"東京都大田区上池台3丁目16","lat":35.593027,"lon":139.697856},{"name":"上池台射水坂公園","province":"東京都","city":"大田区","address":"東京都大田区上池台4丁目19","lat":35.598336,"lon":139.702427},{"name":"新井宿児童公園","province":"東京都","city":"大田区","address":"東京都大田区中央4丁目31","lat":35.579507,"lon":139.71864},{"name":"新井宿第一児童公園","province":"東京都","city":"大田区","address":"東京都大田区山王3丁目4","lat":35.584445,"lon":139.72511},{"name":"清花公園","province":"東京都","city":"大田区","address":"東京都大田区大森北2丁目8","lat":35.585496,"lon":139.73373},{"name":"西蒲田公園","province":"東京都","city":"大田区","address":"東京都大田区西蒲田8丁目6","lat":35.561436,"lon":139.710976},{"name":"西六郷公園","province":"東京都","city":"大田区","address":"東京都大田区西六郷1丁目6","lat":35.55334,"lon":139.711724},{"name":"西六郷三丁目公園","province":"東京都","city":"大田区","address":"東京都大田区西六郷3丁目16","lat":35.546286,"lon":139.705935},{"name":"西六郷二丁目児童公園","province":"東京都","city":"大田区","address":"東京都大田区西六郷2丁目30","lat":35.549841,"lon":139.706964},{"name":"千鳥いこい公園","province":"東京都","city":"大田区","address":"東京都大田区久が原6丁目26","lat":35.573529,"lon":139.694724},{"name":"千鳥いこい公園","province":"東京都","city":"大田区","address":"東京都大田区久が原6丁目26","lat":35.573043,"lon":139.694441},{"name":"千鳥三丁目児童公園","province":"東京都","city":"大田区","address":"東京都大田区千鳥3丁目22","lat":35.570218,"lon":139.690545},{"name":"洗足池公園","province":"東京都","city":"大田区","address":"東京都大田区南千束2丁目14","lat":35.602757,"lon":139.689607},{"name":"洗足池公園","province":"東京都","city":"大田区","address":"東京都大田区南千束2丁目1","lat":35.600362,"lon":139.69162},{"name":"洗足池公園","province":"東京都","city":"大田区","address":"東京都大田区南千束2丁目33","lat":35.602721,"lon":139.691614},{"name":"洗足池公園","province":"東京都","city":"大田区","address":"東京都大田区南千束2丁目15","lat":35.603822,"lon":139.689229},{"name":"多摩川台公園","province":"東京都","city":"大田区","address":"東京都大田区田園調布1丁目63","lat":35.590115,"lon":139.666869},{"name":"多摩川台公園","province":"東京都","city":"大田区","address":"東京都大田区田園調布4丁目4","lat":35.592987,"lon":139.663172},{"name":"多摩川台公園","province":"東京都","city":"大田区","address":"東京都大田区田園調布1丁目56","lat":35.588077,"lon":139.667904},{"name":"多摩川台公園","province":"東京都","city":"大田区","address":"東京都大田区田園調布1丁目63","lat":35.588722,"lon":139.667159},{"name":"多摩川台公園","province":"東京都","city":"大田区","address":"東京都大田区田園調布1丁目63","lat":35.58995,"lon":139.666648},{"name":"多摩川緑地","province":"東京都","city":"大田区","address":"東京都大田区西六郷4丁目","lat":35.540381,"lon":139.704774},{"name":"大森ふるさとの浜辺公園","province":"東京都","city":"大田区","address":"東京都大田区ふるさとの浜辺公園","lat":35.574152,"lon":139.741702},{"name":"大森ふるさとの浜辺公園","province":"東京都","city":"大田区","address":"東京都大田区ふるさとの浜辺公園","lat":35.57443,"lon":139.741902},{"name":"大森ふるさとの浜辺公園","province":"東京都","city":"大田区","address":"東京都大田区平和の森公園2","lat":35.577012,"lon":139.743396},{"name":"大森諏訪公園","province":"東京都","city":"大田区","address":"東京都大田区大森西3丁目3","lat":35.574832,"lon":139.730705},{"name":"大森西一丁目児童公園","province":"東京都","city":"大田区","address":"東京都大田区大森西1丁目12","lat":35.577085,"lon":139.722734},{"name":"大森西交通公園","province":"東京都","city":"大田区","address":"東京都大田区大森西3丁目4","lat":35.574405,"lon":139.73157},{"name":"大森西四丁目公園","province":"東京都","city":"大田区","address":"東京都大田区大森西4丁目10","lat":35.573083,"lon":139.72307},{"name":"大森西七丁目公園","province":"東京都","city":"大田区","address":"東京都大田区大森西7丁目9","lat":35.569925,"lon":139.719732},{"name":"大森西二丁目児童公園","province":"東京都","city":"大田区","address":"東京都大田区大森西2丁目20","lat":35.576125,"lon":139.727941},{"name":"大森仲町児童公園","province":"東京都","city":"大田区","address":"東京都大田区大森本町2丁目26","lat":35.578161,"lon":139.736733},{"name":"大森東一丁目第一公園","province":"東京都","city":"大田区","address":"東京都大田区大森東1丁目35","lat":35.576155,"lon":139.73994},{"name":"大森北公園","province":"東京都","city":"大田区","address":"東京都大田区大森北2丁目18","lat":35.587022,"lon":139.735517},{"name":"大田区立あさひ海老取川公園","province":"東京都","city":"大田区","address":"東京都大田区羽田旭町11","lat":35.553005,"lon":139.752584},{"name":"大田区立羽田西前公園","province":"東京都","city":"大田区","address":"東京都大田区羽田2丁目6","lat":35.547603,"lon":139.743769},{"name":"大田区立基船堀公園","province":"東京都","city":"大田区","address":"東京都大田区大森東3丁目16","lat":35.570358,"lon":139.740266},{"name":"大田区立旧呑川緑地","province":"東京都","city":"大田区","address":"東京都大田区大森南3丁目6","lat":35.567887,"lon":139.743788},{"name":"森ヶ崎海岸公園","province":"東京都","city":"大田区","address":"東京都大田区大森南4丁目11","lat":35.567039,"lon":139.748995},{"name":"大田区立森ケ崎交通公園","province":"東京都","city":"大田区","address":"東京都大田区大森南4丁目9","lat":35.566948,"lon":139.746064},{"name":"大田区立大四前くすのき公園","province":"東京都","city":"大田区","address":"東京都大田区大森南3丁目24","lat":35.564486,"lon":139.742723},{"name":"大田区立大森南一丁目公園","province":"東京都","city":"大田区","address":"東京都大田区大森南1丁目24","lat":35.561307,"lon":139.738167},{"name":"大森南第一公園","province":"東京都","city":"大田区","address":"東京都大田区大森南1丁目12","lat":35.563773,"lon":139.73976},{"name":"萩中一丁目公園","province":"東京都","city":"大田区","address":"東京都大田区萩中1丁目3","lat":35.552156,"lon":139.725799},{"name":"萩中公園","province":"東京都","city":"大田区","address":"東京都大田区萩中3丁目25","lat":35.549403,"lon":139.738978},{"name":"萩中公園","province":"東京都","city":"大田区","address":"東京都大田区萩中3丁目26","lat":35.551073,"lon":139.736123},{"name":"萩中三丁目児童公園","province":"東京都","city":"大田区","address":"東京都大田区萩中3丁目30","lat":35.549616,"lon":139.733599},{"name":"大田区立萩中児童遊園","province":"東京都","city":"大田区","address":"東京都大田区萩中1丁目5","lat":35.55199,"lon":139.72788},{"name":"大田区立舞の浦児童公園","province":"東京都","city":"大田区","address":"東京都大田区大森南2丁目14","lat":35.56216,"lon":139.741224},{"name":"大田区立北糀谷中央公園","province":"東京都","city":"大田区","address":"東京都大田区北糀谷1丁目15","lat":35.562566,"lon":139.735023},{"name":"池上五丁目公園","province":"東京都","city":"大田区","address":"東京都大田区池上5丁目15","lat":35.571102,"lon":139.70614},{"name":"池上梅園","province":"東京都","city":"大田区","address":"東京都大田区池上2丁目2","lat":35.581076,"lon":139.702635},{"name":"池上梅園","province":"東京都","city":"大田区","address":"東京都大田区池上2丁目2","lat":35.581633,"lon":139.702702},{"name":"仲蒲田公園","province":"東京都","city":"大田区","address":"東京都大田区蒲田4丁目35","lat":35.559527,"lon":139.720827},{"name":"仲六郷三丁目第二公園","province":"東京都","city":"大田区","address":"東京都大田区仲六郷3丁目19","lat":35.547102,"lon":139.710271},{"name":"鶴渡公園","province":"東京都","city":"大田区","address":"東京都大田区大森西6丁目12","lat":35.56897,"lon":139.724805},{"name":"田園調布せせらぎ館","province":"東京都","city":"大田区","address":"東京都大田区田園調布1丁目53","lat":35.589695,"lon":139.6692},{"name":"田園調布せせらぎ公園","province":"東京都","city":"大田区","address":"東京都大田区田園調布1丁目53","lat":35.590002,"lon":139.669778},{"name":"田園調布せせらぎ公園","province":"東京都","city":"大田区","address":"東京都大田区田園調布1丁目53","lat":35.590351,"lon":139.669005},{"name":"都堀公園","province":"東京都","city":"大田区","address":"東京都大田区大森東1丁目30","lat":35.577182,"lon":139.738522},{"name":"東蒲田公園","province":"東京都","city":"大田区","address":"東京都大田区東蒲田1丁目11","lat":35.564465,"lon":139.728349},{"name":"東蒲田二丁目公園","province":"東京都","city":"大田区","address":"東京都大田区東蒲田2丁目32","lat":35.561126,"lon":139.726169},{"name":"東中公園","province":"東京都","city":"大田区","address":"東京都大田区東雪谷4丁目3","lat":35.594818,"lon":139.691655},{"name":"東調布公園","province":"東京都","city":"大田区","address":"東京都大田区南雪谷5丁目12","lat":35.589556,"lon":139.689123},{"name":"東糀谷一丁目公園だれでもトイレ","province":"東京都","city":"大田区","address":"東京都大田区東糀谷1丁目4","lat":35.560265,"lon":139.740479},{"name":"東糀谷防災公園だれでもトイレ","province":"東京都","city":"大田区","address":"東京都大田区東糀谷4丁目5-1","lat":35.55666,"lon":139.745196},{"name":"東糀谷防災公園だれでもトイレ","province":"東京都","city":"大田区","address":"東京都大田区東糀谷4丁目5","lat":35.55596,"lon":139.745081},{"name":"東糀谷防災公園だれでもトイレ","province":"東京都","city":"大田区","address":"東京都大田区東糀谷4丁目5","lat":35.557061,"lon":139.745991},{"name":"徳持公園","province":"東京都","city":"大田区","address":"東京都大田区池上8丁目20","lat":35.568056,"lon":139.696871},{"name":"南蒲公園","province":"東京都","city":"大田区","address":"東京都大田区西糀谷1丁目12","lat":35.55841,"lon":139.727843},{"name":"南蒲田二丁目児童公園","province":"東京都","city":"大田区","address":"東京都大田区南蒲田2丁目26","lat":35.554694,"lon":139.722136},{"name":"南三堤公園","province":"東京都","city":"大田区","address":"東京都大田区南六郷3丁目23","lat":35.54189,"lon":139.715694},{"name":"南前堀緑地だれでもトイレ","province":"東京都","city":"大田区","address":"東京都大田区東糀谷4丁目10","lat":35.553931,"lon":139.743487},{"name":"南前堀緑地だれでもトイレ","province":"東京都","city":"大田区","address":"東京都大田区東糀谷3丁目16","lat":35.554051,"lon":139.745776},{"name":"南六郷公園","province":"東京都","city":"大田区","address":"東京都大田区南六郷2丁目35","lat":35.545034,"lon":139.721973},{"name":"入新井公園","province":"東京都","city":"大田区","address":"東京都大田区大森北1丁目20","lat":35.586346,"lon":139.730661},{"name":"入新井西公園","province":"東京都","city":"大田区","address":"東京都大田区大森北4丁目27","lat":35.585189,"lon":139.725993},{"name":"馬込西公園","province":"東京都","city":"大田区","address":"東京都大田区西馬込2丁目8","lat":35.58863,"lon":139.703233},{"name":"美原児童公園","province":"東京都","city":"大田区","address":"東京都大田区大森東1丁目13","lat":35.576184,"lon":139.737712},{"name":"平和の森公園","province":"東京都","city":"大田区","address":"東京都大田区平和の森公園2","lat":35.582743,"lon":139.739462},{"name":"平和の森公園","province":"東京都","city":"大田区","address":"東京都大田区平和の森公園2-4","lat":35.581535,"lon":139.738641},{"name":"平和の森公園","province":"東京都","city":"大田区","address":"東京都大田区平和の森公園2","lat":35.581277,"lon":139.73957},{"name":"平和の森公園","province":"東京都","city":"大田区","address":"東京都大田区平和の森公園2","lat":35.580002,"lon":139.74062},{"name":"平和の森公園","province":"東京都","city":"大田区","address":"東京都大田区平和の森公園2","lat":35.578649,"lon":139.740512},{"name":"平和の森公園","province":"東京都","city":"大田区","address":"東京都大田区平和の森公園2","lat":35.577578,"lon":139.742302},{"name":"平和島公園","province":"東京都","city":"大田区","address":"東京都大田区平和島4丁目2","lat":35.582486,"lon":139.743133},{"name":"宝来公園","province":"東京都","city":"大田区","address":"東京都大田区田園調布3丁目31","lat":35.593915,"lon":139.664152},{"name":"邦西児童公園","province":"東京都","city":"大田区","address":"東京都大田区大森西4丁目18","lat":35.571962,"lon":139.721946},{"name":"北前堀緑地だれでもトイレ","province":"東京都","city":"大田区","address":"東京都大田区東糀谷5丁目14","lat":35.559084,"lon":139.742691},{"name":"北馬込わくわく公園","province":"東京都","city":"大田区","address":"東京都大田区北馬込1丁目7","lat":35.600804,"lon":139.703246},{"name":"本蒲田公園","province":"東京都","city":"大田区","address":"東京都大田区蒲田5丁目35","lat":35.559608,"lon":139.717772},{"name":"本門寺公園","province":"東京都","city":"大田区","address":"東京都大田区池上1丁目11","lat":35.57973,"lon":139.708063},{"name":"本門寺公園","province":"東京都","city":"大田区","address":"東京都大田区池上1丁目11","lat":35.579209,"lon":139.707689},{"name":"矢口二丁目公園","province":"東京都","city":"大田区","address":"東京都大田区矢口2丁目21","lat":35.561154,"lon":139.689781},{"name":"佐伯山緑地","province":"東京都","city":"大田区","address":"東京都大田区中央5丁目30","lat":35.581606,"lon":139.714371},{"name":"水神公園","province":"東京都","city":"大田区","address":"東京都大田区南雪谷5丁目10","lat":35.588208,"lon":139.686864},{"name":"みなさん児童公園","province":"東京都","city":"大田区","address":"東京都大田区南六郷3丁目10","lat":35.543615,"lon":139.714239},{"name":"高畑第三児童公園","province":"東京都","city":"大田区","address":"東京都大田区西六郷3丁目30","lat":35.545403,"lon":139.705072},{"name":"ソラムナード羽田緑地","province":"東京都","city":"大田区","address":"東京都大田区羽田空港2丁目8","lat":35.545591,"lon":139.758936},{"name":"ソラムナード羽田緑地","province":"東京都","city":"大田区","address":"東京都大田区羽田空港2丁目","lat":35.541139,"lon":139.769699},{"name":"潮見児童公園","province":"東京都","city":"大田区","address":"東京都大田区大森南4丁目4","lat":35.568702,"lon":139.746819},{"name":"森ケ崎公園","province":"東京都","city":"大田区","address":"東京都大田区大森南5丁目2-111","lat":35.562993,"lon":139.750004},{"name":"仲六郷二丁目公園","province":"東京都","city":"大田区","address":"東京都大田区仲六郷2丁目4","lat":35.5525,"lon":139.712969},{"name":"はばたき児童公園","province":"東京都","city":"大田区","address":"東京都大田区本羽田2丁目9","lat":35.547457,"lon":139.731862},{"name":"大鳥居児童公園","province":"東京都","city":"大田区","address":"東京都大田区羽田1丁目17","lat":35.549553,"lon":139.741524},{"name":"あじさい児童公園","province":"東京都","city":"大田区","address":"東京都大田区西糀谷4丁目24","lat":35.553647,"lon":139.732381},{"name":"森ケ崎緑華園","province":"東京都","city":"大田区","address":"東京都大田区大森南4丁目3","lat":35.567935,"lon":139.745569},{"name":"六間堀仲羽公園","province":"東京都","city":"大田区","address":"東京都大田区羽田4丁目18","lat":35.549013,"lon":139.74484},{"name":"蒲田本町一丁目公園","province":"東京都","city":"大田区","address":"東京都大田区蒲田本町1丁目1","lat":35.558286,"lon":139.715815},{"name":"東糀谷第一公園","province":"東京都","city":"大田区","address":"東京都大田区東糀谷6丁目8","lat":35.556008,"lon":139.747962},{"name":"松原橋公衆便所","province":"東京都","city":"大田区","address":"東京都大田区東馬込1丁目30","lat":35.595561,"lon":139.712017},{"name":"トイレさくら亭","province":"東京都","city":"大田区","address":"東京都大田区下丸子4丁目27","lat":35.573477,"lon":139.67596},{"name":"蒲田駅西口公衆便所","province":"東京都","city":"大田区","address":"東京都大田区西蒲田8丁目1","lat":35.561059,"lon":139.715133},{"name":"蒲田交差公衆便所","province":"東京都","city":"大田区","address":"東京都大田区蒲田5丁目12","lat":35.563805,"lon":139.716912},{"name":"蒲田交差公衆便所","province":"東京都","city":"大田区","address":"東京都大田区蒲田5丁目12","lat":35.563772,"lon":139.716902},{"name":"蒲田西口駅前公衆便所せせらぎ","province":"東京都","city":"大田区","address":"東京都大田区蒲田5丁目13","lat":35.562838,"lon":139.715966},{"name":"京急蒲田駅東口トイレ","province":"東京都","city":"大田区","address":"東京都大田区南蒲田1丁目20-32","lat":35.55986,"lon":139.72398},{"name":"大森駅前広場公衆便所","province":"東京都","city":"大田区","address":"東京都大田区大森北1丁目1","lat":35.588079,"lon":139.729315},{"name":"多摩川駅前公衆便所","province":"東京都","city":"大田区","address":"東京都大田区田園調布1丁目55","lat":35.588268,"lon":139.668802},{"name":"多摩川野球場前公衆便所","province":"東京都","city":"大田区","address":"東京都大田区田園調布4丁目44","lat":35.591889,"lon":139.661277},{"name":"大岡山駅前公衆便所","province":"東京都","city":"大田区","address":"東京都大田区北千束1丁目","lat":35.607587,"lon":139.685247},{"name":"大森駅山王口公衆便所","province":"東京都","city":"大田区","address":"東京都大田区山王2丁目2-9","lat":35.588246,"lon":139.72744},{"name":"平和島入口公衆便所","province":"東京都","city":"大田区","address":"東京都大田区大森本町1丁目9","lat":35.582874,"lon":139.737046},{"name":"大森東三丁目児童公園","province":"東京都","city":"大田区","address":"東京都大田区大森東3丁目5","lat":35.570275,"lon":139.73599},{"name":"田園調布駅前公衆便所","province":"東京都","city":"大田区","address":"東京都大田区田園調布2丁目62","lat":35.597321,"lon":139.667173},{"name":"子ども家庭支援センター洗足池分室","province":"東京都","city":"大田区","address":"東京都大田区上池台2丁目35-18","lat":35.597933,"lon":139.691726},{"name":"21世紀おもいで桜トイレ","province":"東京都","city":"大田区","address":"東京都大田区下丸子3丁目","lat":35.56496,"lon":139.681027},{"name":"池上駅公衆便所","province":"東京都","city":"大田区","address":"東京都大田区池上6丁目3-10","lat":35.572176,"lon":139.703333},{"name":"大田区羽田地域力推進センター","province":"東京都","city":"大田区","address":"東京都大田区羽田1丁目18-13","lat":35.549257,"lon":139.742423},{"name":"平和島公園水泳場","province":"東京都","city":"大田区","address":"東京都大田区平和島4丁目2-2","lat":35.581566,"lon":139.741805},{"name":"平和島公園水泳場","province":"東京都","city":"大田区","address":"東京都大田区平和島4丁目2-2","lat":35.581786,"lon":139.74206},{"name":"東調布公園水泳場","province":"東京都","city":"大田区","address":"東京都大田区南雪谷5丁目13-1","lat":35.588194,"lon":139.688964},{"name":"萩中公園水泳場","province":"東京都","city":"大田区","address":"東京都大田区萩中3丁目26","lat":35.549466,"lon":139.736321},{"name":"萩中公園水泳場","province":"東京都","city":"大田区","address":"東京都大田区萩中3丁目26","lat":35.549856,"lon":139.737334},{"name":"萩中公園水泳場","province":"東京都","city":"大田区","address":"東京都大田区萩中3丁目26-46","lat":35.550052,"lon":139.736452},{"name":"大森スポーツセンター","province":"東京都","city":"大田区","address":"東京都大田区大森本町2丁目2-5","lat":35.580906,"lon":139.737375},{"name":"大森スポーツセンター","province":"東京都","city":"大田区","address":"東京都大田区大森本町2丁目2-5","lat":35.580894,"lon":139.73737},{"name":"大田区総合体育館","province":"東京都","city":"大田区","address":"東京都大田区東蒲田1丁目11-1","lat":35.564081,"lon":139.728119},{"name":"大田区総合体育館","province":"東京都","city":"大田区","address":"東京都大田区東蒲田1丁目11-1","lat":35.564157,"lon":139.727514},{"name":"大田区総合体育館","province":"東京都","city":"大田区","address":"東京都大田区東蒲田1丁目11-1","lat":35.564696,"lon":139.727817},{"name":"大田区総合体育館","province":"東京都","city":"大田区","address":"東京都大田区東蒲田1丁目11-1","lat":35.564597,"lon":139.728134},{"name":"大田区総合体育館","province":"東京都","city":"大田区","address":"東京都大田区東蒲田1丁目11-1","lat":35.564611,"lon":139.728079},{"name":"大田区総合体育館","province":"東京都","city":"大田区","address":"東京都大田区東蒲田1丁目11-1","lat":35.564478,"lon":139.727598},{"name":"子ども家庭支援センター大森","province":"東京都","city":"大田区","address":"東京都大田区大森北4丁目16-5","lat":35.583336,"lon":139.727123},{"name":"子ども家庭支援センター洗足池分室","province":"東京都","city":"大田区","address":"東京都大田区上池台2丁目35-18","lat":35.597971,"lon":139.691736},{"name":"おおた国際交流センター","province":"東京都","city":"大田区","address":"東京都大田区蒲田4丁目16-8","lat":35.561342,"lon":139.722409},{"name":"大田スタジアム","province":"東京都","city":"大田区","address":"東京都大田区東海1丁目2-10","lat":35.588203,"lon":139.752758},{"name":"大田スタジアム","province":"東京都","city":"大田区","address":"東京都大田区東海1丁目2","lat":35.587935,"lon":139.752866},{"name":"大田スタジアム","province":"東京都","city":"大田区","address":"東京都大田区東海1丁目2","lat":35.588562,"lon":139.753425},{"name":"新蒲田一丁目複合施設","province":"東京都","city":"大田区","address":"東京都大田区新蒲田1丁目18-16","lat":35.557401,"lon":139.711292},{"name":"こども食堂ﾋﾛ","province":"東京都","city":"大田区","address":"東京都大田区南千束2丁目18-13","lat":35.60462481,"lon":139.68794244},{"name":"大岡山こども食堂","province":"東京都","city":"大田区","address":"東京都大田区北千束3丁目20-8","lat":35.60482752,"lon":139.68613703},{"name":"嶺町こども食堂みんなでごはん","province":"東京都","city":"大田区","address":"東京都大田区田園調布本町7-1","lat":35.58786589,"lon":139.67735279},{"name":"田園調布子ども食堂ともこｷｯﾁﾝ","province":"東京都","city":"大田区","address":"東京都大田区田園調布4丁目","lat":35.59272877,"lon":139.66135396},{"name":"ｶﾌｪｷｬﾋﾞﾝ","province":"東京都","city":"大田区","address":"東京都大田区南雪谷5丁目3-12","lat":35.58974056,"lon":139.68787927},{"name":"たんぽぽ食堂","province":"東京都","city":"大田区","address":"東京都大田区南雪谷5丁目3-12","lat":35.58974056,"lon":139.68787927},{"name":"子ども食堂ｳﾒｷｯﾁﾝ","province":"東京都","city":"大田区","address":"東京都大田区田園調布本町29-8","lat":35.58260295,"lon":139.67374809},{"name":"子ども食堂ﾌﾗﾝｼｽｺの広場","province":"東京都","city":"大田区","address":"東京都大田区仲池上1丁目21-11","lat":35.58569934,"lon":139.69815052},{"name":"こあら村のこども食堂","province":"東京都","city":"大田区","address":"東京都大田区久が原6丁目26-4","lat":35.57313754,"lon":139.69462416},{"name":"馬込子まもり食堂","province":"東京都","city":"大田区","address":"東京都大田区北馬込2丁目5-5","lat":35.59902577,"lon":139.7095962},{"name":"れんげの会こども食堂Withおとな","province":"東京都","city":"大田区","address":"東京都大田区西馬込2丁目20-1","lat":35.58649105,"lon":139.70527762},{"name":"絆倶楽部","province":"東京都","city":"大田区","address":"東京都大田区西馬込2丁目20-1","lat":35.58649105,"lon":139.70527762},{"name":"絆カフェ","province":"東京都","city":"大田区","address":"東京都大田区西馬込2丁目20-1","lat":35.58649105,"lon":139.70527762},{"name":"絆御飯","province":"東京都","city":"大田区","address":"東京都大田区西馬込2丁目20-1","lat":35.58649105,"lon":139.70527762},{"name":"てくてく食堂","province":"東京都","city":"大田区","address":"東京都大田区西馬込2丁目20-1","lat":35.58649105,"lon":139.70527762},{"name":"南馬込ｱｸﾞﾈｽこども食堂","province":"東京都","city":"大田区","address":"東京都大田区南馬込1丁目58-8","lat":35.58911316,"lon":139.71283519},{"name":"Steak＆Hamburg SOH","province":"東京都","city":"大田区","address":"東京都大田区山王2丁目36-9","lat":35.59170755,"lon":139.72220932},{"name":"おばんざい　地獄に佛","province":"東京都","city":"大田区","address":"東京都大田区山王2丁目2-15","lat":35.58900533,"lon":139.72802012},{"name":"ほっとねっとｷｯﾁﾝ","province":"東京都","city":"大田区","address":"東京都大田区中央2丁目10-1","lat":35.57955621,"lon":139.7202711},{"name":"みんなでべジ食","province":"東京都","city":"大田区","address":"東京都大田区池上3丁目32-17","lat":35.57372347,"lon":139.70167607},{"name":"子ども食堂ｵﾑﾗｲｽ食堂","province":"東京都","city":"大田区","address":"東京都大田区大森北1丁目29-6","lat":35.5855669,"lon":139.72875077},{"name":"こども＆ｼﾆｱ　もりもり食堂","province":"東京都","city":"大田区","address":"東京都大田区大森西2丁目2-1","lat":35.57887326,"lon":139.72839833},{"name":"こども食堂おやこｷｯﾁﾝ","province":"東京都","city":"大田区","address":"東京都大田区大森西2丁目2-1","lat":35.57887326,"lon":139.72839833},{"name":"感動こども食堂","province":"東京都","city":"大田区","address":"東京都大田区西蒲田7丁目5-12","lat":35.56378033,"lon":139.71516683},{"name":"だんだんﾜﾝｺｲﾝこども食堂","province":"東京都","city":"大田区","address":"東京都大田区東矢口1丁目17-9","lat":35.564572,"lon":139.70724548},{"name":"いちご食堂","province":"東京都","city":"大田区","address":"東京都大田区下丸子3丁目8-15","lat":35.57050488,"lon":139.68530334},{"name":"VICｽﾏｲﾙｷｯﾁﾝ","province":"東京都","city":"大田区","address":"東京都大田区矢口2丁目1-18","lat":35.56410568,"lon":139.69612749},{"name":"万人こども食堂","province":"東京都","city":"大田区","address":"東京都大田区新蒲田3丁目4-28","lat":35.55842023,"lon":139.70546838},{"name":"子ども食堂やんやん","province":"東京都","city":"大田区","address":"東京都大田区新蒲田2丁目1-13","lat":35.55895617,"lon":139.70872347},{"name":"ﾕﾆﾊﾞｰｻﾙこども食堂","province":"東京都","city":"大田区","address":"東京都大田区南六郷1丁目34-4","lat":35.54579173,"lon":139.72602558},{"name":"おおたﾗｰﾒﾝこども食堂（本羽田）","province":"東京都","city":"大田区","address":"東京都大田区本羽田1丁目12-9","lat":35.5488134,"lon":139.72456155},{"name":"大森東しあわせ食堂","province":"東京都","city":"大田区","address":"東京都大田区大森東4丁目6-15","lat":35.56848065,"lon":139.7383372},{"name":"ひこうき食堂","province":"東京都","city":"大田区","address":"東京都大田区新蒲田1丁目18-16","lat":35.55736749,"lon":139.71124551},{"name":"ﾄｰｷｮｰｺｰﾋｰ大田区　かぞく食堂","province":"東京都","city":"大田区","address":"東京都大田区大森東1丁目28-9","lat":35.57715448,"lon":139.73810337},{"name":"SOMPO流子ども食堂（そんぽの家　大鳥居）","province":"東京都","city":"大田区","address":"東京都大田区西糀谷3丁目32-2","lat":35.55304671,"lon":139.7372494},{"name":"SOMPO流子ども食堂（そんぽの家　東六郷）","province":"東京都","city":"大田区","address":"東京都大田区東六郷1丁目19-1","lat":35.55189611,"lon":139.7194534},{"name":"SOMPO流子ども食堂（そんぽの家S　西糀谷）","province":"東京都","city":"大田区","address":"東京都大田区西糀谷3丁目32-15","lat":35.552919,"lon":139.73772161},{"name":"SOMPO流子ども食堂（そんぽの家S　羽田）","province":"東京都","city":"大田区","address":"東京都大田区羽田2丁目2-11","lat":35.54853938,"lon":139.74190784},{"name":"SOMPO流子ども食堂（ﾗｳﾞｨｰﾚ羽田）","province":"東京都","city":"大田区","address":"東京都大田区東糀谷5丁目19-18","lat":35.55831036,"lon":139.74512924},{"name":"SOMPO流子ども食堂（ﾗｳﾞｨｰﾚ多摩川）","province":"東京都","city":"大田区","address":"東京都大田区多摩川2丁目13-22","lat":35.55821767,"lon":139.69939418},{"name":"みんなの食堂","province":"東京都","city":"大田区","address":"東京都大田区上池台1丁目13-4","lat":35.60263907,"lon":139.69726665},{"name":"羽田のこのこ食堂","province":"東京都","city":"大田区","address":"東京都大田区萩中2丁目11-5","lat":35.55107724,"lon":139.73176371},{"name":"ﾄﾘﾔｷ大学こども食堂","province":"東京都","city":"大田区","address":"東京都大田区蒲田5丁目19-15","lat":35.5622027,"lon":139.71791103},{"name":"子ども食堂ママちゃんち","province":"東京都","city":"大田区","address":"東京都大田区中央3丁目","lat":35.5766982,"lon":139.71946298},{"name":"えんむすび","province":"東京都","city":"大田区","address":"東京都大田区南六郷1丁目34-4","lat":35.54579173,"lon":139.72602558},{"name":"ﾌｰﾄﾞﾊﾞﾝｸ大田芋やぽんぽこ子ども食堂","province":"東京都","city":"大田区","address":"東京都大田区中央4丁目32-8","lat":35.57933676,"lon":139.71881846},{"name":"城南大橋第二","province":"東京都","city":"大田区","address":"東京都大田区東海3丁目4","lat":35.57770285,"lon":139.76242682},{"name":"京浜トラックターミナル","province":"東京都","city":"大田区","address":"東京都大田区平和島2丁目1-1","lat":35.58746451,"lon":139.74376358},{"name":"大田区立平和島公園運動場","province":"東京都","city":"大田区","address":"東京都大田区平和島4丁目2-2","lat":35.58184851,"lon":139.74213343},{"name":"都立大井埠頭中央海浜公園第２球技場","province":"東京都","city":"大田区","address":"東京都大田区東海1丁目4","lat":35.58593444,"lon":139.74992159},{"name":"京浜島防災広場運動場","province":"東京都","city":"大田区","address":"東京都大田区京浜島2丁目10","lat":35.57091777,"lon":139.7634161},{"name":"丸子橋野球場","province":"東京都","city":"大田区","address":"東京都大田区田園調布本町31","lat":35.58310843,"lon":139.67183161},{"name":"多摩川緑地サッカー場","province":"東京都","city":"大田区","address":"東京都大田区田園調布5丁目54","lat":35.59239824,"lon":139.65872368},{"name":"多摩川緑地野球場（西六郷４丁目）","province":"東京都","city":"大田区","address":"東京都大田区西六郷4丁目33","lat":35.54406986,"lon":139.70286408},{"name":"ガス橋緑地少年サッカー場（下丸子３丁目）","province":"東京都","city":"大田区","address":"東京都大田区下丸子3丁目30","lat":35.5668806,"lon":139.68245956},{"name":"ガス橋緑地少年野球場（下丸子２丁目）","province":"東京都","city":"大田区","address":"東京都大田区下丸子2丁目13","lat":35.56350616,"lon":139.684143},{"name":"東京都保健医療公社荏原病院ヘリポート","province":"東京都","city":"大田区","address":"東京都大田区東雪谷4丁目5-10","lat":35.59460659,"lon":139.69367561},{"name":"東京ガスグラウンド","province":"東京都","city":"大田区","address":"東京都大田区大森東3丁目28-1","lat":35.57249131,"lon":139.7398702},{"name":"多摩川緑地広場硬式野球場Ａ面（旧巨人軍グラウンド）","province":"東京都","city":"大田区","address":"東京都大田区田園調布4丁目44","lat":35.59210389,"lon":139.66145123},{"name":"多摩川大師橋緑地野球場","province":"東京都","city":"大田区","address":"東京都大田区本羽田2丁目14","lat":35.54584467,"lon":139.73048361},{"name":"区民広場（西六郷三丁目）","province":"東京都","city":"大田区","address":"東京都大田区西六郷3丁目13","lat":35.54625004,"lon":139.70335835},{"name":"大田スタジアム","province":"東京都","city":"大田区","address":"東京都大田区東海1丁目2-10","lat":35.58843701,"lon":139.75284626},{"name":"六郷橋緑地野球場","province":"東京都","city":"大田区","address":"東京都大田区東六郷3丁目","lat":35.54202554,"lon":139.71164099},{"name":"多摩川田園調布緑地サッカー場","province":"東京都","city":"大田区","address":"東京都大田区田園調布4丁目","lat":35.59272877,"lon":139.66135396},{"name":"大田区立東調布公園","province":"東京都","city":"大田区","address":"東京都大田区南雪谷5丁目13-1","lat":35.58826574,"lon":139.68930418},{"name":"多摩川大橋緑地","province":"東京都","city":"大田区","address":"東京都大田区矢口3丁目","lat":35.56021468,"lon":139.69576395},{"name":"京浜トラックターミナル","province":"東京都","city":"大田区","address":"東京都大田区平和島2丁目1-1","lat":35.58746451,"lon":139.74376358},{"name":"大井食品ふ頭","province":"東京都","city":"大田区","address":"東京都大田区東海5丁目","lat":35.59230672,"lon":139.77290296},{"name":"東京国際空港（羽田飛行場）","province":"東京都","city":"大田区","address":"東京都大田区羽田空港","lat":35.55306458,"lon":139.75430976},{"name":"多摩川二丁目緊急用船着場","province":"東京都","city":"大田区","address":"東京都大田区多摩川2丁目","lat":35.55788986,"lon":139.70234382},{"name":"東京都漁連水産物流通センター","province":"東京都","city":"大田区","address":"東京都大田区京浜島3丁目","lat":35.57325911,"lon":139.76385757},{"name":"大森ふるさとの浜辺公園","province":"東京都","city":"大田区","address":"東京都大田区平和の森公園2-2","lat":35.57713528,"lon":139.74270588},{"name":"羽田２、３丁目","province":"東京都","city":"大田区","address":"東京都大田区羽田5丁目23","lat":35.54810939,"lon":139.74881591},{"name":"東糀谷六丁目","province":"東京都","city":"大田区","address":"東京都大田区東糀谷6丁目","lat":35.55887451,"lon":139.75037338},{"name":"羽田空港天空橋","province":"東京都","city":"大田区","address":"東京都大田区羽田空港1丁目","lat":35.55478658,"lon":139.75528179},{"name":"大田区体育館","province":"東京都","city":"大田区","address":"東京都大田区東蒲田1丁目11-1","lat":35.56468885,"lon":139.72792128},{"name":"大田区産業プラザ（Ｐｉｏ）","province":"東京都","city":"大田区","address":"東京都大田区南蒲田1丁目20-20","lat":35.55879224,"lon":139.72416907},{"name":"東京空港事務所","province":"東京都","city":"大田区","address":"大田区羽田空港3-3-1","lat":35.5537,"lon":139.7822},{"name":"大田区田園調布南倉庫","province":"東京都","city":"大田区","address":"大田区田園調布南3-8区立田園調布南公園内","lat":35.57919,"lon":139.6752},{"name":"大田区南六郷倉庫","province":"東京都","city":"大田区","address":"大田区南六郷1-29-2-101都市再生機構南六郷一丁目団地内","lat":35.5462,"lon":139.7254},{"name":"東邦薬品（株）ＷＩＬＬ平和島","province":"東京都","city":"大田区","address":"大田区平和島6-1-1(株)東京流通センター内AE4-2","lat":35.57911,"lon":139.7477},{"name":"相互産業（株）","province":"東京都","city":"大田区","address":"大田区中央3-19-5","lat":35.57492,"lon":139.7186},{"name":"東京空港事務所","province":"東京都","city":"大田区","address":"東京都大田区羽田空港3丁目3-1","lat":35.55367361,"lon":139.78221286},{"name":"大森ふるさとの浜辺公園","province":"東京都","city":"大田区","address":"東京都大田区平和の森公園2-2","lat":35.57713528,"lon":139.74270588},{"name":"蒲田駅","province":"東京都","city":"大田区","address":"東京都大田区蒲田5丁目13-1","lat":35.56259434,"lon":139.71648618},{"name":"平和島ＰＡ（上り）","province":"東京都","city":"大田区","address":"東京都大田区","lat":35.56140006,"lon":139.7160474},{"name":"平和島ＰＡ（下り）","province":"東京都","city":"大田区","address":"東京都大田区","lat":35.56140006,"lon":139.7160474},{"name":"城南大橋第二倉庫","province":"東京都","city":"大田区","address":"東京都大田区東海3丁目4-2","lat":35.57794447,"lon":139.76251846},{"name":"大田都税事務所","province":"東京都","city":"大田区","address":"東京都大田区新蒲田1丁目18-22","lat":35.557443,"lon":139.710733},{"name":"大井ふ頭中央海浜公園ホッケー競技場","province":"東京都","city":"大田区","address":"東京都大田区東海1丁目2-1","lat":35.588825,"lon":139.753293},{"name":"大井ふ頭中央海浜公園ホッケー競技場","province":"東京都","city":"大田区","address":"東京都大田区東海1丁目2-1","lat":35.58881,"lon":139.753399},{"name":"大井ふ頭中央海浜公園ホッケー競技場","province":"東京都","city":"大田区","address":"東京都大田区東海1丁目2-1","lat":35.588868,"lon":139.753054},{"name":"大井ふ頭中央海浜公園ホッケー競技場","province":"東京都","city":"大田区","address":"東京都大田区東海1丁目2-1","lat":35.588868,"lon":139.753014},{"name":"地方独立行政法人東京都立病院機構　東京都立荏原病院","province":"東京都","city":"大田区","address":"東京都大田区東雪谷4丁目5-10","lat":35.593999,"lon":139.692898},{"name":"東京都中央卸売市場大田市場（事務棟）","province":"東京都","city":"大田区","address":"東京都大田区東海3丁目2-1","lat":35.579016,"lon":139.758734},{"name":"大井中央海浜公園","province":"東京都","city":"大田区","address":"東京都大田区東海1丁目1","lat":35.589033,"lon":139.750192},{"name":"大井中央海浜公園","province":"東京都","city":"大田区","address":"東京都大田区東海1丁目4","lat":35.585077,"lon":139.751562},{"name":"大井中央海浜公園","province":"東京都","city":"大田区","address":"東京都大田区東海1丁目2","lat":35.588216,"lon":139.751111},{"name":"大井中央海浜公園","province":"東京都","city":"大田区","address":"東京都大田区東海1丁目1","lat":35.588011,"lon":139.750383},{"name":"城南島海浜公園","province":"東京都","city":"大田区","address":"東京都大田区城南島4丁目2","lat":35.578382,"lon":139.783217},{"name":"城南島海浜公園","province":"東京都","city":"大田区","address":"東京都大田区城南島4丁目1","lat":35.5807,"lon":139.785557},{"name":"城南島海浜公園","province":"東京都","city":"大田区","address":"東京都大田区城南島4丁目1","lat":35.582085,"lon":139.783537},{"name":"東海ふ頭公園","province":"東京都","city":"大田区","address":"東京都大田区東海2丁目3","lat":35.577934,"lon":139.756133},{"name":"京浜島つばさ公園","province":"東京都","city":"大田区","address":"東京都大田区京浜島2丁目5","lat":35.567172,"lon":139.767332},{"name":"京浜島つばさ公園","province":"東京都","city":"大田区","address":"東京都大田区京浜島2丁目5","lat":35.571387,"lon":139.770572},{"name":"東京港野鳥公園","province":"東京都","city":"大田区","address":"東京都大田区東海3丁目1","lat":35.583588,"lon":139.760458},{"name":"東京港野鳥公園","province":"東京都","city":"大田区","address":"東京都大田区東海3丁目1","lat":35.583916,"lon":139.760419},{"name":"都営浅草線西馬込駅","province":"東京都","city":"大田区","address":"東京都大田区西馬込2丁目1","lat":35.587452,"lon":139.706039},{"name":"都営浅草線馬込駅","province":"東京都","city":"大田区","address":"東京都大田区北馬込2丁目31","lat":35.597218,"lon":139.711996},{"name":"大森消防署山谷出張所","province":"東京都","city":"大田区","address":"東京都大田区大森西5丁目14-5","lat":35.569765,"lon":139.729981},{"name":"大森消防署森ケ崎出張所","province":"東京都","city":"大田区","address":"東京都大田区大森南3丁目33-8","lat":35.564541,"lon":139.745669},{"name":"大森消防署馬込出張所","province":"東京都","city":"大田区","address":"東京都大田区南馬込5丁目2-3","lat":35.591449,"lon":139.709962},{"name":"蒲田消防署　空港分署","province":"東京都","city":"大田区","address":"東京都大田区羽田空港1丁目1-2","lat":35.54911,"lon":139.753255},{"name":"大田区役所本庁舎","province":"東京都","city":"大田区","address":"東京都大田区蒲田5丁目13-14","lat":35.561376,"lon":139.715968},{"name":"六郷地域力推進センター","province":"東京都","city":"大田区","address":"東京都大田区仲六郷2丁目44-11","lat":35.551015,"lon":139.71604},{"name":"大田区役所本庁舎","province":"東京都","city":"大田区","address":"東京都大田区蒲田5丁目13-14","lat":35.561369,"lon":139.715993},{"name":"大田区役所本庁舎","province":"東京都","city":"大田区","address":"東京都大田区蒲田5丁目13-14","lat":35.561865,"lon":139.716212},{"name":"大田区大森地域庁舎","province":"東京都","city":"大田区","address":"東京都大田区大森西1丁目12-1","lat":35.578186,"lon":139.722901},{"name":"大田区役所久が原特別出張所","province":"東京都","city":"大田区","address":"東京都大田区久が原4丁目12-10","lat":35.580315,"lon":139.693955},{"name":"大田区蒲田地域庁舎","province":"東京都","city":"大田区","address":"東京都大田区蒲田本町2丁目1-1","lat":35.55851,"lon":139.718337},{"name":"大田区役所 糀谷･羽田地域庁舎","province":"東京都","city":"大田区","address":"東京都大田区東糀谷1丁目21-15","lat":35.557255,"lon":139.739743},{"name":"調布地域庁舎","province":"東京都","city":"大田区","address":"東京都大田区雪谷大塚町4-6","lat":35.593181,"lon":139.680602},{"name":"大田区大森東特別出張所","province":"東京都","city":"大田区","address":"東京都大田区大森南4丁目9","lat":35.566864,"lon":139.74603},{"name":"馬込特別出張所","province":"東京都","city":"大田区","address":"東京都大田区中馬込3丁目25-5","lat":35.594049,"lon":139.709977},{"name":"池上特別出張所","province":"東京都","city":"大田区","address":"東京都大田区池上1丁目29-6","lat":35.575007,"lon":139.710412},{"name":"大田区新井宿特別出張所","province":"東京都","city":"大田区","address":"東京都大田区中央1丁目21-6","lat":35.579707,"lon":139.719739},{"name":"大田区新井宿特別出張所","province":"東京都","city":"大田区","address":"東京都大田区中央1丁目21-6","lat":35.579622,"lon":139.719712},{"name":"大田区嶺町特別出張所","province":"東京都","city":"大田区","address":"東京都大田区田園調布本町7-1","lat":35.587878,"lon":139.677445},{"name":"鵜の木特別出張所","province":"東京都","city":"大田区","address":"東京都大田区南久が原2丁目30-5","lat":35.574921,"lon":139.685267},{"name":"糀谷特別出張所","province":"東京都","city":"大田区","address":"東京都大田区西糀谷2丁目14-13","lat":35.558682,"lon":139.736727},{"name":"雪谷特別出張所","province":"東京都","city":"大田区","address":"東京都大田区東雪谷3丁目6-2","lat":35.594582,"lon":139.691034},{"name":"雪谷特別出張所","province":"東京都","city":"大田区","address":"東京都大田区東雪谷3丁目6-2","lat":35.594605,"lon":139.690998},{"name":"田園調布特別出張所","province":"東京都","city":"大田区","address":"東京都大田区田園調布1丁目30-1","lat":35.588066,"lon":139.671144},{"name":"エセナおおた","province":"東京都","city":"大田区","address":"東京都大田区大森北4丁目16-4","lat":35.583488,"lon":139.726907},{"name":"大田区矢口特別出張所（矢口区民センター）","province":"東京都","city":"大田区","address":"東京都大田区矢口2丁目21-14","lat":35.562187,"lon":139.690423},{"name":"大田区矢口特別出張所（矢口区民センター）","province":"東京都","city":"大田区","address":"東京都大田区矢口2丁目21-14","lat":35.562123,"lon":139.690429},{"name":"ふれあいはすぬま","province":"東京都","city":"大田区","address":"東京都大田区西蒲田3丁目19-1","lat":35.567991,"lon":139.707596},{"name":"消費者生活センター","province":"東京都","city":"大田区","address":"東京都大田区蒲田5丁目13-26","lat":35.559838,"lon":139.715468},{"name":"大森西区民センター","province":"東京都","city":"大田区","address":"東京都大田区大森西2丁目20-17","lat":35.576532,"lon":139.727722},{"name":"大森西区民センター","province":"東京都","city":"大田区","address":"東京都大田区大森西2丁目20-17","lat":35.576452,"lon":139.727654},{"name":"馬込区民センター","province":"東京都","city":"大田区","address":"東京都大田区南馬込4丁目6-5","lat":35.586442,"lon":139.709978},{"name":"ライフコミュニティ西馬込","province":"東京都","city":"大田区","address":"東京都大田区西馬込2丁目20-1","lat":35.586461,"lon":139.705193},{"name":"池上会館","province":"東京都","city":"大田区","address":"東京都大田区池上1丁目32","lat":35.577383,"lon":139.706156},{"name":"池上会館","province":"東京都","city":"大田区","address":"東京都大田区池上1丁目32-8","lat":35.577427,"lon":139.706409},{"name":"池上会館","province":"東京都","city":"大田区","address":"東京都大田区池上1丁目32-8","lat":35.577287,"lon":139.706462},{"name":"大田区新井宿会館","province":"東京都","city":"大田区","address":"東京都大田区中央4丁目31-14","lat":35.579799,"lon":139.718477},{"name":"美原文化センター","province":"東京都","city":"大田区","address":"東京都大田区大森東1丁目28-9","lat":35.577156,"lon":139.73811},{"name":"南馬込文化センター","province":"東京都","city":"大田区","address":"東京都大田区南馬込3丁目24","lat":35.584929,"lon":139.71881},{"name":"糀谷文化センター","province":"東京都","city":"大田区","address":"東京都大田区西糀谷2丁目14-5","lat":35.559088,"lon":139.736378},{"name":"大田区立石川町文化センター","province":"東京都","city":"大田区","address":"東京都大田区石川町1丁目3-8","lat":35.602065,"lon":139.683038},{"name":"大森南図書館","province":"東京都","city":"大田区","address":"東京都大田区大森南1丁目17-7","lat":35.563421,"lon":139.739717},{"name":"萩中文化センター","province":"東京都","city":"大田区","address":"東京都大田区萩中1丁目7-30","lat":35.550384,"lon":139.728375},{"name":"大田区民プラザ","province":"東京都","city":"大田区","address":"東京都大田区下丸子3丁目1-3","lat":35.571425,"lon":139.686371},{"name":"大田区民プラザ","province":"東京都","city":"大田区","address":"東京都大田区下丸子3丁目1-3","lat":35.571313,"lon":139.686552},{"name":"大田区産業プラザPiO","province":"東京都","city":"大田区","address":"東京都大田区南蒲田1丁目20-20","lat":35.558747,"lon":139.723915},{"name":"大田区産業プラザPiO","province":"東京都","city":"大田区","address":"東京都大田区南蒲田1丁目20-20","lat":35.558817,"lon":139.724257},{"name":"大田区産業プラザPiO","province":"東京都","city":"大田区","address":"東京都大田区南蒲田1丁目20-20","lat":35.558654,"lon":139.724374},{"name":"大田区産業プラザPiO","province":"東京都","city":"大田区","address":"東京都大田区南蒲田1丁目20-20","lat":35.558668,"lon":139.724099},{"name":"大田区産業プラザPiO","province":"東京都","city":"大田区","address":"東京都大田区南蒲田1丁目20-20","lat":35.558618,"lon":139.724097},{"name":"大田区産業プラザPiO","province":"東京都","city":"大田区","address":"東京都大田区南蒲田1丁目20-20","lat":35.558599,"lon":139.724132},{"name":"多摩川集会室（多摩川児童館）","province":"東京都","city":"大田区","address":"東京都大田区多摩川2丁目24-25","lat":35.555251,"lon":139.704546},{"name":"大田区立障がい者総合サポートセンター","province":"東京都","city":"大田区","address":"東京都大田区中央4丁目30","lat":35.579414,"lon":139.718032},{"name":"池上文化センター","province":"東京都","city":"大田区","address":"東京都大田区池上4丁目21-13","lat":35.575325,"lon":139.703697},{"name":"大田区青少年交流センターゆいっつ","province":"東京都","city":"大田区","address":"東京都大田区平和島4丁目2-15","lat":35.583639,"lon":139.743053},{"name":"大田区青少年交流センターゆいっつ","province":"東京都","city":"大田区","address":"東京都大田区平和島4丁目2","lat":35.583392,"lon":139.743014},{"name":"大田区青少年交流センターゆいっつ","province":"東京都","city":"大田区","address":"東京都大田区平和島4丁目2","lat":35.583409,"lon":139.743074},{"name":"大田区青少年交流センターゆいっつ","province":"東京都","city":"大田区","address":"東京都大田区平和島4丁目2-15","lat":35.583642,"lon":139.743053},{"name":"大田区青少年交流センターゆいっつ","province":"東京都","city":"大田区","address":"東京都大田区平和島4丁目2","lat":35.583471,"lon":139.743215},{"name":"大田区青少年交流センターゆいっつ","province":"東京都","city":"大田区","address":"東京都大田区平和島4丁目2","lat":35.583467,"lon":139.743188},{"name":"久が原図書館","province":"東京都","city":"大田区","address":"東京都大田区久が原2丁目28-4","lat":35.579328,"lon":139.695364},{"name":"大森東図書館","province":"東京都","city":"大田区","address":"東京都大田区大森東1丁目31-3","lat":35.576213,"lon":139.738683},{"name":"大森西図書館","province":"東京都","city":"大田区","address":"東京都大田区大森西5丁目2-13","lat":35.571812,"lon":139.726004},{"name":"浜竹図書館","province":"東京都","city":"大田区","address":"東京都大田区西糀谷3丁目32-7","lat":35.553343,"lon":139.737448},{"name":"洗足池図書館","province":"東京都","city":"大田区","address":"東京都大田区南千束2丁目2-10","lat":35.600722,"lon":139.691921},{"name":"六郷図書館","province":"東京都","city":"大田区","address":"東京都大田区南六郷3丁目10-3","lat":35.543918,"lon":139.714155},{"name":"羽田図書館","province":"東京都","city":"大田区","address":"東京都大田区羽田1丁目11-1","lat":35.550357,"lon":139.74343},{"name":"下丸子図書館","province":"東京都","city":"大田区","address":"東京都大田区下丸子2丁目18-11","lat":35.565748,"lon":139.688114},{"name":"多摩川図書館","province":"東京都","city":"大田区","address":"東京都大田区多摩川2丁目24-63","lat":35.556151,"lon":139.702315},{"name":"多摩川図書館","province":"東京都","city":"大田区","address":"東京都大田区多摩川2丁目24-63","lat":35.556158,"lon":139.70236},{"name":"蒲田図書館","province":"東京都","city":"大田区","address":"東京都大田区東蒲田1丁目19-22","lat":35.563669,"lon":139.728418},{"name":"蒲田駅前図書館","province":"東京都","city":"大田区","address":"東京都大田区蒲田5丁目13-26","lat":35.559833,"lon":139.715474},{"name":"池上図書館","province":"東京都","city":"大田区","address":"東京都大田区池上6丁目3-10","lat":35.572131,"lon":139.703088},{"name":"山王草堂記念館","province":"東京都","city":"大田区","address":"東京都大田区山王1丁目41-21","lat":35.593288,"lon":139.721193},{"name":"大田文化の森","province":"東京都","city":"大田区","address":"東京都大田区中央2丁目10-1","lat":35.579038,"lon":139.720357},{"name":"大田文化の森","province":"東京都","city":"大田区","address":"東京都大田区中央2丁目10-1","lat":35.579255,"lon":139.720341},{"name":"大田文化の森","province":"東京都","city":"大田区","address":"東京都大田区中央2丁目10-1","lat":35.579155,"lon":139.72038},{"name":"大田文化の森","province":"東京都","city":"大田区","address":"東京都大田区中央2丁目10-1","lat":35.579114,"lon":139.720387},{"name":"大田文化の森","province":"東京都","city":"大田区","address":"東京都大田区中央2丁目10-1","lat":35.579076,"lon":139.720398},{"name":"郷土博物館","province":"東京都","city":"大田区","address":"東京都大田区南馬込5丁目11-13","lat":35.588506,"lon":139.710716},{"name":"尾?士郎記念館","province":"東京都","city":"大田区","address":"東京都大田区山王1丁目36","lat":35.592475,"lon":139.72156},{"name":"龍子記念館","province":"東京都","city":"大田区","address":"東京都大田区中央4丁目2-1","lat":35.582386,"lon":139.71523},{"name":"大森 海苔のふるさと館","province":"東京都","city":"大田区","address":"東京都大田区平和の森公園2-2","lat":35.577114,"lon":139.742692},{"name":"森ケ崎緑華園","province":"東京都","city":"大田区","address":"東京都大田区大森南4丁目3","lat":35.567823,"lon":139.745438},{"name":"大田区民ホール・アプリコ","province":"東京都","city":"大田区","address":"東京都大田区蒲田5丁目37-3","lat":35.560284,"lon":139.717872},{"name":"大田区民ホール・アプリコ","province":"東京都","city":"大田区","address":"東京都大田区蒲田5丁目37-3","lat":35.560243,"lon":139.718081},{"name":"大田区民ホール・アプリコ","province":"東京都","city":"大田区","address":"東京都大田区蒲田5丁目37-1","lat":35.560435,"lon":139.717988},{"name":"タワーふれあい公園前緑地","province":"東京都","city":"大田区","address":"東京都大田区多摩川2丁目24","lat":35.554363,"lon":139.703302},{"name":"まごめばし児童公園","province":"東京都","city":"大田区","address":"東京都大田区中馬込3丁目29","lat":35.593313,"lon":139.71055},{"name":"鵜の木二丁目児童公園","province":"東京都","city":"大田区","address":"東京都大田区鵜の木2丁目32","lat":35.573183,"lon":139.680102},{"name":"下丸子公園","province":"東京都","city":"大田区","address":"東京都大田区下丸子4丁目21","lat":35.569261,"lon":139.681636},{"name":"下丸子二丁目公園","province":"東京都","city":"大田区","address":"東京都大田区下丸子2丁目24","lat":35.563225,"lon":139.686954},{"name":"蒲田一丁目公園","province":"東京都","city":"大田区","address":"東京都大田区蒲田1丁目7","lat":35.567215,"lon":139.720927},{"name":"蒲田本町二丁目公園","province":"東京都","city":"大田区","address":"東京都大田区蒲田本町2丁目30","lat":35.556879,"lon":139.720881},{"name":"久が原公園","province":"東京都","city":"大田区","address":"東京都大田区久が原3丁目27","lat":35.581858,"lon":139.69113},{"name":"宮ノ下にこにこ児童公園","province":"東京都","city":"大田区","address":"東京都大田区中馬込3丁目23","lat":35.592958,"lon":139.708439},{"name":"京浜蒲田公園","province":"東京都","city":"大田区","address":"東京都大田区蒲田4丁目17","lat":35.561207,"lon":139.722128},{"name":"根ヶ原緑地","province":"東京都","city":"大田区","address":"東京都大田区山王3丁目15","lat":35.582185,"lon":139.721013},{"name":"桜並木公園","province":"東京都","city":"大田区","address":"東京都大田区南馬込4丁目11","lat":35.58447,"lon":139.711643},{"name":"山王三丁目児童公園","province":"東京都","city":"大田区","address":"東京都大田区山王3丁目8","lat":35.581769,"lon":139.723953},{"name":"若竹公園","province":"東京都","city":"大田区","address":"東京都大田区大森西1丁目8","lat":35.578038,"lon":139.726585},{"name":"小池公園","province":"東京都","city":"大田区","address":"東京都大田区上池台1丁目36","lat":35.598657,"lon":139.69696},{"name":"昭和島二丁目公園","province":"東京都","city":"大田区","address":"東京都大田区昭和島2丁目4","lat":35.574386,"lon":139.752105},{"name":"上池台三丁目公園","province":"東京都","city":"大田区","address":"東京都大田区上池台3丁目16","lat":35.593027,"lon":139.697856},{"name":"上池台射水坂公園","province":"東京都","city":"大田区","address":"東京都大田区上池台4丁目19","lat":35.598336,"lon":139.702427},{"name":"新井宿児童公園","province":"東京都","city":"大田区","address":"東京都大田区中央4丁目31","lat":35.579507,"lon":139.71864},{"name":"新井宿第一児童公園","province":"東京都","city":"大田区","address":"東京都大田区山王3丁目4","lat":35.584445,"lon":139.72511},{"name":"清花公園","province":"東京都","city":"大田区","address":"東京都大田区大森北2丁目8","lat":35.585496,"lon":139.73373},{"name":"西蒲田公園","province":"東京都","city":"大田区","address":"東京都大田区西蒲田8丁目6","lat":35.561436,"lon":139.710976},{"name":"西六郷公園","province":"東京都","city":"大田区","address":"東京都大田区西六郷1丁目6","lat":35.55334,"lon":139.711724},{"name":"西六郷三丁目公園","province":"東京都","city":"大田区","address":"東京都大田区西六郷3丁目16","lat":35.546286,"lon":139.705935},{"name":"西六郷二丁目児童公園","province":"東京都","city":"大田区","address":"東京都大田区西六郷2丁目30","lat":35.549841,"lon":139.706964},{"name":"千鳥いこい公園","province":"東京都","city":"大田区","address":"東京都大田区久が原6丁目26","lat":35.573529,"lon":139.694724},{"name":"千鳥いこい公園","province":"東京都","city":"大田区","address":"東京都大田区久が原6丁目26","lat":35.573043,"lon":139.694441},{"name":"千鳥三丁目児童公園","province":"東京都","city":"大田区","address":"東京都大田区千鳥3丁目22","lat":35.570218,"lon":139.690545},{"name":"洗足池公園","province":"東京都","city":"大田区","address":"東京都大田区南千束2丁目14","lat":35.602757,"lon":139.689607},{"name":"洗足池公園","province":"東京都","city":"大田区","address":"東京都大田区南千束2丁目1","lat":35.600362,"lon":139.69162},{"name":"洗足池公園","province":"東京都","city":"大田区","address":"東京都大田区南千束2丁目33","lat":35.602721,"lon":139.691614},{"name":"洗足池公園","province":"東京都","city":"大田区","address":"東京都大田区南千束2丁目15","lat":35.603822,"lon":139.689229},{"name":"多摩川台公園","province":"東京都","city":"大田区","address":"東京都大田区田園調布1丁目63","lat":35.590115,"lon":139.666869},{"name":"多摩川台公園","province":"東京都","city":"大田区","address":"東京都大田区田園調布4丁目4","lat":35.592987,"lon":139.663172},{"name":"多摩川台公園","province":"東京都","city":"大田区","address":"東京都大田区田園調布1丁目56","lat":35.588077,"lon":139.667904},{"name":"多摩川台公園","province":"東京都","city":"大田区","address":"東京都大田区田園調布1丁目63","lat":35.588722,"lon":139.667159},{"name":"多摩川台公園","province":"東京都","city":"大田区","address":"東京都大田区田園調布1丁目63","lat":35.58995,"lon":139.666648},{"name":"多摩川緑地","province":"東京都","city":"大田区","address":"東京都大田区西六郷4丁目","lat":35.540381,"lon":139.704774},{"name":"大森ふるさとの浜辺公園","province":"東京都","city":"大田区","address":"東京都大田区ふるさとの浜辺公園","lat":35.574152,"lon":139.741702},{"name":"大森ふるさとの浜辺公園","province":"東京都","city":"大田区","address":"東京都大田区ふるさとの浜辺公園","lat":35.57443,"lon":139.741902},{"name":"大森ふるさとの浜辺公園","province":"東京都","city":"大田区","address":"東京都大田区平和の森公園2","lat":35.577012,"lon":139.743396},{"name":"大森諏訪公園","province":"東京都","city":"大田区","address":"東京都大田区大森西3丁目3","lat":35.574832,"lon":139.730705},{"name":"大森西一丁目児童公園","province":"東京都","city":"大田区","address":"東京都大田区大森西1丁目12","lat":35.577085,"lon":139.722734},{"name":"大森西交通公園","province":"東京都","city":"大田区","address":"東京都大田区大森西3丁目4","lat":35.574405,"lon":139.73157},{"name":"大森西四丁目公園","province":"東京都","city":"大田区","address":"東京都大田区大森西4丁目10","lat":35.573083,"lon":139.72307},{"name":"大森西七丁目公園","province":"東京都","city":"大田区","address":"東京都大田区大森西7丁目9","lat":35.569925,"lon":139.719732},{"name":"大森西二丁目児童公園","province":"東京都","city":"大田区","address":"東京都大田区大森西2丁目20","lat":35.576125,"lon":139.727941},{"name":"大森仲町児童公園","province":"東京都","city":"大田区","address":"東京都大田区大森本町2丁目26","lat":35.578161,"lon":139.736733},{"name":"大森東一丁目第一公園","province":"東京都","city":"大田区","address":"東京都大田区大森東1丁目35","lat":35.576155,"lon":139.73994},{"name":"大森北公園","province":"東京都","city":"大田区","address":"東京都大田区大森北2丁目18","lat":35.587022,"lon":139.735517},{"name":"大田区立あさひ海老取川公園","province":"東京都","city":"大田区","address":"東京都大田区羽田旭町11","lat":35.553005,"lon":139.752584},{"name":"大田区立羽田西前公園","province":"東京都","city":"大田区","address":"東京都大田区羽田2丁目6","lat":35.547603,"lon":139.743769},{"name":"大田区立基船堀公園","province":"東京都","city":"大田区","address":"東京都大田区大森東3丁目16","lat":35.570358,"lon":139.740266},{"name":"大田区立旧呑川緑地","province":"東京都","city":"大田区","address":"東京都大田区大森南3丁目6","lat":35.567887,"lon":139.743788},{"name":"森ヶ崎海岸公園","province":"東京都","city":"大田区","address":"東京都大田区大森南4丁目11","lat":35.567039,"lon":139.748995},{"name":"大田区立森ケ崎交通公園","province":"東京都","city":"大田区","address":"東京都大田区大森南4丁目9","lat":35.566948,"lon":139.746064},{"name":"大田区立大四前くすのき公園","province":"東京都","city":"大田区","address":"東京都大田区大森南3丁目24","lat":35.564486,"lon":139.742723},{"name":"大田区立大森南一丁目公園","province":"東京都","city":"大田区","address":"東京都大田区大森南1丁目24","lat":35.561307,"lon":139.738167},{"name":"大森南第一公園","province":"東京都","city":"大田区","address":"東京都大田区大森南1丁目12","lat":35.563773,"lon":139.73976},{"name":"萩中一丁目公園","province":"東京都","city":"大田区","address":"東京都大田区萩中1丁目3","lat":35.552156,"lon":139.725799},{"name":"萩中公園","province":"東京都","city":"大田区","address":"東京都大田区萩中3丁目25","lat":35.549403,"lon":139.738978},{"name":"萩中公園","province":"東京都","city":"大田区","address":"東京都大田区萩中3丁目26","lat":35.551073,"lon":139.736123},{"name":"萩中三丁目児童公園","province":"東京都","city":"大田区","address":"東京都大田区萩中3丁目30","lat":35.549616,"lon":139.733599},{"name":"大田区立萩中児童遊園","province":"東京都","city":"大田区","address":"東京都大田区萩中1丁目5","lat":35.55199,"lon":139.72788},{"name":"大田区立舞の浦児童公園","province":"東京都","city":"大田区","address":"東京都大田区大森南2丁目14","lat":35.56216,"lon":139.741224},{"name":"大田区立北糀谷中央公園","province":"東京都","city":"大田区","address":"東京都大田区北糀谷1丁目15","lat":35.562566,"lon":139.735023},{"name":"池上五丁目公園","province":"東京都","city":"大田区","address":"東京都大田区池上5丁目15","lat":35.571102,"lon":139.70614},{"name":"池上梅園","province":"東京都","city":"大田区","address":"東京都大田区池上2丁目2","lat":35.581076,"lon":139.702635},{"name":"池上梅園","province":"東京都","city":"大田区","address":"東京都大田区池上2丁目2","lat":35.581633,"lon":139.702702},{"name":"仲蒲田公園","province":"東京都","city":"大田区","address":"東京都大田区蒲田4丁目35","lat":35.559527,"lon":139.720827},{"name":"仲六郷三丁目第二公園","province":"東京都","city":"大田区","address":"東京都大田区仲六郷3丁目19","lat":35.547102,"lon":139.710271},{"name":"鶴渡公園","province":"東京都","city":"大田区","address":"東京都大田区大森西6丁目12","lat":35.56897,"lon":139.724805},{"name":"田園調布せせらぎ館","province":"東京都","city":"大田区","address":"東京都大田区田園調布1丁目53","lat":35.589695,"lon":139.6692},{"name":"田園調布せせらぎ公園","province":"東京都","city":"大田区","address":"東京都大田区田園調布1丁目53","lat":35.590002,"lon":139.669778},{"name":"田園調布せせらぎ公園","province":"東京都","city":"大田区","address":"東京都大田区田園調布1丁目53","lat":35.590351,"lon":139.669005},{"name":"都堀公園","province":"東京都","city":"大田区","address":"東京都大田区大森東1丁目30","lat":35.577182,"lon":139.738522},{"name":"東蒲田公園","province":"東京都","city":"大田区","address":"東京都大田区東蒲田1丁目11","lat":35.564465,"lon":139.728349},{"name":"東蒲田二丁目公園","province":"東京都","city":"大田区","address":"東京都大田区東蒲田2丁目32","lat":35.561126,"lon":139.726169},{"name":"東中公園","province":"東京都","city":"大田区","address":"東京都大田区東雪谷4丁目3","lat":35.594818,"lon":139.691655},{"name":"東調布公園","province":"東京都","city":"大田区","address":"東京都大田区南雪谷5丁目12","lat":35.589556,"lon":139.689123},{"name":"東糀谷一丁目公園だれでもトイレ","province":"東京都","city":"大田区","address":"東京都大田区東糀谷1丁目4","lat":35.560265,"lon":139.740479},{"name":"東糀谷防災公園だれでもトイレ","province":"東京都","city":"大田区","address":"東京都大田区東糀谷4丁目5-1","lat":35.55666,"lon":139.745196},{"name":"東糀谷防災公園だれでもトイレ","province":"東京都","city":"大田区","address":"東京都大田区東糀谷4丁目5","lat":35.55596,"lon":139.745081},{"name":"東糀谷防災公園だれでもトイレ","province":"東京都","city":"大田区","address":"東京都大田区東糀谷4丁目5","lat":35.557061,"lon":139.745991},{"name":"徳持公園","province":"東京都","city":"大田区","address":"東京都大田区池上8丁目20","lat":35.568056,"lon":139.696871},{"name":"南蒲公園","province":"東京都","city":"大田区","address":"東京都大田区西糀谷1丁目12","lat":35.55841,"lon":139.727843},{"name":"南蒲田二丁目児童公園","province":"東京都","city":"大田区","address":"東京都大田区南蒲田2丁目26","lat":35.554694,"lon":139.722136},{"name":"南三堤公園","province":"東京都","city":"大田区","address":"東京都大田区南六郷3丁目23","lat":35.54189,"lon":139.715694},{"name":"南前堀緑地だれでもトイレ","province":"東京都","city":"大田区","address":"東京都大田区東糀谷4丁目10","lat":35.553931,"lon":139.743487},{"name":"南前堀緑地だれでもトイレ","province":"東京都","city":"大田区","address":"東京都大田区東糀谷3丁目16","lat":35.554051,"lon":139.745776},{"name":"南六郷公園","province":"東京都","city":"大田区","address":"東京都大田区南六郷2丁目35","lat":35.545034,"lon":139.721973},{"name":"入新井公園","province":"東京都","city":"大田区","address":"東京都大田区大森北1丁目20","lat":35.586346,"lon":139.730661},{"name":"入新井西公園","province":"東京都","city":"大田区","address":"東京都大田区大森北4丁目27","lat":35.585189,"lon":139.725993},{"name":"馬込西公園","province":"東京都","city":"大田区","address":"東京都大田区西馬込2丁目8","lat":35.58863,"lon":139.703233},{"name":"美原児童公園","province":"東京都","city":"大田区","address":"東京都大田区大森東1丁目13","lat":35.576184,"lon":139.737712},{"name":"平和の森公園","province":"東京都","city":"大田区","address":"東京都大田区平和の森公園2","lat":35.582743,"lon":139.739462},{"name":"平和の森公園","province":"東京都","city":"大田区","address":"東京都大田区平和の森公園2-4","lat":35.581535,"lon":139.738641},{"name":"平和の森公園","province":"東京都","city":"大田区","address":"東京都大田区平和の森公園2","lat":35.581277,"lon":139.73957},{"name":"平和の森公園","province":"東京都","city":"大田区","address":"東京都大田区平和の森公園2","lat":35.580002,"lon":139.74062},{"name":"平和の森公園","province":"東京都","city":"大田区","address":"東京都大田区平和の森公園2","lat":35.578649,"lon":139.740512},{"name":"平和の森公園","province":"東京都","city":"大田区","address":"東京都大田区平和の森公園2","lat":35.577578,"lon":139.742302},{"name":"平和島公園","province":"東京都","city":"大田区","address":"東京都大田区平和島4丁目2","lat":35.582486,"lon":139.743133},{"name":"宝来公園","province":"東京都","city":"大田区","address":"東京都大田区田園調布3丁目31","lat":35.593915,"lon":139.664152},{"name":"邦西児童公園","province":"東京都","city":"大田区","address":"東京都大田区大森西4丁目18","lat":35.571962,"lon":139.721946},{"name":"北前堀緑地だれでもトイレ","province":"東京都","city":"大田区","address":"東京都大田区東糀谷5丁目14","lat":35.559084,"lon":139.742691},{"name":"北馬込わくわく公園","province":"東京都","city":"大田区","address":"東京都大田区北馬込1丁目7","lat":35.600804,"lon":139.703246},{"name":"本蒲田公園","province":"東京都","city":"大田区","address":"東京都大田区蒲田5丁目35","lat":35.559608,"lon":139.717772},{"name":"本門寺公園","province":"東京都","city":"大田区","address":"東京都大田区池上1丁目11","lat":35.57973,"lon":139.708063},{"name":"本門寺公園","province":"東京都","city":"大田区","address":"東京都大田区池上1丁目11","lat":35.579209,"lon":139.707689},{"name":"矢口二丁目公園","province":"東京都","city":"大田区","address":"東京都大田区矢口2丁目21","lat":35.561154,"lon":139.689781},{"name":"佐伯山緑地","province":"東京都","city":"大田区","address":"東京都大田区中央5丁目30","lat":35.581606,"lon":139.714371},{"name":"水神公園","province":"東京都","city":"大田区","address":"東京都大田区南雪谷5丁目10","lat":35.588208,"lon":139.686864},{"name":"みなさん児童公園","province":"東京都","city":"大田区","address":"東京都大田区南六郷3丁目10","lat":35.543615,"lon":139.714239},{"name":"高畑第三児童公園","province":"東京都","city":"大田区","address":"東京都大田区西六郷3丁目30","lat":35.545403,"lon":139.705072},{"name":"ソラムナード羽田緑地","province":"東京都","city":"大田区","address":"東京都大田区羽田空港2丁目8","lat":35.545591,"lon":139.758936},{"name":"ソラムナード羽田緑地","province":"東京都","city":"大田区","address":"東京都大田区羽田空港2丁目","lat":35.541139,"lon":139.769699},{"name":"潮見児童公園","province":"東京都","city":"大田区","address":"東京都大田区大森南4丁目4","lat":35.568702,"lon":139.746819},{"name":"森ケ崎公園","province":"東京都","city":"大田区","address":"東京都大田区大森南5丁目2-111","lat":35.562993,"lon":139.750004},{"name":"仲六郷二丁目公園","province":"東京都","city":"大田区","address":"東京都大田区仲六郷2丁目4","lat":35.5525,"lon":139.712969},{"name":"はばたき児童公園","province":"東京都","city":"大田区","address":"東京都大田区本羽田2丁目9","lat":35.547457,"lon":139.731862},{"name":"大鳥居児童公園","province":"東京都","city":"大田区","address":"東京都大田区羽田1丁目17","lat":35.549553,"lon":139.741524},{"name":"あじさい児童公園","province":"東京都","city":"大田区","address":"東京都大田区西糀谷4丁目24","lat":35.553647,"lon":139.732381},{"name":"森ケ崎緑華園","province":"東京都","city":"大田区","address":"東京都大田区大森南4丁目3","lat":35.567935,"lon":139.745569},{"name":"六間堀仲羽公園","province":"東京都","city":"大田区","address":"東京都大田区羽田4丁目18","lat":35.549013,"lon":139.74484},{"name":"蒲田本町一丁目公園","province":"東京都","city":"大田区","address":"東京都大田区蒲田本町1丁目1","lat":35.558286,"lon":139.715815},{"name":"東糀谷第一公園","province":"東京都","city":"大田区","address":"東京都大田区東糀谷6丁目8","lat":35.556008,"lon":139.747962},{"name":"松原橋公衆便所","province":"東京都","city":"大田区","address":"東京都大田区東馬込1丁目30","lat":35.595561,"lon":139.712017},{"name":"トイレさくら亭","province":"東京都","city":"大田区","address":"東京都大田区下丸子4丁目27","lat":35.573477,"lon":139.67596},{"name":"蒲田駅西口公衆便所","province":"東京都","city":"大田区","address":"東京都大田区西蒲田8丁目1","lat":35.561059,"lon":139.715133},{"name":"蒲田交差公衆便所","province":"東京都","city":"大田区","address":"東京都大田区蒲田5丁目12","lat":35.563805,"lon":139.716912},{"name":"蒲田交差公衆便所","province":"東京都","city":"大田区","address":"東京都大田区蒲田5丁目12","lat":35.563772,"lon":139.716902},{"name":"蒲田西口駅前公衆便所せせらぎ","province":"東京都","city":"大田区","address":"東京都大田区蒲田5丁目13","lat":35.562838,"lon":139.715966},{"name":"京急蒲田駅東口トイレ","province":"東京都","city":"大田区","address":"東京都大田区南蒲田1丁目20-32","lat":35.55986,"lon":139.72398},{"name":"大森駅前広場公衆便所","province":"東京都","city":"大田区","address":"東京都大田区大森北1丁目1","lat":35.588079,"lon":139.729315},{"name":"多摩川駅前公衆便所","province":"東京都","city":"大田区","address":"東京都大田区田園調布1丁目55","lat":35.588268,"lon":139.668802},{"name":"多摩川野球場前公衆便所","province":"東京都","city":"大田区","address":"東京都大田区田園調布4丁目44","lat":35.591889,"lon":139.661277},{"name":"大岡山駅前公衆便所","province":"東京都","city":"大田区","address":"東京都大田区北千束1丁目","lat":35.607587,"lon":139.685247},{"name":"大森駅山王口公衆便所","province":"東京都","city":"大田区","address":"東京都大田区山王2丁目2-9","lat":35.588246,"lon":139.72744},{"name":"平和島入口公衆便所","province":"東京都","city":"大田区","address":"東京都大田区大森本町1丁目9","lat":35.582874,"lon":139.737046},{"name":"大森東三丁目児童公園","province":"東京都","city":"大田区","address":"東京都大田区大森東3丁目5","lat":35.570275,"lon":139.73599},{"name":"田園調布駅前公衆便所","province":"東京都","city":"大田区","address":"東京都大田区田園調布2丁目62","lat":35.597321,"lon":139.667173},{"name":"子ども家庭支援センター洗足池分室","province":"東京都","city":"大田区","address":"東京都大田区上池台2丁目35-18","lat":35.597933,"lon":139.691726},{"name":"21世紀おもいで桜トイレ","province":"東京都","city":"大田区","address":"東京都大田区下丸子3丁目","lat":35.56496,"lon":139.681027},{"name":"池上駅公衆便所","province":"東京都","city":"大田区","address":"東京都大田区池上6丁目3-10","lat":35.572176,"lon":139.703333},{"name":"大田区羽田地域力推進センター","province":"東京都","city":"大田区","address":"東京都大田区羽田1丁目18-13","lat":35.549257,"lon":139.742423},{"name":"平和島公園水泳場","province":"東京都","city":"大田区","address":"東京都大田区平和島4丁目2-2","lat":35.581566,"lon":139.741805},{"name":"平和島公園水泳場","province":"東京都","city":"大田区","address":"東京都大田区平和島4丁目2-2","lat":35.581786,"lon":139.74206},{"name":"東調布公園水泳場","province":"東京都","city":"大田区","address":"東京都大田区南雪谷5丁目13-1","lat":35.588194,"lon":139.688964},{"name":"萩中公園水泳場","province":"東京都","city":"大田区","address":"東京都大田区萩中3丁目26","lat":35.549466,"lon":139.736321},{"name":"萩中公園水泳場","province":"東京都","city":"大田区","address":"東京都大田区萩中3丁目26","lat":35.549856,"lon":139.737334},{"name":"萩中公園水泳場","province":"東京都","city":"大田区","address":"東京都大田区萩中3丁目26-46","lat":35.550052,"lon":139.736452},{"name":"大森スポーツセンター","province":"東京都","city":"大田区","address":"東京都大田区大森本町2丁目2-5","lat":35.580906,"lon":139.737375},{"name":"大森スポーツセンター","province":"東京都","city":"大田区","address":"東京都大田区大森本町2丁目2-5","lat":35.580894,"lon":139.73737},{"name":"大田区総合体育館","province":"東京都","city":"大田区","address":"東京都大田区東蒲田1丁目11-1","lat":35.564081,"lon":139.728119},{"name":"大田区総合体育館","province":"東京都","city":"大田区","address":"東京都大田区東蒲田1丁目11-1","lat":35.564157,"lon":139.727514},{"name":"大田区総合体育館","province":"東京都","city":"大田区","address":"東京都大田区東蒲田1丁目11-1","lat":35.564696,"lon":139.727817},{"name":"大田区総合体育館","province":"東京都","city":"大田区","address":"東京都大田区東蒲田1丁目11-1","lat":35.564597,"lon":139.728134},{"name":"大田区総合体育館","province":"東京都","city":"大田区","address":"東京都大田区東蒲田1丁目11-1","lat":35.564611,"lon":139.728079},{"name":"大田区総合体育館","province":"東京都","city":"大田区","address":"東京都大田区東蒲田1丁目11-1","lat":35.564478,"lon":139.727598},{"name":"子ども家庭支援センター大森","province":"東京都","city":"大田区","address":"東京都大田区大森北4丁目16-5","lat":35.583336,"lon":139.727123},{"name":"子ども家庭支援センター洗足池分室","province":"東京都","city":"大田区","address":"東京都大田区上池台2丁目35-18","lat":35.597971,"lon":139.691736},{"name":"おおた国際交流センター","province":"東京都","city":"大田区","address":"東京都大田区蒲田4丁目16-8","lat":35.561342,"lon":139.722409},{"name":"大田スタジアム","province":"東京都","city":"大田区","address":"東京都大田区東海1丁目2-10","lat":35.588203,"lon":139.752758},{"name":"大田スタジアム","province":"東京都","city":"大田区","address":"東京都大田区東海1丁目2","lat":35.587935,"lon":139.752866},{"name":"大田スタジアム","province":"東京都","city":"大田区","address":"東京都大田区東海1丁目2","lat":35.588562,"lon":139.753425},{"name":"新蒲田一丁目複合施設","province":"東京都","city":"大田区","address":"東京都大田区新蒲田1丁目18-16","lat":35.557401,"lon":139.711292},{"name":"こども食堂ﾋﾛ","province":"東京都","city":"大田区","address":"東京都大田区南千束2丁目18-13","lat":35.60462481,"lon":139.68794244},{"name":"大岡山こども食堂","province":"東京都","city":"大田区","address":"東京都大田区北千束3丁目20-8","lat":35.60482752,"lon":139.68613703},{"name":"嶺町こども食堂みんなでごはん","province":"東京都","city":"大田区","address":"東京都大田区田園調布本町7-1","lat":35.58786589,"lon":139.67735279},{"name":"田園調布子ども食堂ともこｷｯﾁﾝ","province":"東京都","city":"大田区","address":"東京都大田区田園調布4丁目","lat":35.59272877,"lon":139.66135396},{"name":"ｶﾌｪｷｬﾋﾞﾝ","province":"東京都","city":"大田区","address":"東京都大田区南雪谷5丁目3-12","lat":35.58974056,"lon":139.68787927},{"name":"たんぽぽ食堂","province":"東京都","city":"大田区","address":"東京都大田区南雪谷5丁目3-12","lat":35.58974056,"lon":139.68787927},{"name":"子ども食堂ｳﾒｷｯﾁﾝ","province":"東京都","city":"大田区","address":"東京都大田区田園調布本町29-8","lat":35.58260295,"lon":139.67374809},{"name":"子ども食堂ﾌﾗﾝｼｽｺの広場","province":"東京都","city":"大田区","address":"東京都大田区仲池上1丁目21-11","lat":35.58569934,"lon":139.69815052},{"name":"こあら村のこども食堂","province":"東京都","city":"大田区","address":"東京都大田区久が原6丁目26-4","lat":35.57313754,"lon":139.69462416},{"name":"馬込子まもり食堂","province":"東京都","city":"大田区","address":"東京都大田区北馬込2丁目5-5","lat":35.59902577,"lon":139.7095962},{"name":"れんげの会こども食堂Withおとな","province":"東京都","city":"大田区","address":"東京都大田区西馬込2丁目20-1","lat":35.58649105,"lon":139.70527762},{"name":"絆倶楽部","province":"東京都","city":"大田区","address":"東京都大田区西馬込2丁目20-1","lat":35.58649105,"lon":139.70527762},{"name":"絆カフェ","province":"東京都","city":"大田区","address":"東京都大田区西馬込2丁目20-1","lat":35.58649105,"lon":139.70527762},{"name":"絆御飯","province":"東京都","city":"大田区","address":"東京都大田区西馬込2丁目20-1","lat":35.58649105,"lon":139.70527762},{"name":"てくてく食堂","province":"東京都","city":"大田区","address":"東京都大田区西馬込2丁目20-1","lat":35.58649105,"lon":139.70527762},{"name":"南馬込ｱｸﾞﾈｽこども食堂","province":"東京都","city":"大田区","address":"東京都大田区南馬込1丁目58-8","lat":35.58911316,"lon":139.71283519},{"name":"Steak＆Hamburg SOH","province":"東京都","city":"大田区","address":"東京都大田区山王2丁目36-9","lat":35.59170755,"lon":139.72220932},{"name":"おばんざい　地獄に佛","province":"東京都","city":"大田区","address":"東京都大田区山王2丁目2-15","lat":35.58900533,"lon":139.72802012},{"name":"ほっとねっとｷｯﾁﾝ","province":"東京都","city":"大田区","address":"東京都大田区中央2丁目10-1","lat":35.57955621,"lon":139.7202711},{"name":"みんなでべジ食","province":"東京都","city":"大田区","address":"東京都大田区池上3丁目32-17","lat":35.57372347,"lon":139.70167607},{"name":"子ども食堂ｵﾑﾗｲｽ食堂","province":"東京都","city":"大田区","address":"東京都大田区大森北1丁目29-6","lat":35.5855669,"lon":139.72875077},{"name":"こども＆ｼﾆｱ　もりもり食堂","province":"東京都","city":"大田区","address":"東京都大田区大森西2丁目2-1","lat":35.57887326,"lon":139.72839833},{"name":"こども食堂おやこｷｯﾁﾝ","province":"東京都","city":"大田区","address":"東京都大田区大森西2丁目2-1","lat":35.57887326,"lon":139.72839833},{"name":"感動こども食堂","province":"東京都","city":"大田区","address":"東京都大田区西蒲田7丁目5-12","lat":35.56378033,"lon":139.71516683},{"name":"だんだんﾜﾝｺｲﾝこども食堂","province":"東京都","city":"大田区","address":"東京都大田区東矢口1丁目17-9","lat":35.564572,"lon":139.70724548},{"name":"いちご食堂","province":"東京都","city":"大田区","address":"東京都大田区下丸子3丁目8-15","lat":35.57050488,"lon":139.68530334},{"name":"VICｽﾏｲﾙｷｯﾁﾝ","province":"東京都","city":"大田区","address":"東京都大田区矢口2丁目1-18","lat":35.56410568,"lon":139.69612749},{"name":"万人こども食堂","province":"東京都","city":"大田区","address":"東京都大田区新蒲田3丁目4-28","lat":35.55842023,"lon":139.70546838},{"name":"子ども食堂やんやん","province":"東京都","city":"大田区","address":"東京都大田区新蒲田2丁目1-13","lat":35.55895617,"lon":139.70872347},{"name":"ﾕﾆﾊﾞｰｻﾙこども食堂","province":"東京都","city":"大田区","address":"東京都大田区南六郷1丁目34-4","lat":35.54579173,"lon":139.72602558},{"name":"おおたﾗｰﾒﾝこども食堂（本羽田）","province":"東京都","city":"大田区","address":"東京都大田区本羽田1丁目12-9","lat":35.5488134,"lon":139.72456155},{"name":"大森東しあわせ食堂","province":"東京都","city":"大田区","address":"東京都大田区大森東4丁目6-15","lat":35.56848065,"lon":139.7383372},{"name":"ひこうき食堂","province":"東京都","city":"大田区","address":"東京都大田区新蒲田1丁目18-16","lat":35.55736749,"lon":139.71124551},{"name":"ﾄｰｷｮｰｺｰﾋｰ大田区　かぞく食堂","province":"東京都","city":"大田区","address":"東京都大田区大森東1丁目28-9","lat":35.57715448,"lon":139.73810337},{"name":"SOMPO流子ども食堂（そんぽの家　大鳥居）","province":"東京都","city":"大田区","address":"東京都大田区西糀谷3丁目32-2","lat":35.55304671,"lon":139.7372494},{"name":"SOMPO流子ども食堂（そんぽの家　東六郷）","province":"東京都","city":"大田区","address":"東京都大田区東六郷1丁目19-1","lat":35.55189611,"lon":139.7194534},{"name":"SOMPO流子ども食堂（そんぽの家S　西糀谷）","province":"東京都","city":"大田区","address":"東京都大田区西糀谷3丁目32-15","lat":35.552919,"lon":139.73772161},{"name":"SOMPO流子ども食堂（そんぽの家S　羽田）","province":"東京都","city":"大田区","address":"東京都大田区羽田2丁目2-11","lat":35.54853938,"lon":139.74190784},{"name":"SOMPO流子ども食堂（ﾗｳﾞｨｰﾚ羽田）","province":"東京都","city":"大田区","address":"東京都大田区東糀谷5丁目19-18","lat":35.55831036,"lon":139.74512924},{"name":"SOMPO流子ども食堂（ﾗｳﾞｨｰﾚ多摩川）","province":"東京都","city":"大田区","address":"東京都大田区多摩川2丁目13-22","lat":35.55821767,"lon":139.69939418},{"name":"みんなの食堂","province":"東京都","city":"大田区","address":"東京都大田区上池台1丁目13-4","lat":35.60263907,"lon":139.69726665},{"name":"羽田のこのこ食堂","province":"東京都","city":"大田区","address":"東京都大田区萩中2丁目11-5","lat":35.55107724,"lon":139.73176371},{"name":"ﾄﾘﾔｷ大学こども食堂","province":"東京都","city":"大田区","address":"東京都大田区蒲田5丁目19-15","lat":35.5622027,"lon":139.71791103},{"name":"子ども食堂ママちゃんち","province":"東京都","city":"大田区","address":"東京都大田区中央3丁目","lat":35.5766982,"lon":139.71946298},{"name":"えんむすび","province":"東京都","city":"大田区","address":"東京都大田区南六郷1丁目34-4","lat":35.54579173,"lon":139.72602558},{"name":"ﾌｰﾄﾞﾊﾞﾝｸ大田芋やぽんぽこ子ども食堂","province":"東京都","city":"大田区","address":"東京都大田区中央4丁目32-8","lat":35.57933676,"lon":139.71881846},{"name":"城南大橋第二","province":"東京都","city":"大田区","address":"東京都大田区東海3丁目4","lat":35.57770285,"lon":139.76242682},{"name":"京浜トラックターミナル","province":"東京都","city":"大田区","address":"東京都大田区平和島2丁目1-1","lat":35.58746451,"lon":139.74376358},{"name":"大田都税事務所","province":"東京都","city":"大田区","address":"東京都大田区新蒲田1丁目18-22","lat":35.557443,"lon":139.710733},{"name":"大井ふ頭中央海浜公園ホッケー競技場","province":"東京都","city":"大田区","address":"東京都大田区東海1丁目2-1","lat":35.588825,"lon":139.753293},{"name":"大井ふ頭中央海浜公園ホッケー競技場","province":"東京都","city":"大田区","address":"東京都大田区東海1丁目2-1","lat":35.58881,"lon":139.753399},{"name":"大井ふ頭中央海浜公園ホッケー競技場","province":"東京都","city":"大田区","address":"東京都大田区東海1丁目2-1","lat":35.588868,"lon":139.753054},{"name":"大井ふ頭中央海浜公園ホッケー競技場","province":"東京都","city":"大田区","address":"東京都大田区東海1丁目2-1","lat":35.588868,"lon":139.753014},{"name":"地方独立行政法人東京都立病院機構　東京都立荏原病院","province":"東京都","city":"大田区","address":"東京都大田区東雪谷4丁目5-10","lat":35.593999,"lon":139.692898},{"name":"東京都中央卸売市場大田市場（事務棟）","province":"東京都","city":"大田区","address":"東京都大田区東海3丁目2-1","lat":35.579016,"lon":139.758734},{"name":"大井中央海浜公園","province":"東京都","city":"大田区","address":"東京都大田区東海1丁目1","lat":35.589033,"lon":139.750192},{"name":"大井中央海浜公園","province":"東京都","city":"大田区","address":"東京都大田区東海1丁目4","lat":35.585077,"lon":139.751562},{"name":"大井中央海浜公園","province":"東京都","city":"大田区","address":"東京都大田区東海1丁目2","lat":35.588216,"lon":139.751111},{"name":"大井中央海浜公園","province":"東京都","city":"大田区","address":"東京都大田区東海1丁目1","lat":35.588011,"lon":139.750383},{"name":"城南島海浜公園","province":"東京都","city":"大田区","address":"東京都大田区城南島4丁目2","lat":35.578382,"lon":139.783217},{"name":"城南島海浜公園","province":"東京都","city":"大田区","address":"東京都大田区城南島4丁目1","lat":35.5807,"lon":139.785557},{"name":"城南島海浜公園","province":"東京都","city":"大田区","address":"東京都大田区城南島4丁目1","lat":35.582085,"lon":139.783537},{"name":"東海ふ頭公園","province":"東京都","city":"大田区","address":"東京都大田区東海2丁目3","lat":35.577934,"lon":139.756133},{"name":"京浜島つばさ公園","province":"東京都","city":"大田区","address":"東京都大田区京浜島2丁目5","lat":35.567172,"lon":139.767332},{"name":"京浜島つばさ公園","province":"東京都","city":"大田区","address":"東京都大田区京浜島2丁目5","lat":35.571387,"lon":139.770572},{"name":"東京港野鳥公園","province":"東京都","city":"大田区","address":"東京都大田区東海3丁目1","lat":35.583588,"lon":139.760458},{"name":"東京港野鳥公園","province":"東京都","city":"大田区","address":"東京都大田区東海3丁目1","lat":35.583916,"lon":139.760419},{"name":"都営浅草線西馬込駅","province":"東京都","city":"大田区","address":"東京都大田区西馬込2丁目1","lat":35.587452,"lon":139.706039},{"name":"都営浅草線馬込駅","province":"東京都","city":"大田区","address":"東京都大田区北馬込2丁目31","lat":35.597218,"lon":139.711996},{"name":"大森消防署山谷出張所","province":"東京都","city":"大田区","address":"東京都大田区大森西5丁目14-5","lat":35.569765,"lon":139.729981},{"name":"大森消防署森ケ崎出張所","province":"東京都","city":"大田区","address":"東京都大田区大森南3丁目33-8","lat":35.564541,"lon":139.745669},{"name":"大森消防署馬込出張所","province":"東京都","city":"大田区","address":"東京都大田区南馬込5丁目2-3","lat":35.591449,"lon":139.709962},{"name":"蒲田消防署　空港分署","province":"東京都","city":"大田区","address":"東京都大田区羽田空港1丁目1-2","lat":35.54911,"lon":139.753255},{"name":"大田区役所本庁舎","province":"東京都","city":"大田区","address":"東京都大田区蒲田5丁目13-14","lat":35.561376,"lon":139.715968},{"name":"六郷地域力推進センター","province":"東京都","city":"大田区","address":"東京都大田区仲六郷2丁目44-11","lat":35.551015,"lon":139.71604},{"name":"大田区役所本庁舎","province":"東京都","city":"大田区","address":"東京都大田区蒲田5丁目13-14","lat":35.561369,"lon":139.715993},{"name":"大田区役所本庁舎","province":"東京都","city":"大田区","address":"東京都大田区蒲田5丁目13-14","lat":35.561865,"lon":139.716212},{"name":"大田区大森地域庁舎","province":"東京都","city":"大田区","address":"東京都大田区大森西1丁目12-1","lat":35.578186,"lon":139.722901},{"name":"大田区役所久が原特別出張所","province":"東京都","city":"大田区","address":"東京都大田区久が原4丁目12-10","lat":35.580315,"lon":139.693955},{"name":"大田区蒲田地域庁舎","province":"東京都","city":"大田区","address":"東京都大田区蒲田本町2丁目1-1","lat":35.55851,"lon":139.718337},{"name":"大田区役所 糀谷･羽田地域庁舎","province":"東京都","city":"大田区","address":"東京都大田区東糀谷1丁目21-15","lat":35.557255,"lon":139.739743},{"name":"調布地域庁舎","province":"東京都","city":"大田区","address":"東京都大田区雪谷大塚町4-6","lat":35.593181,"lon":139.680602},{"name":"大田区大森東特別出張所","province":"東京都","city":"大田区","address":"東京都大田区大森南4丁目9","lat":35.566864,"lon":139.74603},{"name":"馬込特別出張所","province":"東京都","city":"大田区","address":"東京都大田区中馬込3丁目25-5","lat":35.594049,"lon":139.709977},{"name":"池上特別出張所","province":"東京都","city":"大田区","address":"東京都大田区池上1丁目29-6","lat":35.575007,"lon":139.710412},{"name":"大田区新井宿特別出張所","province":"東京都","city":"大田区","address":"東京都大田区中央1丁目21-6","lat":35.579707,"lon":139.719739},{"name":"大田区新井宿特別出張所","province":"東京都","city":"大田区","address":"東京都大田区中央1丁目21-6","lat":35.579622,"lon":139.719712},{"name":"大田区嶺町特別出張所","province":"東京都","city":"大田区","address":"東京都大田区田園調布本町7-1","lat":35.587878,"lon":139.677445},{"name":"鵜の木特別出張所","province":"東京都","city":"大田区","address":"東京都大田区南久が原2丁目30-5","lat":35.574921,"lon":139.685267},{"name":"糀谷特別出張所","province":"東京都","city":"大田区","address":"東京都大田区西糀谷2丁目14-13","lat":35.558682,"lon":139.736727},{"name":"雪谷特別出張所","province":"東京都","city":"大田区","address":"東京都大田区東雪谷3丁目6-2","lat":35.594582,"lon":139.691034},{"name":"雪谷特別出張所","province":"東京都","city":"大田区","address":"東京都大田区東雪谷3丁目6-2","lat":35.594605,"lon":139.690998},{"name":"田園調布特別出張所","province":"東京都","city":"大田区","address":"東京都大田区田園調布1丁目30-1","lat":35.588066,"lon":139.671144},{"name":"エセナおおた","province":"東京都","city":"大田区","address":"東京都大田区大森北4丁目16-4","lat":35.583488,"lon":139.726907},{"name":"大田区矢口特別出張所（矢口区民センター）","province":"東京都","city":"大田区","address":"東京都大田区矢口2丁目21-14","lat":35.562187,"lon":139.690423},{"name":"大田区矢口特別出張所（矢口区民センター）","province":"東京都","city":"大田区","address":"東京都大田区矢口2丁目21-14","lat":35.562123,"lon":139.690429},{"name":"ふれあいはすぬま","province":"東京都","city":"大田区","address":"東京都大田区西蒲田3丁目19-1","lat":35.567991,"lon":139.707596},{"name":"消費者生活センター","province":"東京都","city":"大田区","address":"東京都大田区蒲田5丁目13-26","lat":35.559838,"lon":139.715468},{"name":"大森西区民センター","province":"東京都","city":"大田区","address":"東京都大田区大森西2丁目20-17","lat":35.576532,"lon":139.727722},{"name":"大森西区民センター","province":"東京都","city":"大田区","address":"東京都大田区大森西2丁目20-17","lat":35.576452,"lon":139.727654},{"name":"馬込区民センター","province":"東京都","city":"大田区","address":"東京都大田区南馬込4丁目6-5","lat":35.586442,"lon":139.709978},{"name":"ライフコミュニティ西馬込","province":"東京都","city":"大田区","address":"東京都大田区西馬込2丁目20-1","lat":35.586461,"lon":139.705193},{"name":"池上会館","province":"東京都","city":"大田区","address":"東京都大田区池上1丁目32","lat":35.577383,"lon":139.706156},{"name":"池上会館","province":"東京都","city":"大田区","address":"東京都大田区池上1丁目32-8","lat":35.577427,"lon":139.706409},{"name":"池上会館","province":"東京都","city":"大田区","address":"東京都大田区池上1丁目32-8","lat":35.577287,"lon":139.706462},{"name":"大田区新井宿会館","province":"東京都","city":"大田区","address":"東京都大田区中央4丁目31-14","lat":35.579799,"lon":139.718477},{"name":"美原文化センター","province":"東京都","city":"大田区","address":"東京都大田区大森東1丁目28-9","lat":35.577156,"lon":139.73811},{"name":"南馬込文化センター","province":"東京都","city":"大田区","address":"東京都大田区南馬込3丁目24","lat":35.584929,"lon":139.71881},{"name":"糀谷文化センター","province":"東京都","city":"大田区","address":"東京都大田区西糀谷2丁目14-5","lat":35.559088,"lon":139.736378},{"name":"大田区立石川町文化センター","province":"東京都","city":"大田区","address":"東京都大田区石川町1丁目3-8","lat":35.602065,"lon":139.683038},{"name":"大森南図書館","province":"東京都","city":"大田区","address":"東京都大田区大森南1丁目17-7","lat":35.563421,"lon":139.739717},{"name":"萩中文化センター","province":"東京都","city":"大田区","address":"東京都大田区萩中1丁目7-30","lat":35.550384,"lon":139.728375},{"name":"大田区民プラザ","province":"東京都","city":"大田区","address":"東京都大田区下丸子3丁目1-3","lat":35.571425,"lon":139.686371},{"name":"大田区民プラザ","province":"東京都","city":"大田区","address":"東京都大田区下丸子3丁目1-3","lat":35.571313,"lon":139.686552},{"name":"大田区産業プラザPiO","province":"東京都","city":"大田区","address":"東京都大田区南蒲田1丁目20-20","lat":35.558747,"lon":139.723915},{"name":"大田区産業プラザPiO","province":"東京都","city":"大田区","address":"東京都大田区南蒲田1丁目20-20","lat":35.558817,"lon":139.724257},{"name":"大田区産業プラザPiO","province":"東京都","city":"大田区","address":"東京都大田区南蒲田1丁目20-20","lat":35.558654,"lon":139.724374},{"name":"大田区産業プラザPiO","province":"東京都","city":"大田区","address":"東京都大田区南蒲田1丁目20-20","lat":35.558668,"lon":139.724099},{"name":"大田区産業プラザPiO","province":"東京都","city":"大田区","address":"東京都大田区南蒲田1丁目20-20","lat":35.558618,"lon":139.724097},{"name":"大田区産業プラザPiO","province":"東京都","city":"大田区","address":"東京都大田区南蒲田1丁目20-20","lat":35.558599,"lon":139.724132},{"name":"多摩川集会室（多摩川児童館）","province":"東京都","city":"大田区","address":"東京都大田区多摩川2丁目24-25","lat":35.555251,"lon":139.704546},{"name":"大田区立障がい者総合サポートセンター","province":"東京都","city":"大田区","address":"東京都大田区中央4丁目30","lat":35.579414,"lon":139.718032},{"name":"池上文化センター","province":"東京都","city":"大田区","address":"東京都大田区池上4丁目21-13","lat":35.575325,"lon":139.703697},{"name":"大田区青少年交流センターゆいっつ","province":"東京都","city":"大田区","address":"東京都大田区平和島4丁目2-15","lat":35.583639,"lon":139.743053},{"name":"大田区青少年交流センターゆいっつ","province":"東京都","city":"大田区","address":"東京都大田区平和島4丁目2","lat":35.583392,"lon":139.743014},{"name":"大田区青少年交流センターゆいっつ","province":"東京都","city":"大田区","address":"東京都大田区平和島4丁目2","lat":35.583409,"lon":139.743074},{"name":"大田区青少年交流センターゆいっつ","province":"東京都","city":"大田区","address":"東京都大田区平和島4丁目2-15","lat":35.583642,"lon":139.743053},{"name":"大田区青少年交流センターゆいっつ","province":"東京都","city":"大田区","address":"東京都大田区平和島4丁目2","lat":35.583471,"lon":139.743215},{"name":"大田区青少年交流センターゆいっつ","province":"東京都","city":"大田区","address":"東京都大田区平和島4丁目2","lat":35.583467,"lon":139.743188},{"name":"久が原図書館","province":"東京都","city":"大田区","address":"東京都大田区久が原2丁目28-4","lat":35.579328,"lon":139.695364},{"name":"大森東図書館","province":"東京都","city":"大田区","address":"東京都大田区大森東1丁目31-3","lat":35.576213,"lon":139.738683},{"name":"大森西図書館","province":"東京都","city":"大田区","address":"東京都大田区大森西5丁目2-13","lat":35.571812,"lon":139.726004},{"name":"浜竹図書館","province":"東京都","city":"大田区","address":"東京都大田区西糀谷3丁目32-7","lat":35.553343,"lon":139.737448},{"name":"洗足池図書館","province":"東京都","city":"大田区","address":"東京都大田区南千束2丁目2-10","lat":35.600722,"lon":139.691921},{"name":"六郷図書館","province":"東京都","city":"大田区","address":"東京都大田区南六郷3丁目10-3","lat":35.543918,"lon":139.714155},{"name":"羽田図書館","province":"東京都","city":"大田区","address":"東京都大田区羽田1丁目11-1","lat":35.550357,"lon":139.74343},{"name":"下丸子図書館","province":"東京都","city":"大田区","address":"東京都大田区下丸子2丁目18-11","lat":35.565748,"lon":139.688114},{"name":"多摩川図書館","province":"東京都","city":"大田区","address":"東京都大田区多摩川2丁目24-63","lat":35.556151,"lon":139.702315},{"name":"多摩川図書館","province":"東京都","city":"大田区","address":"東京都大田区多摩川2丁目24-63","lat":35.556158,"lon":139.70236},{"name":"蒲田図書館","province":"東京都","city":"大田区","address":"東京都大田区東蒲田1丁目19-22","lat":35.563669,"lon":139.728418},{"name":"蒲田駅前図書館","province":"東京都","city":"大田区","address":"東京都大田区蒲田5丁目13-26","lat":35.559833,"lon":139.715474},{"name":"池上図書館","province":"東京都","city":"大田区","address":"東京都大田区池上6丁目3-10","lat":35.572131,"lon":139.703088},{"name":"山王草堂記念館","province":"東京都","city":"大田区","address":"東京都大田区山王1丁目41-21","lat":35.593288,"lon":139.721193},{"name":"大田文化の森","province":"東京都","city":"大田区","address":"東京都大田区中央2丁目10-1","lat":35.579038,"lon":139.720357},{"name":"大田文化の森","province":"東京都","city":"大田区","address":"東京都大田区中央2丁目10-1","lat":35.579255,"lon":139.720341},{"name":"大田文化の森","province":"東京都","city":"大田区","address":"東京都大田区中央2丁目10-1","lat":35.579155,"lon":139.72038},{"name":"大田文化の森","province":"東京都","city":"大田区","address":"東京都大田区中央2丁目10-1","lat":35.579114,"lon":139.720387},{"name":"大田文化の森","province":"東京都","city":"大田区","address":"東京都大田区中央2丁目10-1","lat":35.579076,"lon":139.720398},{"name":"郷土博物館","province":"東京都","city":"大田区","address":"東京都大田区南馬込5丁目11-13","lat":35.588506,"lon":139.710716},{"name":"尾?士郎記念館","province":"東京都","city":"大田区","address":"東京都大田区山王1丁目36","lat":35.592475,"lon":139.72156},{"name":"龍子記念館","province":"東京都","city":"大田区","address":"東京都大田区中央4丁目2-1","lat":35.582386,"lon":139.71523},{"name":"大森 海苔のふるさと館","province":"東京都","city":"大田区","address":"東京都大田区平和の森公園2-2","lat":35.577114,"lon":139.742692},{"name":"森ケ崎緑華園","province":"東京都","city":"大田区","address":"東京都大田区大森南4丁目3","lat":35.567823,"lon":139.745438},{"name":"大田区民ホール・アプリコ","province":"東京都","city":"大田区","address":"東京都大田区蒲田5丁目37-3","lat":35.560284,"lon":139.717872},{"name":"大田区民ホール・アプリコ","province":"東京都","city":"大田区","address":"東京都大田区蒲田5丁目37-3","lat":35.560243,"lon":139.718081},{"name":"大田区民ホール・アプリコ","province":"東京都","city":"大田区","address":"東京都大田区蒲田5丁目37-1","lat":35.560435,"lon":139.717988},{"name":"タワーふれあい公園前緑地","province":"東京都","city":"大田区","address":"東京都大田区多摩川2丁目24","lat":35.554363,"lon":139.703302},{"name":"まごめばし児童公園","province":"東京都","city":"大田区","address":"東京都大田区中馬込3丁目29","lat":35.593313,"lon":139.71055},{"name":"鵜の木二丁目児童公園","province":"東京都","city":"大田区","address":"東京都大田区鵜の木2丁目32","lat":35.573183,"lon":139.680102},{"name":"下丸子公園","province":"東京都","city":"大田区","address":"東京都大田区下丸子4丁目21","lat":35.569261,"lon":139.681636},{"name":"下丸子二丁目公園","province":"東京都","city":"大田区","address":"東京都大田区下丸子2丁目24","lat":35.563225,"lon":139.686954},{"name":"蒲田一丁目公園","province":"東京都","city":"大田区","address":"東京都大田区蒲田1丁目7","lat":35.567215,"lon":139.720927},{"name":"蒲田本町二丁目公園","province":"東京都","city":"大田区","address":"東京都大田区蒲田本町2丁目30","lat":35.556879,"lon":139.720881},{"name":"久が原公園","province":"東京都","city":"大田区","address":"東京都大田区久が原3丁目27","lat":35.581858,"lon":139.69113},{"name":"宮ノ下にこにこ児童公園","province":"東京都","city":"大田区","address":"東京都大田区中馬込3丁目23","lat":35.592958,"lon":139.708439},{"name":"京浜蒲田公園","province":"東京都","city":"大田区","address":"東京都大田区蒲田4丁目17","lat":35.561207,"lon":139.722128},{"name":"根ヶ原緑地","province":"東京都","city":"大田区","address":"東京都大田区山王3丁目15","lat":35.582185,"lon":139.721013},{"name":"桜並木公園","province":"東京都","city":"大田区","address":"東京都大田区南馬込4丁目11","lat":35.58447,"lon":139.711643},{"name":"山王三丁目児童公園","province":"東京都","city":"大田区","address":"東京都大田区山王3丁目8","lat":35.581769,"lon":139.723953},{"name":"若竹公園","province":"東京都","city":"大田区","address":"東京都大田区大森西1丁目8","lat":35.578038,"lon":139.726585},{"name":"小池公園","province":"東京都","city":"大田区","address":"東京都大田区上池台1丁目36","lat":35.598657,"lon":139.69696},{"name":"昭和島二丁目公園","province":"東京都","city":"大田区","address":"東京都大田区昭和島2丁目4","lat":35.574386,"lon":139.752105},{"name":"上池台三丁目公園","province":"東京都","city":"大田区","address":"東京都大田区上池台3丁目16","lat":35.593027,"lon":139.697856},{"name":"上池台射水坂公園","province":"東京都","city":"大田区","address":"東京都大田区上池台4丁目19","lat":35.598336,"lon":139.702427},{"name":"新井宿児童公園","province":"東京都","city":"大田区","address":"東京都大田区中央4丁目31","lat":35.579507,"lon":139.71864},{"name":"新井宿第一児童公園","province":"東京都","city":"大田区","address":"東京都大田区山王3丁目4","lat":35.584445,"lon":139.72511},{"name":"清花公園","province":"東京都","city":"大田区","address":"東京都大田区大森北2丁目8","lat":35.585496,"lon":139.73373},{"name":"西蒲田公園","province":"東京都","city":"大田区","address":"東京都大田区西蒲田8丁目6","lat":35.561436,"lon":139.710976},{"name":"西六郷公園","province":"東京都","city":"大田区","address":"東京都大田区西六郷1丁目6","lat":35.55334,"lon":139.711724},{"name":"西六郷三丁目公園","province":"東京都","city":"大田区","address":"東京都大田区西六郷3丁目16","lat":35.546286,"lon":139.705935},{"name":"西六郷二丁目児童公園","province":"東京都","city":"大田区","address":"東京都大田区西六郷2丁目30","lat":35.549841,"lon":139.706964},{"name":"千鳥いこい公園","province":"東京都","city":"大田区","address":"東京都大田区久が原6丁目26","lat":35.573529,"lon":139.694724},{"name":"千鳥いこい公園","province":"東京都","city":"大田区","address":"東京都大田区久が原6丁目26","lat":35.573043,"lon":139.694441},{"name":"千鳥三丁目児童公園","province":"東京都","city":"大田区","address":"東京都大田区千鳥3丁目22","lat":35.570218,"lon":139.690545},{"name":"洗足池公園","province":"東京都","city":"大田区","address":"東京都大田区南千束2丁目14","lat":35.602757,"lon":139.689607},{"name":"洗足池公園","province":"東京都","city":"大田区","address":"東京都大田区南千束2丁目1","lat":35.600362,"lon":139.69162},{"name":"洗足池公園","province":"東京都","city":"大田区","address":"東京都大田区南千束2丁目33","lat":35.602721,"lon":139.691614},{"name":"洗足池公園","province":"東京都","city":"大田区","address":"東京都大田区南千束2丁目15","lat":35.603822,"lon":139.689229},{"name":"多摩川台公園","province":"東京都","city":"大田区","address":"東京都大田区田園調布1丁目63","lat":35.590115,"lon":139.666869},{"name":"多摩川台公園","province":"東京都","city":"大田区","address":"東京都大田区田園調布4丁目4","lat":35.592987,"lon":139.663172},{"name":"多摩川台公園","province":"東京都","city":"大田区","address":"東京都大田区田園調布1丁目56","lat":35.588077,"lon":139.667904},{"name":"多摩川台公園","province":"東京都","city":"大田区","address":"東京都大田区田園調布1丁目63","lat":35.588722,"lon":139.667159},{"name":"多摩川台公園","province":"東京都","city":"大田区","address":"東京都大田区田園調布1丁目63","lat":35.58995,"lon":139.666648},{"name":"多摩川緑地","province":"東京都","city":"大田区","address":"東京都大田区西六郷4丁目","lat":35.540381,"lon":139.704774},{"name":"大森ふるさとの浜辺公園","province":"東京都","city":"大田区","address":"東京都大田区ふるさとの浜辺公園","lat":35.574152,"lon":139.741702},{"name":"大森ふるさとの浜辺公園","province":"東京都","city":"大田区","address":"東京都大田区ふるさとの浜辺公園","lat":35.57443,"lon":139.741902},{"name":"大森ふるさとの浜辺公園","province":"東京都","city":"大田区","address":"東京都大田区平和の森公園2","lat":35.577012,"lon":139.743396},{"name":"大森諏訪公園","province":"東京都","city":"大田区","address":"東京都大田区大森西3丁目3","lat":35.574832,"lon":139.730705},{"name":"大森西一丁目児童公園","province":"東京都","city":"大田区","address":"東京都大田区大森西1丁目12","lat":35.577085,"lon":139.722734},{"name":"大森西交通公園","province":"東京都","city":"大田区","address":"東京都大田区大森西3丁目4","lat":35.574405,"lon":139.73157},{"name":"大森西四丁目公園","province":"東京都","city":"大田区","address":"東京都大田区大森西4丁目10","lat":35.573083,"lon":139.72307},{"name":"大森西七丁目公園","province":"東京都","city":"大田区","address":"東京都大田区大森西7丁目9","lat":35.569925,"lon":139.719732},{"name":"大森西二丁目児童公園","province":"東京都","city":"大田区","address":"東京都大田区大森西2丁目20","lat":35.576125,"lon":139.727941},{"name":"大森仲町児童公園","province":"東京都","city":"大田区","address":"東京都大田区大森本町2丁目26","lat":35.578161,"lon":139.736733},{"name":"大森東一丁目第一公園","province":"東京都","city":"大田区","address":"東京都大田区大森東1丁目35","lat":35.576155,"lon":139.73994},{"name":"大森北公園","province":"東京都","city":"大田区","address":"東京都大田区大森北2丁目18","lat":35.587022,"lon":139.735517},{"name":"大田区立あさひ海老取川公園","province":"東京都","city":"大田区","address":"東京都大田区羽田旭町11","lat":35.553005,"lon":139.752584},{"name":"大田区立羽田西前公園","province":"東京都","city":"大田区","address":"東京都大田区羽田2丁目6","lat":35.547603,"lon":139.743769},{"name":"大田区立基船堀公園","province":"東京都","city":"大田区","address":"東京都大田区大森東3丁目16","lat":35.570358,"lon":139.740266},{"name":"大田区立旧呑川緑地","province":"東京都","city":"大田区","address":"東京都大田区大森南3丁目6","lat":35.567887,"lon":139.743788},{"name":"森ヶ崎海岸公園","province":"東京都","city":"大田区","address":"東京都大田区大森南4丁目11","lat":35.567039,"lon":139.748995},{"name":"大田区立森ケ崎交通公園","province":"東京都","city":"大田区","address":"東京都大田区大森南4丁目9","lat":35.566948,"lon":139.746064},{"name":"大田区立大四前くすのき公園","province":"東京都","city":"大田区","address":"東京都大田区大森南3丁目24","lat":35.564486,"lon":139.742723},{"name":"大田区立大森南一丁目公園","province":"東京都","city":"大田区","address":"東京都大田区大森南1丁目24","lat":35.561307,"lon":139.738167},{"name":"大森南第一公園","province":"東京都","city":"大田区","address":"東京都大田区大森南1丁目12","lat":35.563773,"lon":139.73976},{"name":"萩中一丁目公園","province":"東京都","city":"大田区","address":"東京都大田区萩中1丁目3","lat":35.552156,"lon":139.725799},{"name":"萩中公園","province":"東京都","city":"大田区","address":"東京都大田区萩中3丁目25","lat":35.549403,"lon":139.738978},{"name":"萩中公園","province":"東京都","city":"大田区","address":"東京都大田区萩中3丁目26","lat":35.551073,"lon":139.736123},{"name":"萩中三丁目児童公園","province":"東京都","city":"大田区","address":"東京都大田区萩中3丁目30","lat":35.549616,"lon":139.733599},{"name":"大田区立萩中児童遊園","province":"東京都","city":"大田区","address":"東京都大田区萩中1丁目5","lat":35.55199,"lon":139.72788},{"name":"大田区立舞の浦児童公園","province":"東京都","city":"大田区","address":"東京都大田区大森南2丁目14","lat":35.56216,"lon":139.741224},{"name":"大田区立北糀谷中央公園","province":"東京都","city":"大田区","address":"東京都大田区北糀谷1丁目15","lat":35.562566,"lon":139.735023},{"name":"池上五丁目公園","province":"東京都","city":"大田区","address":"東京都大田区池上5丁目15","lat":35.571102,"lon":139.70614},{"name":"池上梅園","province":"東京都","city":"大田区","address":"東京都大田区池上2丁目2","lat":35.581076,"lon":139.702635},{"name":"池上梅園","province":"東京都","city":"大田区","address":"東京都大田区池上2丁目2","lat":35.581633,"lon":139.702702},{"name":"仲蒲田公園","province":"東京都","city":"大田区","address":"東京都大田区蒲田4丁目35","lat":35.559527,"lon":139.720827},{"name":"仲六郷三丁目第二公園","province":"東京都","city":"大田区","address":"東京都大田区仲六郷3丁目19","lat":35.547102,"lon":139.710271},{"name":"鶴渡公園","province":"東京都","city":"大田区","address":"東京都大田区大森西6丁目12","lat":35.56897,"lon":139.724805},{"name":"田園調布せせらぎ館","province":"東京都","city":"大田区","address":"東京都大田区田園調布1丁目53","lat":35.589695,"lon":139.6692},{"name":"田園調布せせらぎ公園","province":"東京都","city":"大田区","address":"東京都大田区田園調布1丁目53","lat":35.590002,"lon":139.669778},{"name":"田園調布せせらぎ公園","province":"東京都","city":"大田区","address":"東京都大田区田園調布1丁目53","lat":35.590351,"lon":139.669005},{"name":"都堀公園","province":"東京都","city":"大田区","address":"東京都大田区大森東1丁目30","lat":35.577182,"lon":139.738522},{"name":"東蒲田公園","province":"東京都","city":"大田区","address":"東京都大田区東蒲田1丁目11","lat":35.564465,"lon":139.728349},{"name":"東蒲田二丁目公園","province":"東京都","city":"大田区","address":"東京都大田区東蒲田2丁目32","lat":35.561126,"lon":139.726169},{"name":"東中公園","province":"東京都","city":"大田区","address":"東京都大田区東雪谷4丁目3","lat":35.594818,"lon":139.691655},{"name":"東調布公園","province":"東京都","city":"大田区","address":"東京都大田区南雪谷5丁目12","lat":35.589556,"lon":139.689123},{"name":"東糀谷一丁目公園だれでもトイレ","province":"東京都","city":"大田区","address":"東京都大田区東糀谷1丁目4","lat":35.560265,"lon":139.740479},{"name":"東糀谷防災公園だれでもトイレ","province":"東京都","city":"大田区","address":"東京都大田区東糀谷4丁目5-1","lat":35.55666,"lon":139.745196},{"name":"東糀谷防災公園だれでもトイレ","province":"東京都","city":"大田区","address":"東京都大田区東糀谷4丁目5","lat":35.55596,"lon":139.745081},{"name":"東糀谷防災公園だれでもトイレ","province":"東京都","city":"大田区","address":"東京都大田区東糀谷4丁目5","lat":35.557061,"lon":139.745991},{"name":"徳持公園","province":"東京都","city":"大田区","address":"東京都大田区池上8丁目20","lat":35.568056,"lon":139.696871},{"name":"南蒲公園","province":"東京都","city":"大田区","address":"東京都大田区西糀谷1丁目12","lat":35.55841,"lon":139.727843},{"name":"南蒲田二丁目児童公園","province":"東京都","city":"大田区","address":"東京都大田区南蒲田2丁目26","lat":35.554694,"lon":139.722136},{"name":"南三堤公園","province":"東京都","city":"大田区","address":"東京都大田区南六郷3丁目23","lat":35.54189,"lon":139.715694},{"name":"南前堀緑地だれでもトイレ","province":"東京都","city":"大田区","address":"東京都大田区東糀谷4丁目10","lat":35.553931,"lon":139.743487},{"name":"南前堀緑地だれでもトイレ","province":"東京都","city":"大田区","address":"東京都大田区東糀谷3丁目16","lat":35.554051,"lon":139.745776},{"name":"南六郷公園","province":"東京都","city":"大田区","address":"東京都大田区南六郷2丁目35","lat":35.545034,"lon":139.721973},{"name":"入新井公園","province":"東京都","city":"大田区","address":"東京都大田区大森北1丁目20","lat":35.586346,"lon":139.730661},{"name":"入新井西公園","province":"東京都","city":"大田区","address":"東京都大田区大森北4丁目27","lat":35.585189,"lon":139.725993},{"name":"馬込西公園","province":"東京都","city":"大田区","address":"東京都大田区西馬込2丁目8","lat":35.58863,"lon":139.703233},{"name":"美原児童公園","province":"東京都","city":"大田区","address":"東京都大田区大森東1丁目13","lat":35.576184,"lon":139.737712},{"name":"平和の森公園","province":"東京都","city":"大田区","address":"東京都大田区平和の森公園2","lat":35.582743,"lon":139.739462},{"name":"平和の森公園","province":"東京都","city":"大田区","address":"東京都大田区平和の森公園2-4","lat":35.581535,"lon":139.738641},{"name":"平和の森公園","province":"東京都","city":"大田区","address":"東京都大田区平和の森公園2","lat":35.581277,"lon":139.73957},{"name":"平和の森公園","province":"東京都","city":"大田区","address":"東京都大田区平和の森公園2","lat":35.580002,"lon":139.74062},{"name":"平和の森公園","province":"東京都","city":"大田区","address":"東京都大田区平和の森公園2","lat":35.578649,"lon":139.740512},{"name":"平和の森公園","province":"東京都","city":"大田区","address":"東京都大田区平和の森公園2","lat":35.577578,"lon":139.742302},{"name":"平和島公園","province":"東京都","city":"大田区","address":"東京都大田区平和島4丁目2","lat":35.582486,"lon":139.743133},{"name":"宝来公園","province":"東京都","city":"大田区","address":"東京都大田区田園調布3丁目31","lat":35.593915,"lon":139.664152},{"name":"邦西児童公園","province":"東京都","city":"大田区","address":"東京都大田区大森西4丁目18","lat":35.571962,"lon":139.721946},{"name":"北前堀緑地だれでもトイレ","province":"東京都","city":"大田区","address":"東京都大田区東糀谷5丁目14","lat":35.559084,"lon":139.742691},{"name":"北馬込わくわく公園","province":"東京都","city":"大田区","address":"東京都大田区北馬込1丁目7","lat":35.600804,"lon":139.703246},{"name":"本蒲田公園","province":"東京都","city":"大田区","address":"東京都大田区蒲田5丁目35","lat":35.559608,"lon":139.717772},{"name":"本門寺公園","province":"東京都","city":"大田区","address":"東京都大田区池上1丁目11","lat":35.57973,"lon":139.708063},{"name":"本門寺公園","province":"東京都","city":"大田区","address":"東京都大田区池上1丁目11","lat":35.579209,"lon":139.707689},{"name":"矢口二丁目公園","province":"東京都","city":"大田区","address":"東京都大田区矢口2丁目21","lat":35.561154,"lon":139.689781},{"name":"佐伯山緑地","province":"東京都","city":"大田区","address":"東京都大田区中央5丁目30","lat":35.581606,"lon":139.714371},{"name":"水神公園","province":"東京都","city":"大田区","address":"東京都大田区南雪谷5丁目10","lat":35.588208,"lon":139.686864},{"name":"みなさん児童公園","province":"東京都","city":"大田区","address":"東京都大田区南六郷3丁目10","lat":35.543615,"lon":139.714239},{"name":"高畑第三児童公園","province":"東京都","city":"大田区","address":"東京都大田区西六郷3丁目30","lat":35.545403,"lon":139.705072},{"name":"ソラムナード羽田緑地","province":"東京都","city":"大田区","address":"東京都大田区羽田空港2丁目8","lat":35.545591,"lon":139.758936},{"name":"ソラムナード羽田緑地","province":"東京都","city":"大田区","address":"東京都大田区羽田空港2丁目","lat":35.541139,"lon":139.769699},{"name":"潮見児童公園","province":"東京都","city":"大田区","address":"東京都大田区大森南4丁目4","lat":35.568702,"lon":139.746819},{"name":"森ケ崎公園","province":"東京都","city":"大田区","address":"東京都大田区大森南5丁目2-111","lat":35.562993,"lon":139.750004},{"name":"仲六郷二丁目公園","province":"東京都","city":"大田区","address":"東京都大田区仲六郷2丁目4","lat":35.5525,"lon":139.712969},{"name":"はばたき児童公園","province":"東京都","city":"大田区","address":"東京都大田区本羽田2丁目9","lat":35.547457,"lon":139.731862},{"name":"大鳥居児童公園","province":"東京都","city":"大田区","address":"東京都大田区羽田1丁目17","lat":35.549553,"lon":139.741524},{"name":"あじさい児童公園","province":"東京都","city":"大田区","address":"東京都大田区西糀谷4丁目24","lat":35.553647,"lon":139.732381},{"name":"森ケ崎緑華園","province":"東京都","city":"大田区","address":"東京都大田区大森南4丁目3","lat":35.567935,"lon":139.745569},{"name":"六間堀仲羽公園","province":"東京都","city":"大田区","address":"東京都大田区羽田4丁目18","lat":35.549013,"lon":139.74484},{"name":"蒲田本町一丁目公園","province":"東京都","city":"大田区","address":"東京都大田区蒲田本町1丁目1","lat":35.558286,"lon":139.715815},{"name":"東糀谷第一公園","province":"東京都","city":"大田区","address":"東京都大田区東糀谷6丁目8","lat":35.556008,"lon":139.747962},{"name":"松原橋公衆便所","province":"東京都","city":"大田区","address":"東京都大田区東馬込1丁目30","lat":35.595561,"lon":139.712017},{"name":"トイレさくら亭","province":"東京都","city":"大田区","address":"東京都大田区下丸子4丁目27","lat":35.573477,"lon":139.67596},{"name":"蒲田駅西口公衆便所","province":"東京都","city":"大田区","address":"東京都大田区西蒲田8丁目1","lat":35.561059,"lon":139.715133},{"name":"蒲田交差公衆便所","province":"東京都","city":"大田区","address":"東京都大田区蒲田5丁目12","lat":35.563805,"lon":139.716912},{"name":"蒲田交差公衆便所","province":"東京都","city":"大田区","address":"東京都大田区蒲田5丁目12","lat":35.563772,"lon":139.716902},{"name":"蒲田西口駅前公衆便所せせらぎ","province":"東京都","city":"大田区","address":"東京都大田区蒲田5丁目13","lat":35.562838,"lon":139.715966},{"name":"京急蒲田駅東口トイレ","province":"東京都","city":"大田区","address":"東京都大田区南蒲田1丁目20-32","lat":35.55986,"lon":139.72398},{"name":"大森駅前広場公衆便所","province":"東京都","city":"大田区","address":"東京都大田区大森北1丁目1","lat":35.588079,"lon":139.729315},{"name":"多摩川駅前公衆便所","province":"東京都","city":"大田区","address":"東京都大田区田園調布1丁目55","lat":35.588268,"lon":139.668802},{"name":"多摩川野球場前公衆便所","province":"東京都","city":"大田区","address":"東京都大田区田園調布4丁目44","lat":35.591889,"lon":139.661277},{"name":"大岡山駅前公衆便所","province":"東京都","city":"大田区","address":"東京都大田区北千束1丁目","lat":35.607587,"lon":139.685247},{"name":"大森駅山王口公衆便所","province":"東京都","city":"大田区","address":"東京都大田区山王2丁目2-9","lat":35.588246,"lon":139.72744},{"name":"平和島入口公衆便所","province":"東京都","city":"大田区","address":"東京都大田区大森本町1丁目9","lat":35.582874,"lon":139.737046},{"name":"大森東三丁目児童公園","province":"東京都","city":"大田区","address":"東京都大田区大森東3丁目5","lat":35.570275,"lon":139.73599},{"name":"田園調布駅前公衆便所","province":"東京都","city":"大田区","address":"東京都大田区田園調布2丁目62","lat":35.597321,"lon":139.667173},{"name":"子ども家庭支援センター洗足池分室","province":"東京都","city":"大田区","address":"東京都大田区上池台2丁目35-18","lat":35.597933,"lon":139.691726},{"name":"21世紀おもいで桜トイレ","province":"東京都","city":"大田区","address":"東京都大田区下丸子3丁目","lat":35.56496,"lon":139.681027},{"name":"池上駅公衆便所","province":"東京都","city":"大田区","address":"東京都大田区池上6丁目3-10","lat":35.572176,"lon":139.703333},{"name":"大田区羽田地域力推進センター","province":"東京都","city":"大田区","address":"東京都大田区羽田1丁目18-13","lat":35.549257,"lon":139.742423},{"name":"平和島公園水泳場","province":"東京都","city":"大田区","address":"東京都大田区平和島4丁目2-2","lat":35.581566,"lon":139.741805},{"name":"平和島公園水泳場","province":"東京都","city":"大田区","address":"東京都大田区平和島4丁目2-2","lat":35.581786,"lon":139.74206},{"name":"東調布公園水泳場","province":"東京都","city":"大田区","address":"東京都大田区南雪谷5丁目13-1","lat":35.588194,"lon":139.688964},{"name":"萩中公園水泳場","province":"東京都","city":"大田区","address":"東京都大田区萩中3丁目26","lat":35.549466,"lon":139.736321},{"name":"萩中公園水泳場","province":"東京都","city":"大田区","address":"東京都大田区萩中3丁目26","lat":35.549856,"lon":139.737334},{"name":"萩中公園水泳場","province":"東京都","city":"大田区","address":"東京都大田区萩中3丁目26-46","lat":35.550052,"lon":139.736452},{"name":"大森スポーツセンター","province":"東京都","city":"大田区","address":"東京都大田区大森本町2丁目2-5","lat":35.580906,"lon":139.737375},{"name":"大森スポーツセンター","province":"東京都","city":"大田区","address":"東京都大田区大森本町2丁目2-5","lat":35.580894,"lon":139.73737},{"name":"大田区総合体育館","province":"東京都","city":"大田区","address":"東京都大田区東蒲田1丁目11-1","lat":35.564081,"lon":139.728119},{"name":"大田区総合体育館","province":"東京都","city":"大田区","address":"東京都大田区東蒲田1丁目11-1","lat":35.564157,"lon":139.727514},{"name":"大田区総合体育館","province":"東京都","city":"大田区","address":"東京都大田区東蒲田1丁目11-1","lat":35.564696,"lon":139.727817},{"name":"大田区総合体育館","province":"東京都","city":"大田区","address":"東京都大田区東蒲田1丁目11-1","lat":35.564597,"lon":139.728134},{"name":"大田区総合体育館","province":"東京都","city":"大田区","address":"東京都大田区東蒲田1丁目11-1","lat":35.564611,"lon":139.728079},{"name":"大田区総合体育館","province":"東京都","city":"大田区","address":"東京都大田区東蒲田1丁目11-1","lat":35.564478,"lon":139.727598},{"name":"子ども家庭支援センター大森","province":"東京都","city":"大田区","address":"東京都大田区大森北4丁目16-5","lat":35.583336,"lon":139.727123},{"name":"子ども家庭支援センター洗足池分室","province":"東京都","city":"大田区","address":"東京都大田区上池台2丁目35-18","lat":35.597971,"lon":139.691736},{"name":"おおた国際交流センター","province":"東京都","city":"大田区","address":"東京都大田区蒲田4丁目16-8","lat":35.561342,"lon":139.722409},{"name":"大田スタジアム","province":"東京都","city":"大田区","address":"東京都大田区東海1丁目2-10","lat":35.588203,"lon":139.752758},{"name":"大田スタジアム","province":"東京都","city":"大田区","address":"東京都大田区東海1丁目2","lat":35.587935,"lon":139.752866},{"name":"大田スタジアム","province":"東京都","city":"大田区","address":"東京都大田区東海1丁目2","lat":35.588562,"lon":139.753425},{"name":"新蒲田一丁目複合施設","province":"東京都","city":"大田区","address":"東京都大田区新蒲田1丁目18-16","lat":35.557401,"lon":139.711292},{"name":"こども食堂ﾋﾛ","province":"東京都","city":"大田区","address":"東京都大田区南千束2丁目18-13","lat":35.60462481,"lon":139.68794244},{"name":"大岡山こども食堂","province":"東京都","city":"大田区","address":"東京都大田区北千束3丁目20-8","lat":35.60482752,"lon":139.68613703},{"name":"嶺町こども食堂みんなでごはん","province":"東京都","city":"大田区","address":"東京都大田区田園調布本町7-1","lat":35.58786589,"lon":139.67735279},{"name":"田園調布子ども食堂ともこｷｯﾁﾝ","province":"東京都","city":"大田区","address":"東京都大田区田園調布4丁目","lat":35.59272877,"lon":139.66135396},{"name":"ｶﾌｪｷｬﾋﾞﾝ","province":"東京都","city":"大田区","address":"東京都大田区南雪谷5丁目3-12","lat":35.58974056,"lon":139.68787927},{"name":"たんぽぽ食堂","province":"東京都","city":"大田区","address":"東京都大田区南雪谷5丁目3-12","lat":35.58974056,"lon":139.68787927},{"name":"子ども食堂ｳﾒｷｯﾁﾝ","province":"東京都","city":"大田区","address":"東京都大田区田園調布本町29-8","lat":35.58260295,"lon":139.67374809},{"name":"子ども食堂ﾌﾗﾝｼｽｺの広場","province":"東京都","city":"大田区","address":"東京都大田区仲池上1丁目21-11","lat":35.58569934,"lon":139.69815052},{"name":"こあら村のこども食堂","province":"東京都","city":"大田区","address":"東京都大田区久が原6丁目26-4","lat":35.57313754,"lon":139.69462416},{"name":"馬込子まもり食堂","province":"東京都","city":"大田区","address":"東京都大田区北馬込2丁目5-5","lat":35.59902577,"lon":139.7095962},{"name":"れんげの会こども食堂Withおとな","province":"東京都","city":"大田区","address":"東京都大田区西馬込2丁目20-1","lat":35.58649105,"lon":139.70527762},{"name":"絆倶楽部","province":"東京都","city":"大田区","address":"東京都大田区西馬込2丁目20-1","lat":35.58649105,"lon":139.70527762},{"name":"絆カフェ","province":"東京都","city":"大田区","address":"東京都大田区西馬込2丁目20-1","lat":35.58649105,"lon":139.70527762},{"name":"絆御飯","province":"東京都","city":"大田区","address":"東京都大田区西馬込2丁目20-1","lat":35.58649105,"lon":139.70527762},{"name":"てくてく食堂","province":"東京都","city":"大田区","address":"東京都大田区西馬込2丁目20-1","lat":35.58649105,"lon":139.70527762},{"name":"南馬込ｱｸﾞﾈｽこども食堂","province":"東京都","city":"大田区","address":"東京都大田区南馬込1丁目58-8","lat":35.58911316,"lon":139.71283519},{"name":"Steak＆Hamburg SOH","province":"東京都","city":"大田区","address":"東京都大田区山王2丁目36-9","lat":35.59170755,"lon":139.72220932},{"name":"おばんざい　地獄に佛","province":"東京都","city":"大田区","address":"東京都大田区山王2丁目2-15","lat":35.58900533,"lon":139.72802012},{"name":"ほっとねっとｷｯﾁﾝ","province":"東京都","city":"大田区","address":"東京都大田区中央2丁目10-1","lat":35.57955621,"lon":139.7202711},{"name":"みんなでべジ食","province":"東京都","city":"大田区","address":"東京都大田区池上3丁目32-17","lat":35.57372347,"lon":139.70167607},{"name":"子ども食堂ｵﾑﾗｲｽ食堂","province":"東京都","city":"大田区","address":"東京都大田区大森北1丁目29-6","lat":35.5855669,"lon":139.72875077},{"name":"こども＆ｼﾆｱ　もりもり食堂","province":"東京都","city":"大田区","address":"東京都大田区大森西2丁目2-1","lat":35.57887326,"lon":139.72839833},{"name":"こども食堂おやこｷｯﾁﾝ","province":"東京都","city":"大田区","address":"東京都大田区大森西2丁目2-1","lat":35.57887326,"lon":139.72839833},{"name":"感動こども食堂","province":"東京都","city":"大田区","address":"東京都大田区西蒲田7丁目5-12","lat":35.56378033,"lon":139.71516683},{"name":"だんだんﾜﾝｺｲﾝこども食堂","province":"東京都","city":"大田区","address":"東京都大田区東矢口1丁目17-9","lat":35.564572,"lon":139.70724548},{"name":"いちご食堂","province":"東京都","city":"大田区","address":"東京都大田区下丸子3丁目8-15","lat":35.57050488,"lon":139.68530334},{"name":"VICｽﾏｲﾙｷｯﾁﾝ","province":"東京都","city":"大田区","address":"東京都大田区矢口2丁目1-18","lat":35.56410568,"lon":139.69612749},{"name":"万人こども食堂","province":"東京都","city":"大田区","address":"東京都大田区新蒲田3丁目4-28","lat":35.55842023,"lon":139.70546838},{"name":"子ども食堂やんやん","province":"東京都","city":"大田区","address":"東京都大田区新蒲田2丁目1-13","lat":35.55895617,"lon":139.70872347},{"name":"ﾕﾆﾊﾞｰｻﾙこども食堂","province":"東京都","city":"大田区","address":"東京都大田区南六郷1丁目34-4","lat":35.54579173,"lon":139.72602558},{"name":"おおたﾗｰﾒﾝこども食堂（本羽田）","province":"東京都","city":"大田区","address":"東京都大田区本羽田1丁目12-9","lat":35.5488134,"lon":139.72456155},{"name":"大森東しあわせ食堂","province":"東京都","city":"大田区","address":"東京都大田区大森東4丁目6-15","lat":35.56848065,"lon":139.7383372},{"name":"ひこうき食堂","province":"東京都","city":"大田区","address":"東京都大田区新蒲田1丁目18-16","lat":35.55736749,"lon":139.71124551},{"name":"ﾄｰｷｮｰｺｰﾋｰ大田区　かぞく食堂","province":"東京都","city":"大田区","address":"東京都大田区大森東1丁目28-9","lat":35.57715448,"lon":139.73810337},{"name":"SOMPO流子ども食堂（そんぽの家　大鳥居）","province":"東京都","city":"大田区","address":"東京都大田区西糀谷3丁目32-2","lat":35.55304671,"lon":139.7372494},{"name":"SOMPO流子ども食堂（そんぽの家　東六郷）","province":"東京都","city":"大田区","address":"東京都大田区東六郷1丁目19-1","lat":35.55189611,"lon":139.7194534},{"name":"SOMPO流子ども食堂（そんぽの家S　西糀谷）","province":"東京都","city":"大田区","address":"東京都大田区西糀谷3丁目32-15","lat":35.552919,"lon":139.73772161},{"name":"SOMPO流子ども食堂（そんぽの家S　羽田）","province":"東京都","city":"大田区","address":"東京都大田区羽田2丁目2-11","lat":35.54853938,"lon":139.74190784},{"name":"SOMPO流子ども食堂（ﾗｳﾞｨｰﾚ羽田）","province":"東京都","city":"大田区","address":"東京都大田区東糀谷5丁目19-18","lat":35.55831036,"lon":139.74512924},{"name":"SOMPO流子ども食堂（ﾗｳﾞｨｰﾚ多摩川）","province":"東京都","city":"大田区","address":"東京都大田区多摩川2丁目13-22","lat":35.55821767,"lon":139.69939418},{"name":"みんなの食堂","province":"東京都","city":"大田区","address":"東京都大田区上池台1丁目13-4","lat":35.60263907,"lon":139.69726665},{"name":"羽田のこのこ食堂","province":"東京都","city":"大田区","address":"東京都大田区萩中2丁目11-5","lat":35.55107724,"lon":139.73176371},{"name":"ﾄﾘﾔｷ大学こども食堂","province":"東京都","city":"大田区","address":"東京都大田区蒲田5丁目19-15","lat":35.5622027,"lon":139.71791103},{"name":"子ども食堂ママちゃんち","province":"東京都","city":"大田区","address":"東京都大田区中央3丁目","lat":35.5766982,"lon":139.71946298},{"name":"えんむすび","province":"東京都","city":"大田区","address":"東京都大田区南六郷1丁目34-4","lat":35.54579173,"lon":139.72602558},{"name":"ﾌｰﾄﾞﾊﾞﾝｸ大田芋やぽんぽこ子ども食堂","province":"東京都","city":"大田区","address":"東京都大田区中央4丁目32-8","lat":35.57933676,"lon":139.71881846},{"name":"城南大橋第二","province":"東京都","city":"大田区","address":"東京都大田区東海3丁目4","lat":35.57770285,"lon":139.76242682},{"name":"京浜トラックターミナル","province":"東京都","city":"大田区","address":"東京都大田区平和島2丁目1-1","lat":35.58746451,"lon":139.74376358},{"name":"大田都税事務所","province":"東京都","city":"大田区","address":"東京都大田区新蒲田1丁目18-22","lat":35.557443,"lon":139.710733},{"name":"大井ふ頭中央海浜公園ホッケー競技場","province":"東京都","city":"大田区","address":"東京都大田区東海1丁目2-1","lat":35.588825,"lon":139.753293},{"name":"大井ふ頭中央海浜公園ホッケー競技場","province":"東京都","city":"大田区","address":"東京都大田区東海1丁目2-1","lat":35.58881,"lon":139.753399},{"name":"大井ふ頭中央海浜公園ホッケー競技場","province":"東京都","city":"大田区","address":"東京都大田区東海1丁目2-1","lat":35.588868,"lon":139.753054},{"name":"大井ふ頭中央海浜公園ホッケー競技場","province":"東京都","city":"大田区","address":"東京都大田区東海1丁目2-1","lat":35.588868,"lon":139.753014},{"name":"地方独立行政法人東京都立病院機構　東京都立荏原病院","province":"東京都","city":"大田区","address":"東京都大田区東雪谷4丁目5-10","lat":35.593999,"lon":139.692898},{"name":"東京都中央卸売市場大田市場（事務棟）","province":"東京都","city":"大田区","address":"東京都大田区東海3丁目2-1","lat":35.579016,"lon":139.758734},{"name":"大井中央海浜公園","province":"東京都","city":"大田区","address":"東京都大田区東海1丁目1","lat":35.589033,"lon":139.750192},{"name":"大井中央海浜公園","province":"東京都","city":"大田区","address":"東京都大田区東海1丁目4","lat":35.585077,"lon":139.751562},{"name":"大井中央海浜公園","province":"東京都","city":"大田区","address":"東京都大田区東海1丁目2","lat":35.588216,"lon":139.751111},{"name":"大井中央海浜公園","province":"東京都","city":"大田区","address":"東京都大田区東海1丁目1","lat":35.588011,"lon":139.750383},{"name":"城南島海浜公園","province":"東京都","city":"大田区","address":"東京都大田区城南島4丁目2","lat":35.578382,"lon":139.783217},{"name":"城南島海浜公園","province":"東京都","city":"大田区","address":"東京都大田区城南島4丁目1","lat":35.5807,"lon":139.785557},{"name":"城南島海浜公園","province":"東京都","city":"大田区","address":"東京都大田区城南島4丁目1","lat":35.582085,"lon":139.783537},{"name":"東海ふ頭公園","province":"東京都","city":"大田区","address":"東京都大田区東海2丁目3","lat":35.577934,"lon":139.756133},{"name":"京浜島つばさ公園","province":"東京都","city":"大田区","address":"東京都大田区京浜島2丁目5","lat":35.567172,"lon":139.767332},{"name":"京浜島つばさ公園","province":"東京都","city":"大田区","address":"東京都大田区京浜島2丁目5","lat":35.571387,"lon":139.770572},{"name":"東京港野鳥公園","province":"東京都","city":"大田区","address":"東京都大田区東海3丁目1","lat":35.583588,"lon":139.760458},{"name":"東京港野鳥公園","province":"東京都","city":"大田区","address":"東京都大田区東海3丁目1","lat":35.583916,"lon":139.760419},{"name":"都営浅草線西馬込駅","province":"東京都","city":"大田区","address":"東京都大田区西馬込2丁目1","lat":35.587452,"lon":139.706039},{"name":"都営浅草線馬込駅","province":"東京都","city":"大田区","address":"東京都大田区北馬込2丁目31","lat":35.597218,"lon":139.711996},{"name":"大森消防署山谷出張所","province":"東京都","city":"大田区","address":"東京都大田区大森西5丁目14-5","lat":35.569765,"lon":139.729981},{"name":"大森消防署森ケ崎出張所","province":"東京都","city":"大田区","address":"東京都大田区大森南3丁目33-8","lat":35.564541,"lon":139.745669},{"name":"大森消防署馬込出張所","province":"東京都","city":"大田区","address":"東京都大田区南馬込5丁目2-3","lat":35.591449,"lon":139.709962},{"name":"蒲田消防署　空港分署","province":"東京都","city":"大田区","address":"東京都大田区羽田空港1丁目1-2","lat":35.54911,"lon":139.753255},{"name":"大田区役所本庁舎","province":"東京都","city":"大田区","address":"東京都大田区蒲田5丁目13-14","lat":35.561376,"lon":139.715968},{"name":"六郷地域力推進センター","province":"東京都","city":"大田区","address":"東京都大田区仲六郷2丁目44-11","lat":35.551015,"lon":139.71604},{"name":"大田区役所本庁舎","province":"東京都","city":"大田区","address":"東京都大田区蒲田5丁目13-14","lat":35.561369,"lon":139.715993},{"name":"大田区役所本庁舎","province":"東京都","city":"大田区","address":"東京都大田区蒲田5丁目13-14","lat":35.561865,"lon":139.716212},{"name":"大田区大森地域庁舎","province":"東京都","city":"大田区","address":"東京都大田区大森西1丁目12-1","lat":35.578186,"lon":139.722901},{"name":"大田区役所久が原特別出張所","province":"東京都","city":"大田区","address":"東京都大田区久が原4丁目12-10","lat":35.580315,"lon":139.693955},{"name":"大田区蒲田地域庁舎","province":"東京都","city":"大田区","address":"東京都大田区蒲田本町2丁目1-1","lat":35.55851,"lon":139.718337},{"name":"大田区役所 糀谷･羽田地域庁舎","province":"東京都","city":"大田区","address":"東京都大田区東糀谷1丁目21-15","lat":35.557255,"lon":139.739743},{"name":"調布地域庁舎","province":"東京都","city":"大田区","address":"東京都大田区雪谷大塚町4-6","lat":35.593181,"lon":139.680602},{"name":"大田区大森東特別出張所","province":"東京都","city":"大田区","address":"東京都大田区大森南4丁目9","lat":35.566864,"lon":139.74603},{"name":"馬込特別出張所","province":"東京都","city":"大田区","address":"東京都大田区中馬込3丁目25-5","lat":35.594049,"lon":139.709977},{"name":"池上特別出張所","province":"東京都","city":"大田区","address":"東京都大田区池上1丁目29-6","lat":35.575007,"lon":139.710412},{"name":"大田区新井宿特別出張所","province":"東京都","city":"大田区","address":"東京都大田区中央1丁目21-6","lat":35.579707,"lon":139.719739},{"name":"大田区新井宿特別出張所","province":"東京都","city":"大田区","address":"東京都大田区中央1丁目21-6","lat":35.579622,"lon":139.719712},{"name":"大田区嶺町特別出張所","province":"東京都","city":"大田区","address":"東京都大田区田園調布本町7-1","lat":35.587878,"lon":139.677445},{"name":"鵜の木特別出張所","province":"東京都","city":"大田区","address":"東京都大田区南久が原2丁目30-5","lat":35.574921,"lon":139.685267},{"name":"糀谷特別出張所","province":"東京都","city":"大田区","address":"東京都大田区西糀谷2丁目14-13","lat":35.558682,"lon":139.736727},{"name":"雪谷特別出張所","province":"東京都","city":"大田区","address":"東京都大田区東雪谷3丁目6-2","lat":35.594582,"lon":139.691034},{"name":"雪谷特別出張所","province":"東京都","city":"大田区","address":"東京都大田区東雪谷3丁目6-2","lat":35.594605,"lon":139.690998},{"name":"田園調布特別出張所","province":"東京都","city":"大田区","address":"東京都大田区田園調布1丁目30-1","lat":35.588066,"lon":139.671144},{"name":"エセナおおた","province":"東京都","city":"大田区","address":"東京都大田区大森北4丁目16-4","lat":35.583488,"lon":139.726907},{"name":"大田区矢口特別出張所（矢口区民センター）","province":"東京都","city":"大田区","address":"東京都大田区矢口2丁目21-14","lat":35.562187,"lon":139.690423},{"name":"大田区矢口特別出張所（矢口区民センター）","province":"東京都","city":"大田区","address":"東京都大田区矢口2丁目21-14","lat":35.562123,"lon":139.690429},{"name":"ふれあいはすぬま","province":"東京都","city":"大田区","address":"東京都大田区西蒲田3丁目19-1","lat":35.567991,"lon":139.707596},{"name":"消費者生活センター","province":"東京都","city":"大田区","address":"東京都大田区蒲田5丁目13-26","lat":35.559838,"lon":139.715468},{"name":"大森西区民センター","province":"東京都","city":"大田区","address":"東京都大田区大森西2丁目20-17","lat":35.576532,"lon":139.727722},{"name":"大森西区民センター","province":"東京都","city":"大田区","address":"東京都大田区大森西2丁目20-17","lat":35.576452,"lon":139.727654},{"name":"馬込区民センター","province":"東京都","city":"大田区","address":"東京都大田区南馬込4丁目6-5","lat":35.586442,"lon":139.709978},{"name":"ライフコミュニティ西馬込","province":"東京都","city":"大田区","address":"東京都大田区西馬込2丁目20-1","lat":35.586461,"lon":139.705193},{"name":"池上会館","province":"東京都","city":"大田区","address":"東京都大田区池上1丁目32","lat":35.577383,"lon":139.706156},{"name":"池上会館","province":"東京都","city":"大田区","address":"東京都大田区池上1丁目32-8","lat":35.577427,"lon":139.706409},{"name":"池上会館","province":"東京都","city":"大田区","address":"東京都大田区池上1丁目32-8","lat":35.577287,"lon":139.706462},{"name":"大田区新井宿会館","province":"東京都","city":"大田区","address":"東京都大田区中央4丁目31-14","lat":35.579799,"lon":139.718477},{"name":"美原文化センター","province":"東京都","city":"大田区","address":"東京都大田区大森東1丁目28-9","lat":35.577156,"lon":139.73811},{"name":"南馬込文化センター","province":"東京都","city":"大田区","address":"東京都大田区南馬込3丁目24","lat":35.584929,"lon":139.71881},{"name":"糀谷文化センター","province":"東京都","city":"大田区","address":"東京都大田区西糀谷2丁目14-5","lat":35.559088,"lon":139.736378},{"name":"大田区立石川町文化センター","province":"東京都","city":"大田区","address":"東京都大田区石川町1丁目3-8","lat":35.602065,"lon":139.683038},{"name":"大森南図書館","province":"東京都","city":"大田区","address":"東京都大田区大森南1丁目17-7","lat":35.563421,"lon":139.739717},{"name":"萩中文化センター","province":"東京都","city":"大田区","address":"東京都大田区萩中1丁目7-30","lat":35.550384,"lon":139.728375},{"name":"大田区民プラザ","province":"東京都","city":"大田区","address":"東京都大田区下丸子3丁目1-3","lat":35.571425,"lon":139.686371},{"name":"大田区民プラザ","province":"東京都","city":"大田区","address":"東京都大田区下丸子3丁目1-3","lat":35.571313,"lon":139.686552},{"name":"大田区産業プラザPiO","province":"東京都","city":"大田区","address":"東京都大田区南蒲田1丁目20-20","lat":35.558747,"lon":139.723915},{"name":"大田区産業プラザPiO","province":"東京都","city":"大田区","address":"東京都大田区南蒲田1丁目20-20","lat":35.558817,"lon":139.724257},{"name":"大田区産業プラザPiO","province":"東京都","city":"大田区","address":"東京都大田区南蒲田1丁目20-20","lat":35.558654,"lon":139.724374},{"name":"大田区産業プラザPiO","province":"東京都","city":"大田区","address":"東京都大田区南蒲田1丁目20-20","lat":35.558668,"lon":139.724099},{"name":"大田区産業プラザPiO","province":"東京都","city":"大田区","address":"東京都大田区南蒲田1丁目20-20","lat":35.558618,"lon":139.724097},{"name":"大田区産業プラザPiO","province":"東京都","city":"大田区","address":"東京都大田区南蒲田1丁目20-20","lat":35.558599,"lon":139.724132},{"name":"多摩川集会室（多摩川児童館）","province":"東京都","city":"大田区","address":"東京都大田区多摩川2丁目24-25","lat":35.555251,"lon":139.704546},{"name":"大田区立障がい者総合サポートセンター","province":"東京都","city":"大田区","address":"東京都大田区中央4丁目30","lat":35.579414,"lon":139.718032},{"name":"池上文化センター","province":"東京都","city":"大田区","address":"東京都大田区池上4丁目21-13","lat":35.575325,"lon":139.703697},{"name":"大田区青少年交流センターゆいっつ","province":"東京都","city":"大田区","address":"東京都大田区平和島4丁目2-15","lat":35.583639,"lon":139.743053},{"name":"大田区青少年交流センターゆいっつ","province":"東京都","city":"大田区","address":"東京都大田区平和島4丁目2","lat":35.583392,"lon":139.743014},{"name":"大田区青少年交流センターゆいっつ","province":"東京都","city":"大田区","address":"東京都大田区平和島4丁目2","lat":35.583409,"lon":139.743074},{"name":"大田区青少年交流センターゆいっつ","province":"東京都","city":"大田区","address":"東京都大田区平和島4丁目2-15","lat":35.583642,"lon":139.743053},{"name":"大田区青少年交流センターゆいっつ","province":"東京都","city":"大田区","address":"東京都大田区平和島4丁目2","lat":35.583471,"lon":139.743215},{"name":"大田区青少年交流センターゆいっつ","province":"東京都","city":"大田区","address":"東京都大田区平和島4丁目2","lat":35.583467,"lon":139.743188},{"name":"久が原図書館","province":"東京都","city":"大田区","address":"東京都大田区久が原2丁目28-4","lat":35.579328,"lon":139.695364},{"name":"大森東図書館","province":"東京都","city":"大田区","address":"東京都大田区大森東1丁目31-3","lat":35.576213,"lon":139.738683},{"name":"大森西図書館","province":"東京都","city":"大田区","address":"東京都大田区大森西5丁目2-13","lat":35.571812,"lon":139.726004},{"name":"浜竹図書館","province":"東京都","city":"大田区","address":"東京都大田区西糀谷3丁目32-7","lat":35.553343,"lon":139.737448},{"name":"洗足池図書館","province":"東京都","city":"大田区","address":"東京都大田区南千束2丁目2-10","lat":35.600722,"lon":139.691921},{"name":"六郷図書館","province":"東京都","city":"大田区","address":"東京都大田区南六郷3丁目10-3","lat":35.543918,"lon":139.714155},{"name":"羽田図書館","province":"東京都","city":"大田区","address":"東京都大田区羽田1丁目11-1","lat":35.550357,"lon":139.74343},{"name":"下丸子図書館","province":"東京都","city":"大田区","address":"東京都大田区下丸子2丁目18-11","lat":35.565748,"lon":139.688114},{"name":"多摩川図書館","province":"東京都","city":"大田区","address":"東京都大田区多摩川2丁目24-63","lat":35.556151,"lon":139.702315},{"name":"多摩川図書館","province":"東京都","city":"大田区","address":"東京都大田区多摩川2丁目24-63","lat":35.556158,"lon":139.70236},{"name":"蒲田図書館","province":"東京都","city":"大田区","address":"東京都大田区東蒲田1丁目19-22","lat":35.563669,"lon":139.728418},{"name":"蒲田駅前図書館","province":"東京都","city":"大田区","address":"東京都大田区蒲田5丁目13-26","lat":35.559833,"lon":139.715474},{"name":"池上図書館","province":"東京都","city":"大田区","address":"東京都大田区池上6丁目3-10","lat":35.572131,"lon":139.703088},{"name":"山王草堂記念館","province":"東京都","city":"大田区","address":"東京都大田区山王1丁目41-21","lat":35.593288,"lon":139.721193},{"name":"大田文化の森","province":"東京都","city":"大田区","address":"東京都大田区中央2丁目10-1","lat":35.579038,"lon":139.720357},{"name":"大田文化の森","province":"東京都","city":"大田区","address":"東京都大田区中央2丁目10-1","lat":35.579255,"lon":139.720341},{"name":"大田文化の森","province":"東京都","city":"大田区","address":"東京都大田区中央2丁目10-1","lat":35.579155,"lon":139.72038},{"name":"大田文化の森","province":"東京都","city":"大田区","address":"東京都大田区中央2丁目10-1","lat":35.579114,"lon":139.720387},{"name":"大田文化の森","province":"東京都","city":"大田区","address":"東京都大田区中央2丁目10-1","lat":35.579076,"lon":139.720398},{"name":"郷土博物館","province":"東京都","city":"大田区","address":"東京都大田区南馬込5丁目11-13","lat":35.588506,"lon":139.710716},{"name":"尾?士郎記念館","province":"東京都","city":"大田区","address":"東京都大田区山王1丁目36","lat":35.592475,"lon":139.72156},{"name":"龍子記念館","province":"東京都","city":"大田区","address":"東京都大田区中央4丁目2-1","lat":35.582386,"lon":139.71523},{"name":"大森 海苔のふるさと館","province":"東京都","city":"大田区","address":"東京都大田区平和の森公園2-2","lat":35.577114,"lon":139.742692},{"name":"森ケ崎緑華園","province":"東京都","city":"大田区","address":"東京都大田区大森南4丁目3","lat":35.567823,"lon":139.745438},{"name":"大田区民ホール・アプリコ","province":"東京都","city":"大田区","address":"東京都大田区蒲田5丁目37-3","lat":35.560284,"lon":139.717872},{"name":"大田区民ホール・アプリコ","province":"東京都","city":"大田区","address":"東京都大田区蒲田5丁目37-3","lat":35.560243,"lon":139.718081},{"name":"大田区民ホール・アプリコ","province":"東京都","city":"大田区","address":"東京都大田区蒲田5丁目37-1","lat":35.560435,"lon":139.717988},{"name":"タワーふれあい公園前緑地","province":"東京都","city":"大田区","address":"東京都大田区多摩川2丁目24","lat":35.554363,"lon":139.703302},{"name":"まごめばし児童公園","province":"東京都","city":"大田区","address":"東京都大田区中馬込3丁目29","lat":35.593313,"lon":139.71055},{"name":"鵜の木二丁目児童公園","province":"東京都","city":"大田区","address":"東京都大田区鵜の木2丁目32","lat":35.573183,"lon":139.680102},{"name":"下丸子公園","province":"東京都","city":"大田区","address":"東京都大田区下丸子4丁目21","lat":35.569261,"lon":139.681636},{"name":"下丸子二丁目公園","province":"東京都","city":"大田区","address":"東京都大田区下丸子2丁目24","lat":35.563225,"lon":139.686954},{"name":"蒲田一丁目公園","province":"東京都","city":"大田区","address":"東京都大田区蒲田1丁目7","lat":35.567215,"lon":139.720927},{"name":"蒲田本町二丁目公園","province":"東京都","city":"大田区","address":"東京都大田区蒲田本町2丁目30","lat":35.556879,"lon":139.720881},{"name":"久が原公園","province":"東京都","city":"大田区","address":"東京都大田区久が原3丁目27","lat":35.581858,"lon":139.69113},{"name":"宮ノ下にこにこ児童公園","province":"東京都","city":"大田区","address":"東京都大田区中馬込3丁目23","lat":35.592958,"lon":139.708439},{"name":"京浜蒲田公園","province":"東京都","city":"大田区","address":"東京都大田区蒲田4丁目17","lat":35.561207,"lon":139.722128},{"name":"根ヶ原緑地","province":"東京都","city":"大田区","address":"東京都大田区山王3丁目15","lat":35.582185,"lon":139.721013},{"name":"桜並木公園","province":"東京都","city":"大田区","address":"東京都大田区南馬込4丁目11","lat":35.58447,"lon":139.711643},{"name":"山王三丁目児童公園","province":"東京都","city":"大田区","address":"東京都大田区山王3丁目8","lat":35.581769,"lon":139.723953},{"name":"若竹公園","province":"東京都","city":"大田区","address":"東京都大田区大森西1丁目8","lat":35.578038,"lon":139.726585},{"name":"小池公園","province":"東京都","city":"大田区","address":"東京都大田区上池台1丁目36","lat":35.598657,"lon":139.69696},{"name":"昭和島二丁目公園","province":"東京都","city":"大田区","address":"東京都大田区昭和島2丁目4","lat":35.574386,"lon":139.752105},{"name":"上池台三丁目公園","province":"東京都","city":"大田区","address":"東京都大田区上池台3丁目16","lat":35.593027,"lon":139.697856},{"name":"上池台射水坂公園","province":"東京都","city":"大田区","address":"東京都大田区上池台4丁目19","lat":35.598336,"lon":139.702427},{"name":"新井宿児童公園","province":"東京都","city":"大田区","address":"東京都大田区中央4丁目31","lat":35.579507,"lon":139.71864},{"name":"新井宿第一児童公園","province":"東京都","city":"大田区","address":"東京都大田区山王3丁目4","lat":35.584445,"lon":139.72511},{"name":"清花公園","province":"東京都","city":"大田区","address":"東京都大田区大森北2丁目8","lat":35.585496,"lon":139.73373},{"name":"西蒲田公園","province":"東京都","city":"大田区","address":"東京都大田区西蒲田8丁目6","lat":35.561436,"lon":139.710976},{"name":"西六郷公園","province":"東京都","city":"大田区","address":"東京都大田区西六郷1丁目6","lat":35.55334,"lon":139.711724},{"name":"西六郷三丁目公園","province":"東京都","city":"大田区","address":"東京都大田区西六郷3丁目16","lat":35.546286,"lon":139.705935},{"name":"西六郷二丁目児童公園","province":"東京都","city":"大田区","address":"東京都大田区西六郷2丁目30","lat":35.549841,"lon":139.706964},{"name":"千鳥いこい公園","province":"東京都","city":"大田区","address":"東京都大田区久が原6丁目26","lat":35.573529,"lon":139.694724},{"name":"千鳥いこい公園","province":"東京都","city":"大田区","address":"東京都大田区久が原6丁目26","lat":35.573043,"lon":139.694441},{"name":"千鳥三丁目児童公園","province":"東京都","city":"大田区","address":"東京都大田区千鳥3丁目22","lat":35.570218,"lon":139.690545},{"name":"洗足池公園","province":"東京都","city":"大田区","address":"東京都大田区南千束2丁目14","lat":35.602757,"lon":139.689607},{"name":"洗足池公園","province":"東京都","city":"大田区","address":"東京都大田区南千束2丁目1","lat":35.600362,"lon":139.69162},{"name":"洗足池公園","province":"東京都","city":"大田区","address":"東京都大田区南千束2丁目33","lat":35.602721,"lon":139.691614},{"name":"洗足池公園","province":"東京都","city":"大田区","address":"東京都大田区南千束2丁目15","lat":35.603822,"lon":139.689229},{"name":"多摩川台公園","province":"東京都","city":"大田区","address":"東京都大田区田園調布1丁目63","lat":35.590115,"lon":139.666869},{"name":"多摩川台公園","province":"東京都","city":"大田区","address":"東京都大田区田園調布4丁目4","lat":35.592987,"lon":139.663172},{"name":"多摩川台公園","province":"東京都","city":"大田区","address":"東京都大田区田園調布1丁目56","lat":35.588077,"lon":139.667904},{"name":"多摩川台公園","province":"東京都","city":"大田区","address":"東京都大田区田園調布1丁目63","lat":35.588722,"lon":139.667159},{"name":"多摩川台公園","province":"東京都","city":"大田区","address":"東京都大田区田園調布1丁目63","lat":35.58995,"lon":139.666648},{"name":"多摩川緑地","province":"東京都","city":"大田区","address":"東京都大田区西六郷4丁目","lat":35.540381,"lon":139.704774},{"name":"大森ふるさとの浜辺公園","province":"東京都","city":"大田区","address":"東京都大田区ふるさとの浜辺公園","lat":35.574152,"lon":139.741702},{"name":"大森ふるさとの浜辺公園","province":"東京都","city":"大田区","address":"東京都大田区ふるさとの浜辺公園","lat":35.57443,"lon":139.741902},{"name":"大森ふるさとの浜辺公園","province":"東京都","city":"大田区","address":"東京都大田区平和の森公園2","lat":35.577012,"lon":139.743396},{"name":"大森諏訪公園","province":"東京都","city":"大田区","address":"東京都大田区大森西3丁目3","lat":35.574832,"lon":139.730705},{"name":"大森西一丁目児童公園","province":"東京都","city":"大田区","address":"東京都大田区大森西1丁目12","lat":35.577085,"lon":139.722734},{"name":"大森西交通公園","province":"東京都","city":"大田区","address":"東京都大田区大森西3丁目4","lat":35.574405,"lon":139.73157},{"name":"大森西四丁目公園","province":"東京都","city":"大田区","address":"東京都大田区大森西4丁目10","lat":35.573083,"lon":139.72307},{"name":"大森西七丁目公園","province":"東京都","city":"大田区","address":"東京都大田区大森西7丁目9","lat":35.569925,"lon":139.719732},{"name":"大森西二丁目児童公園","province":"東京都","city":"大田区","address":"東京都大田区大森西2丁目20","lat":35.576125,"lon":139.727941},{"name":"大森仲町児童公園","province":"東京都","city":"大田区","address":"東京都大田区大森本町2丁目26","lat":35.578161,"lon":139.736733},{"name":"大森東一丁目第一公園","province":"東京都","city":"大田区","address":"東京都大田区大森東1丁目35","lat":35.576155,"lon":139.73994},{"name":"大森北公園","province":"東京都","city":"大田区","address":"東京都大田区大森北2丁目18","lat":35.587022,"lon":139.735517},{"name":"大田区立あさひ海老取川公園","province":"東京都","city":"大田区","address":"東京都大田区羽田旭町11","lat":35.553005,"lon":139.752584},{"name":"大田区立羽田西前公園","province":"東京都","city":"大田区","address":"東京都大田区羽田2丁目6","lat":35.547603,"lon":139.743769},{"name":"大田区立基船堀公園","province":"東京都","city":"大田区","address":"東京都大田区大森東3丁目16","lat":35.570358,"lon":139.740266},{"name":"大田区立旧呑川緑地","province":"東京都","city":"大田区","address":"東京都大田区大森南3丁目6","lat":35.567887,"lon":139.743788},{"name":"森ヶ崎海岸公園","province":"東京都","city":"大田区","address":"東京都大田区大森南4丁目11","lat":35.567039,"lon":139.748995},{"name":"大田区立森ケ崎交通公園","province":"東京都","city":"大田区","address":"東京都大田区大森南4丁目9","lat":35.566948,"lon":139.746064},{"name":"大田区立大四前くすのき公園","province":"東京都","city":"大田区","address":"東京都大田区大森南3丁目24","lat":35.564486,"lon":139.742723},{"name":"大田区立大森南一丁目公園","province":"東京都","city":"大田区","address":"東京都大田区大森南1丁目24","lat":35.561307,"lon":139.738167},{"name":"大森南第一公園","province":"東京都","city":"大田区","address":"東京都大田区大森南1丁目12","lat":35.563773,"lon":139.73976},{"name":"萩中一丁目公園","province":"東京都","city":"大田区","address":"東京都大田区萩中1丁目3","lat":35.552156,"lon":139.725799},{"name":"萩中公園","province":"東京都","city":"大田区","address":"東京都大田区萩中3丁目25","lat":35.549403,"lon":139.738978},{"name":"萩中公園","province":"東京都","city":"大田区","address":"東京都大田区萩中3丁目26","lat":35.551073,"lon":139.736123},{"name":"萩中三丁目児童公園","province":"東京都","city":"大田区","address":"東京都大田区萩中3丁目30","lat":35.549616,"lon":139.733599},{"name":"大田区立萩中児童遊園","province":"東京都","city":"大田区","address":"東京都大田区萩中1丁目5","lat":35.55199,"lon":139.72788},{"name":"大田区立舞の浦児童公園","province":"東京都","city":"大田区","address":"東京都大田区大森南2丁目14","lat":35.56216,"lon":139.741224},{"name":"大田区立北糀谷中央公園","province":"東京都","city":"大田区","address":"東京都大田区北糀谷1丁目15","lat":35.562566,"lon":139.735023},{"name":"池上五丁目公園","province":"東京都","city":"大田区","address":"東京都大田区池上5丁目15","lat":35.571102,"lon":139.70614},{"name":"池上梅園","province":"東京都","city":"大田区","address":"東京都大田区池上2丁目2","lat":35.581076,"lon":139.702635},{"name":"池上梅園","province":"東京都","city":"大田区","address":"東京都大田区池上2丁目2","lat":35.581633,"lon":139.702702},{"name":"仲蒲田公園","province":"東京都","city":"大田区","address":"東京都大田区蒲田4丁目35","lat":35.559527,"lon":139.720827},{"name":"仲六郷三丁目第二公園","province":"東京都","city":"大田区","address":"東京都大田区仲六郷3丁目19","lat":35.547102,"lon":139.710271},{"name":"鶴渡公園","province":"東京都","city":"大田区","address":"東京都大田区大森西6丁目12","lat":35.56897,"lon":139.724805},{"name":"田園調布せせらぎ館","province":"東京都","city":"大田区","address":"東京都大田区田園調布1丁目53","lat":35.589695,"lon":139.6692},{"name":"田園調布せせらぎ公園","province":"東京都","city":"大田区","address":"東京都大田区田園調布1丁目53","lat":35.590002,"lon":139.669778},{"name":"田園調布せせらぎ公園","province":"東京都","city":"大田区","address":"東京都大田区田園調布1丁目53","lat":35.590351,"lon":139.669005},{"name":"都堀公園","province":"東京都","city":"大田区","address":"東京都大田区大森東1丁目30","lat":35.577182,"lon":139.738522},{"name":"東蒲田公園","province":"東京都","city":"大田区","address":"東京都大田区東蒲田1丁目11","lat":35.564465,"lon":139.728349},{"name":"東蒲田二丁目公園","province":"東京都","city":"大田区","address":"東京都大田区東蒲田2丁目32","lat":35.561126,"lon":139.726169},{"name":"東中公園","province":"東京都","city":"大田区","address":"東京都大田区東雪谷4丁目3","lat":35.594818,"lon":139.691655},{"name":"東調布公園","province":"東京都","city":"大田区","address":"東京都大田区南雪谷5丁目12","lat":35.589556,"lon":139.689123},{"name":"東糀谷一丁目公園だれでもトイレ","province":"東京都","city":"大田区","address":"東京都大田区東糀谷1丁目4","lat":35.560265,"lon":139.740479},{"name":"東糀谷防災公園だれでもトイレ","province":"東京都","city":"大田区","address":"東京都大田区東糀谷4丁目5-1","lat":35.55666,"lon":139.745196},{"name":"東糀谷防災公園だれでもトイレ","province":"東京都","city":"大田区","address":"東京都大田区東糀谷4丁目5","lat":35.55596,"lon":139.745081},{"name":"東糀谷防災公園だれでもトイレ","province":"東京都","city":"大田区","address":"東京都大田区東糀谷4丁目5","lat":35.557061,"lon":139.745991},{"name":"徳持公園","province":"東京都","city":"大田区","address":"東京都大田区池上8丁目20","lat":35.568056,"lon":139.696871},{"name":"南蒲公園","province":"東京都","city":"大田区","address":"東京都大田区西糀谷1丁目12","lat":35.55841,"lon":139.727843},{"name":"南蒲田二丁目児童公園","province":"東京都","city":"大田区","address":"東京都大田区南蒲田2丁目26","lat":35.554694,"lon":139.722136},{"name":"南三堤公園","province":"東京都","city":"大田区","address":"東京都大田区南六郷3丁目23","lat":35.54189,"lon":139.715694},{"name":"南前堀緑地だれでもトイレ","province":"東京都","city":"大田区","address":"東京都大田区東糀谷4丁目10","lat":35.553931,"lon":139.743487},{"name":"南前堀緑地だれでもトイレ","province":"東京都","city":"大田区","address":"東京都大田区東糀谷3丁目16","lat":35.554051,"lon":139.745776},{"name":"南六郷公園","province":"東京都","city":"大田区","address":"東京都大田区南六郷2丁目35","lat":35.545034,"lon":139.721973},{"name":"入新井公園","province":"東京都","city":"大田区","address":"東京都大田区大森北1丁目20","lat":35.586346,"lon":139.730661},{"name":"入新井西公園","province":"東京都","city":"大田区","address":"東京都大田区大森北4丁目27","lat":35.585189,"lon":139.725993},{"name":"馬込西公園","province":"東京都","city":"大田区","address":"東京都大田区西馬込2丁目8","lat":35.58863,"lon":139.703233},{"name":"美原児童公園","province":"東京都","city":"大田区","address":"東京都大田区大森東1丁目13","lat":35.576184,"lon":139.737712},{"name":"平和の森公園","province":"東京都","city":"大田区","address":"東京都大田区平和の森公園2","lat":35.582743,"lon":139.739462},{"name":"平和の森公園","province":"東京都","city":"大田区","address":"東京都大田区平和の森公園2-4","lat":35.581535,"lon":139.738641},{"name":"平和の森公園","province":"東京都","city":"大田区","address":"東京都大田区平和の森公園2","lat":35.581277,"lon":139.73957},{"name":"平和の森公園","province":"東京都","city":"大田区","address":"東京都大田区平和の森公園2","lat":35.580002,"lon":139.74062},{"name":"平和の森公園","province":"東京都","city":"大田区","address":"東京都大田区平和の森公園2","lat":35.578649,"lon":139.740512},{"name":"平和の森公園","province":"東京都","city":"大田区","address":"東京都大田区平和の森公園2","lat":35.577578,"lon":139.742302},{"name":"平和島公園","province":"東京都","city":"大田区","address":"東京都大田区平和島4丁目2","lat":35.582486,"lon":139.743133},{"name":"宝来公園","province":"東京都","city":"大田区","address":"東京都大田区田園調布3丁目31","lat":35.593915,"lon":139.664152},{"name":"邦西児童公園","province":"東京都","city":"大田区","address":"東京都大田区大森西4丁目18","lat":35.571962,"lon":139.721946},{"name":"北前堀緑地だれでもトイレ","province":"東京都","city":"大田区","address":"東京都大田区東糀谷5丁目14","lat":35.559084,"lon":139.742691},{"name":"北馬込わくわく公園","province":"東京都","city":"大田区","address":"東京都大田区北馬込1丁目7","lat":35.600804,"lon":139.703246},{"name":"本蒲田公園","province":"東京都","city":"大田区","address":"東京都大田区蒲田5丁目35","lat":35.559608,"lon":139.717772},{"name":"本門寺公園","province":"東京都","city":"大田区","address":"東京都大田区池上1丁目11","lat":35.57973,"lon":139.708063},{"name":"本門寺公園","province":"東京都","city":"大田区","address":"東京都大田区池上1丁目11","lat":35.579209,"lon":139.707689},{"name":"矢口二丁目公園","province":"東京都","city":"大田区","address":"東京都大田区矢口2丁目21","lat":35.561154,"lon":139.689781},{"name":"佐伯山緑地","province":"東京都","city":"大田区","address":"東京都大田区中央5丁目30","lat":35.581606,"lon":139.714371},{"name":"水神公園","province":"東京都","city":"大田区","address":"東京都大田区南雪谷5丁目10","lat":35.588208,"lon":139.686864},{"name":"みなさん児童公園","province":"東京都","city":"大田区","address":"東京都大田区南六郷3丁目10","lat":35.543615,"lon":139.714239},{"name":"高畑第三児童公園","province":"東京都","city":"大田区","address":"東京都大田区西六郷3丁目30","lat":35.545403,"lon":139.705072},{"name":"ソラムナード羽田緑地","province":"東京都","city":"大田区","address":"東京都大田区羽田空港2丁目8","lat":35.545591,"lon":139.758936},{"name":"ソラムナード羽田緑地","province":"東京都","city":"大田区","address":"東京都大田区羽田空港2丁目","lat":35.541139,"lon":139.769699},{"name":"潮見児童公園","province":"東京都","city":"大田区","address":"東京都大田区大森南4丁目4","lat":35.568702,"lon":139.746819},{"name":"森ケ崎公園","province":"東京都","city":"大田区","address":"東京都大田区大森南5丁目2-111","lat":35.562993,"lon":139.750004},{"name":"仲六郷二丁目公園","province":"東京都","city":"大田区","address":"東京都大田区仲六郷2丁目4","lat":35.5525,"lon":139.712969},{"name":"はばたき児童公園","province":"東京都","city":"大田区","address":"東京都大田区本羽田2丁目9","lat":35.547457,"lon":139.731862},{"name":"大鳥居児童公園","province":"東京都","city":"大田区","address":"東京都大田区羽田1丁目17","lat":35.549553,"lon":139.741524},{"name":"あじさい児童公園","province":"東京都","city":"大田区","address":"東京都大田区西糀谷4丁目24","lat":35.553647,"lon":139.732381},{"name":"森ケ崎緑華園","province":"東京都","city":"大田区","address":"東京都大田区大森南4丁目3","lat":35.567935,"lon":139.745569},{"name":"六間堀仲羽公園","province":"東京都","city":"大田区","address":"東京都大田区羽田4丁目18","lat":35.549013,"lon":139.74484},{"name":"蒲田本町一丁目公園","province":"東京都","city":"大田区","address":"東京都大田区蒲田本町1丁目1","lat":35.558286,"lon":139.715815},{"name":"東糀谷第一公園","province":"東京都","city":"大田区","address":"東京都大田区東糀谷6丁目8","lat":35.556008,"lon":139.747962},{"name":"松原橋公衆便所","province":"東京都","city":"大田区","address":"東京都大田区東馬込1丁目30","lat":35.595561,"lon":139.712017},{"name":"トイレさくら亭","province":"東京都","city":"大田区","address":"東京都大田区下丸子4丁目27","lat":35.573477,"lon":139.67596},{"name":"蒲田駅西口公衆便所","province":"東京都","city":"大田区","address":"東京都大田区西蒲田8丁目1","lat":35.561059,"lon":139.715133},{"name":"蒲田交差公衆便所","province":"東京都","city":"大田区","address":"東京都大田区蒲田5丁目12","lat":35.563805,"lon":139.716912},{"name":"蒲田交差公衆便所","province":"東京都","city":"大田区","address":"東京都大田区蒲田5丁目12","lat":35.563772,"lon":139.716902},{"name":"蒲田西口駅前公衆便所せせらぎ","province":"東京都","city":"大田区","address":"東京都大田区蒲田5丁目13","lat":35.562838,"lon":139.715966},{"name":"京急蒲田駅東口トイレ","province":"東京都","city":"大田区","address":"東京都大田区南蒲田1丁目20-32","lat":35.55986,"lon":139.72398},{"name":"大森駅前広場公衆便所","province":"東京都","city":"大田区","address":"東京都大田区大森北1丁目1","lat":35.588079,"lon":139.729315},{"name":"多摩川駅前公衆便所","province":"東京都","city":"大田区","address":"東京都大田区田園調布1丁目55","lat":35.588268,"lon":139.668802},{"name":"多摩川野球場前公衆便所","province":"東京都","city":"大田区","address":"東京都大田区田園調布4丁目44","lat":35.591889,"lon":139.661277},{"name":"大岡山駅前公衆便所","province":"東京都","city":"大田区","address":"東京都大田区北千束1丁目","lat":35.607587,"lon":139.685247},{"name":"大森駅山王口公衆便所","province":"東京都","city":"大田区","address":"東京都大田区山王2丁目2-9","lat":35.588246,"lon":139.72744},{"name":"平和島入口公衆便所","province":"東京都","city":"大田区","address":"東京都大田区大森本町1丁目9","lat":35.582874,"lon":139.737046},{"name":"大森東三丁目児童公園","province":"東京都","city":"大田区","address":"東京都大田区大森東3丁目5","lat":35.570275,"lon":139.73599},{"name":"田園調布駅前公衆便所","province":"東京都","city":"大田区","address":"東京都大田区田園調布2丁目62","lat":35.597321,"lon":139.667173},{"name":"子ども家庭支援センター洗足池分室","province":"東京都","city":"大田区","address":"東京都大田区上池台2丁目35-18","lat":35.597933,"lon":139.691726},{"name":"21世紀おもいで桜トイレ","province":"東京都","city":"大田区","address":"東京都大田区下丸子3丁目","lat":35.56496,"lon":139.681027},{"name":"池上駅公衆便所","province":"東京都","city":"大田区","address":"東京都大田区池上6丁目3-10","lat":35.572176,"lon":139.703333},{"name":"大田区羽田地域力推進センター","province":"東京都","city":"大田区","address":"東京都大田区羽田1丁目18-13","lat":35.549257,"lon":139.742423},{"name":"平和島公園水泳場","province":"東京都","city":"大田区","address":"東京都大田区平和島4丁目2-2","lat":35.581566,"lon":139.741805},{"name":"平和島公園水泳場","province":"東京都","city":"大田区","address":"東京都大田区平和島4丁目2-2","lat":35.581786,"lon":139.74206},{"name":"東調布公園水泳場","province":"東京都","city":"大田区","address":"東京都大田区南雪谷5丁目13-1","lat":35.588194,"lon":139.688964},{"name":"萩中公園水泳場","province":"東京都","city":"大田区","address":"東京都大田区萩中3丁目26","lat":35.549466,"lon":139.736321},{"name":"萩中公園水泳場","province":"東京都","city":"大田区","address":"東京都大田区萩中3丁目26","lat":35.549856,"lon":139.737334},{"name":"萩中公園水泳場","province":"東京都","city":"大田区","address":"東京都大田区萩中3丁目26-46","lat":35.550052,"lon":139.736452},{"name":"大森スポーツセンター","province":"東京都","city":"大田区","address":"東京都大田区大森本町2丁目2-5","lat":35.580906,"lon":139.737375},{"name":"大森スポーツセンター","province":"東京都","city":"大田区","address":"東京都大田区大森本町2丁目2-5","lat":35.580894,"lon":139.73737},{"name":"大田区総合体育館","province":"東京都","city":"大田区","address":"東京都大田区東蒲田1丁目11-1","lat":35.564081,"lon":139.728119},{"name":"大田区総合体育館","province":"東京都","city":"大田区","address":"東京都大田区東蒲田1丁目11-1","lat":35.564157,"lon":139.727514},{"name":"大田区総合体育館","province":"東京都","city":"大田区","address":"東京都大田区東蒲田1丁目11-1","lat":35.564696,"lon":139.727817},{"name":"大田区総合体育館","province":"東京都","city":"大田区","address":"東京都大田区東蒲田1丁目11-1","lat":35.564597,"lon":139.728134},{"name":"大田区総合体育館","province":"東京都","city":"大田区","address":"東京都大田区東蒲田1丁目11-1","lat":35.564611,"lon":139.728079},{"name":"大田区総合体育館","province":"東京都","city":"大田区","address":"東京都大田区東蒲田1丁目11-1","lat":35.564478,"lon":139.727598},{"name":"子ども家庭支援センター大森","province":"東京都","city":"大田区","address":"東京都大田区大森北4丁目16-5","lat":35.583336,"lon":139.727123},{"name":"子ども家庭支援センター洗足池分室","province":"東京都","city":"大田区","address":"東京都大田区上池台2丁目35-18","lat":35.597971,"lon":139.691736},{"name":"おおた国際交流センター","province":"東京都","city":"大田区","address":"東京都大田区蒲田4丁目16-8","lat":35.561342,"lon":139.722409},{"name":"大田スタジアム","province":"東京都","city":"大田区","address":"東京都大田区東海1丁目2-10","lat":35.588203,"lon":139.752758},{"name":"大田スタジアム","province":"東京都","city":"大田区","address":"東京都大田区東海1丁目2","lat":35.587935,"lon":139.752866},{"name":"大田スタジアム","province":"東京都","city":"大田区","address":"東京都大田区東海1丁目2","lat":35.588562,"lon":139.753425},{"name":"新蒲田一丁目複合施設","province":"東京都","city":"大田区","address":"東京都大田区新蒲田1丁目18-16","lat":35.557401,"lon":139.711292},{"name":"こども食堂ﾋﾛ","province":"東京都","city":"大田区","address":"東京都大田区南千束2丁目18-13","lat":35.60462481,"lon":139.68794244},{"name":"大岡山こども食堂","province":"東京都","city":"大田区","address":"東京都大田区北千束3丁目20-8","lat":35.60482752,"lon":139.68613703},{"name":"嶺町こども食堂みんなでごはん","province":"東京都","city":"大田区","address":"東京都大田区田園調布本町7-1","lat":35.58786589,"lon":139.67735279},{"name":"田園調布子ども食堂ともこｷｯﾁﾝ","province":"東京都","city":"大田区","address":"東京都大田区田園調布4丁目","lat":35.59272877,"lon":139.66135396},{"name":"ｶﾌｪｷｬﾋﾞﾝ","province":"東京都","city":"大田区","address":"東京都大田区南雪谷5丁目3-12","lat":35.58974056,"lon":139.68787927},{"name":"たんぽぽ食堂","province":"東京都","city":"大田区","address":"東京都大田区南雪谷5丁目3-12","lat":35.58974056,"lon":139.68787927},{"name":"子ども食堂ｳﾒｷｯﾁﾝ","province":"東京都","city":"大田区","address":"東京都大田区田園調布本町29-8","lat":35.58260295,"lon":139.67374809},{"name":"子ども食堂ﾌﾗﾝｼｽｺの広場","province":"東京都","city":"大田区","address":"東京都大田区仲池上1丁目21-11","lat":35.58569934,"lon":139.69815052},{"name":"こあら村のこども食堂","province":"東京都","city":"大田区","address":"東京都大田区久が原6丁目26-4","lat":35.57313754,"lon":139.69462416},{"name":"馬込子まもり食堂","province":"東京都","city":"大田区","address":"東京都大田区北馬込2丁目5-5","lat":35.59902577,"lon":139.7095962},{"name":"れんげの会こども食堂Withおとな","province":"東京都","city":"大田区","address":"東京都大田区西馬込2丁目20-1","lat":35.58649105,"lon":139.70527762},{"name":"絆倶楽部","province":"東京都","city":"大田区","address":"東京都大田区西馬込2丁目20-1","lat":35.58649105,"lon":139.70527762},{"name":"絆カフェ","province":"東京都","city":"大田区","address":"東京都大田区西馬込2丁目20-1","lat":35.58649105,"lon":139.70527762},{"name":"絆御飯","province":"東京都","city":"大田区","address":"東京都大田区西馬込2丁目20-1","lat":35.58649105,"lon":139.70527762},{"name":"てくてく食堂","province":"東京都","city":"大田区","address":"東京都大田区西馬込2丁目20-1","lat":35.58649105,"lon":139.70527762},{"name":"南馬込ｱｸﾞﾈｽこども食堂","province":"東京都","city":"大田区","address":"東京都大田区南馬込1丁目58-8","lat":35.58911316,"lon":139.71283519},{"name":"Steak＆Hamburg SOH","province":"東京都","city":"大田区","address":"東京都大田区山王2丁目36-9","lat":35.59170755,"lon":139.72220932},{"name":"おばんざい　地獄に佛","province":"東京都","city":"大田区","address":"東京都大田区山王2丁目2-15","lat":35.58900533,"lon":139.72802012},{"name":"ほっとねっとｷｯﾁﾝ","province":"東京都","city":"大田区","address":"東京都大田区中央2丁目10-1","lat":35.57955621,"lon":139.7202711},{"name":"みんなでべジ食","province":"東京都","city":"大田区","address":"東京都大田区池上3丁目32-17","lat":35.57372347,"lon":139.70167607},{"name":"子ども食堂ｵﾑﾗｲｽ食堂","province":"東京都","city":"大田区","address":"東京都大田区大森北1丁目29-6","lat":35.5855669,"lon":139.72875077},{"name":"こども＆ｼﾆｱ　もりもり食堂","province":"東京都","city":"大田区","address":"東京都大田区大森西2丁目2-1","lat":35.57887326,"lon":139.72839833},{"name":"こども食堂おやこｷｯﾁﾝ","province":"東京都","city":"大田区","address":"東京都大田区大森西2丁目2-1","lat":35.57887326,"lon":139.72839833},{"name":"感動こども食堂","province":"東京都","city":"大田区","address":"東京都大田区西蒲田7丁目5-12","lat":35.56378033,"lon":139.71516683},{"name":"だんだんﾜﾝｺｲﾝこども食堂","province":"東京都","city":"大田区","address":"東京都大田区東矢口1丁目17-9","lat":35.564572,"lon":139.70724548},{"name":"いちご食堂","province":"東京都","city":"大田区","address":"東京都大田区下丸子3丁目8-15","lat":35.57050488,"lon":139.68530334},{"name":"VICｽﾏｲﾙｷｯﾁﾝ","province":"東京都","city":"大田区","address":"東京都大田区矢口2丁目1-18","lat":35.56410568,"lon":139.69612749},{"name":"万人こども食堂","province":"東京都","city":"大田区","address":"東京都大田区新蒲田3丁目4-28","lat":35.55842023,"lon":139.70546838},{"name":"子ども食堂やんやん","province":"東京都","city":"大田区","address":"東京都大田区新蒲田2丁目1-13","lat":35.55895617,"lon":139.70872347},{"name":"ﾕﾆﾊﾞｰｻﾙこども食堂","province":"東京都","city":"大田区","address":"東京都大田区南六郷1丁目34-4","lat":35.54579173,"lon":139.72602558},{"name":"おおたﾗｰﾒﾝこども食堂（本羽田）","province":"東京都","city":"大田区","address":"東京都大田区本羽田1丁目12-9","lat":35.5488134,"lon":139.72456155},{"name":"大森東しあわせ食堂","province":"東京都","city":"大田区","address":"東京都大田区大森東4丁目6-15","lat":35.56848065,"lon":139.7383372},{"name":"ひこうき食堂","province":"東京都","city":"大田区","address":"東京都大田区新蒲田1丁目18-16","lat":35.55736749,"lon":139.71124551},{"name":"ﾄｰｷｮｰｺｰﾋｰ大田区　かぞく食堂","province":"東京都","city":"大田区","address":"東京都大田区大森東1丁目28-9","lat":35.57715448,"lon":139.73810337},{"name":"SOMPO流子ども食堂（そんぽの家　大鳥居）","province":"東京都","city":"大田区","address":"東京都大田区西糀谷3丁目32-2","lat":35.55304671,"lon":139.7372494},{"name":"SOMPO流子ども食堂（そんぽの家　東六郷）","province":"東京都","city":"大田区","address":"東京都大田区東六郷1丁目19-1","lat":35.55189611,"lon":139.7194534},{"name":"SOMPO流子ども食堂（そんぽの家S　西糀谷）","province":"東京都","city":"大田区","address":"東京都大田区西糀谷3丁目32-15","lat":35.552919,"lon":139.73772161},{"name":"SOMPO流子ども食堂（そんぽの家S　羽田）","province":"東京都","city":"大田区","address":"東京都大田区羽田2丁目2-11","lat":35.54853938,"lon":139.74190784},{"name":"SOMPO流子ども食堂（ﾗｳﾞｨｰﾚ羽田）","province":"東京都","city":"大田区","address":"東京都大田区東糀谷5丁目19-18","lat":35.55831036,"lon":139.74512924},{"name":"SOMPO流子ども食堂（ﾗｳﾞｨｰﾚ多摩川）","province":"東京都","city":"大田区","address":"東京都大田区多摩川2丁目13-22","lat":35.55821767,"lon":139.69939418},{"name":"みんなの食堂","province":"東京都","city":"大田区","address":"東京都大田区上池台1丁目13-4","lat":35.60263907,"lon":139.69726665},{"name":"羽田のこのこ食堂","province":"東京都","city":"大田区","address":"東京都大田区萩中2丁目11-5","lat":35.55107724,"lon":139.73176371},{"name":"ﾄﾘﾔｷ大学こども食堂","province":"東京都","city":"大田区","address":"東京都大田区蒲田5丁目19-15","lat":35.5622027,"lon":139.71791103},{"name":"子ども食堂ママちゃんち","province":"東京都","city":"大田区","address":"東京都大田区中央3丁目","lat":35.5766982,"lon":139.71946298},{"name":"えんむすび","province":"東京都","city":"大田区","address":"東京都大田区南六郷1丁目34-4","lat":35.54579173,"lon":139.72602558},{"name":"ﾌｰﾄﾞﾊﾞﾝｸ大田芋やぽんぽこ子ども食堂","province":"東京都","city":"大田区","address":"東京都大田区中央4丁目32-8","lat":35.57933676,"lon":139.71881846},{"name":"城南大橋第二","province":"東京都","city":"大田区","address":"東京都大田区東海3丁目4","lat":35.57770285,"lon":139.76242682},{"name":"京浜トラックターミナル","province":"東京都","city":"大田区","address":"東京都大田区平和島2丁目1-1","lat":35.58746451,"lon":139.74376358},{"name":"こども食堂ﾋﾛ","province":"東京都","city":"大田区","address":"東京都大田区南千束2丁目18-13","lat":35.60462481,"lon":139.68794244},{"name":"大岡山こども食堂","province":"東京都","city":"大田区","address":"東京都大田区北千束3丁目20-8","lat":35.60482752,"lon":139.68613703},{"name":"嶺町こども食堂みんなでごはん","province":"東京都","city":"大田区","address":"東京都大田区田園調布本町7-1","lat":35.58786589,"lon":139.67735279},{"name":"田園調布子ども食堂ともこｷｯﾁﾝ","province":"東京都","city":"大田区","address":"東京都大田区田園調布4丁目","lat":35.59272877,"lon":139.66135396},{"name":"ｶﾌｪｷｬﾋﾞﾝ","province":"東京都","city":"大田区","address":"東京都大田区南雪谷5丁目3-12","lat":35.58974056,"lon":139.68787927},{"name":"たんぽぽ食堂","province":"東京都","city":"大田区","address":"東京都大田区南雪谷5丁目3-12","lat":35.58974056,"lon":139.68787927},{"name":"子ども食堂ｳﾒｷｯﾁﾝ","province":"東京都","city":"大田区","address":"東京都大田区田園調布本町29-8","lat":35.58260295,"lon":139.67374809},{"name":"子ども食堂ﾌﾗﾝｼｽｺの広場","province":"東京都","city":"大田区","address":"東京都大田区仲池上1丁目21-11","lat":35.58569934,"lon":139.69815052},{"name":"こあら村のこども食堂","province":"東京都","city":"大田区","address":"東京都大田区久が原6丁目26-4","lat":35.57313754,"lon":139.69462416},{"name":"馬込子まもり食堂","province":"東京都","city":"大田区","address":"東京都大田区北馬込2丁目5-5","lat":35.59902577,"lon":139.7095962},{"name":"れんげの会こども食堂Withおとな","province":"東京都","city":"大田区","address":"東京都大田区西馬込2丁目20-1","lat":35.58649105,"lon":139.70527762},{"name":"絆倶楽部","province":"東京都","city":"大田区","address":"東京都大田区西馬込2丁目20-1","lat":35.58649105,"lon":139.70527762},{"name":"絆カフェ","province":"東京都","city":"大田区","address":"東京都大田区西馬込2丁目20-1","lat":35.58649105,"lon":139.70527762},{"name":"絆御飯","province":"東京都","city":"大田区","address":"東京都大田区西馬込2丁目20-1","lat":35.58649105,"lon":139.70527762},{"name":"てくてく食堂","province":"東京都","city":"大田区","address":"東京都大田区西馬込2丁目20-1","lat":35.58649105,"lon":139.70527762},{"name":"南馬込ｱｸﾞﾈｽこども食堂","province":"東京都","city":"大田区","address":"東京都大田区南馬込1丁目58-8","lat":35.58911316,"lon":139.71283519},{"name":"Steak＆Hamburg SOH","province":"東京都","city":"大田区","address":"東京都大田区山王2丁目36-9","lat":35.59170755,"lon":139.72220932},{"name":"おばんざい　地獄に佛","province":"東京都","city":"大田区","address":"東京都大田区山王2丁目2-15","lat":35.58900533,"lon":139.72802012},{"name":"ほっとねっとｷｯﾁﾝ","province":"東京都","city":"大田区","address":"東京都大田区中央2丁目10-1","lat":35.57955621,"lon":139.7202711},{"name":"みんなでべジ食","province":"東京都","city":"大田区","address":"東京都大田区池上3丁目32-17","lat":35.57372347,"lon":139.70167607},{"name":"子ども食堂ｵﾑﾗｲｽ食堂","province":"東京都","city":"大田区","address":"東京都大田区大森北1丁目29-6","lat":35.5855669,"lon":139.72875077},{"name":"こども＆ｼﾆｱ　もりもり食堂","province":"東京都","city":"大田区","address":"東京都大田区大森西2丁目2-1","lat":35.57887326,"lon":139.72839833},{"name":"こども食堂おやこｷｯﾁﾝ","province":"東京都","city":"大田区","address":"東京都大田区大森西2丁目2-1","lat":35.57887326,"lon":139.72839833},{"name":"感動こども食堂","province":"東京都","city":"大田区","address":"東京都大田区西蒲田7丁目5-12","lat":35.56378033,"lon":139.71516683},{"name":"だんだんﾜﾝｺｲﾝこども食堂","province":"東京都","city":"大田区","address":"東京都大田区東矢口1丁目17-9","lat":35.564572,"lon":139.70724548},{"name":"いちご食堂","province":"東京都","city":"大田区","address":"東京都大田区下丸子3丁目8-15","lat":35.57050488,"lon":139.68530334},{"name":"VICｽﾏｲﾙｷｯﾁﾝ","province":"東京都","city":"大田区","address":"東京都大田区矢口2丁目1-18","lat":35.56410568,"lon":139.69612749},{"name":"万人こども食堂","province":"東京都","city":"大田区","address":"東京都大田区新蒲田3丁目4-28","lat":35.55842023,"lon":139.70546838},{"name":"子ども食堂やんやん","province":"東京都","city":"大田区","address":"東京都大田区新蒲田2丁目1-13","lat":35.55895617,"lon":139.70872347},{"name":"ﾕﾆﾊﾞｰｻﾙこども食堂","province":"東京都","city":"大田区","address":"東京都大田区南六郷1丁目34-4","lat":35.54579173,"lon":139.72602558},{"name":"おおたﾗｰﾒﾝこども食堂（本羽田）","province":"東京都","city":"大田区","address":"東京都大田区本羽田1丁目12-9","lat":35.5488134,"lon":139.72456155},{"name":"大森東しあわせ食堂","province":"東京都","city":"大田区","address":"東京都大田区大森東4丁目6-15","lat":35.56848065,"lon":139.7383372},{"name":"ひこうき食堂","province":"東京都","city":"大田区","address":"東京都大田区新蒲田1丁目18-16","lat":35.55736749,"lon":139.71124551},{"name":"ﾄｰｷｮｰｺｰﾋｰ大田区　かぞく食堂","province":"東京都","city":"大田区","address":"東京都大田区大森東1丁目28-9","lat":35.57715448,"lon":139.73810337},{"name":"SOMPO流子ども食堂（そんぽの家　大鳥居）","province":"東京都","city":"大田区","address":"東京都大田区西糀谷3丁目32-2","lat":35.55304671,"lon":139.7372494},{"name":"SOMPO流子ども食堂（そんぽの家　東六郷）","province":"東京都","city":"大田区","address":"東京都大田区東六郷1丁目19-1","lat":35.55189611,"lon":139.7194534},{"name":"SOMPO流子ども食堂（そんぽの家S　西糀谷）","province":"東京都","city":"大田区","address":"東京都大田区西糀谷3丁目32-15","lat":35.552919,"lon":139.73772161},{"name":"SOMPO流子ども食堂（そんぽの家S　羽田）","province":"東京都","city":"大田区","address":"東京都大田区羽田2丁目2-11","lat":35.54853938,"lon":139.74190784},{"name":"SOMPO流子ども食堂（ﾗｳﾞｨｰﾚ羽田）","province":"東京都","city":"大田区","address":"東京都大田区東糀谷5丁目19-18","lat":35.55831036,"lon":139.74512924},{"name":"SOMPO流子ども食堂（ﾗｳﾞｨｰﾚ多摩川）","province":"東京都","city":"大田区","address":"東京都大田区多摩川2丁目13-22","lat":35.55821767,"lon":139.69939418},{"name":"みんなの食堂","province":"東京都","city":"大田区","address":"東京都大田区上池台1丁目13-4","lat":35.60263907,"lon":139.69726665},{"name":"羽田のこのこ食堂","province":"東京都","city":"大田区","address":"東京都大田区萩中2丁目11-5","lat":35.55107724,"lon":139.73176371},{"name":"ﾄﾘﾔｷ大学こども食堂","province":"東京都","city":"大田区","address":"東京都大田区蒲田5丁目19-15","lat":35.5622027,"lon":139.71791103},{"name":"子ども食堂ママちゃんち","province":"東京都","city":"大田区","address":"東京都大田区中央3丁目","lat":35.5766982,"lon":139.71946298},{"name":"えんむすび","province":"東京都","city":"大田区","address":"東京都大田区南六郷1丁目34-4","lat":35.54579173,"lon":139.72602558},{"name":"ﾌｰﾄﾞﾊﾞﾝｸ大田芋やぽんぽこ子ども食堂","province":"東京都","city":"大田区","address":"東京都大田区中央4丁目32-8","lat":35.57933676,"lon":139.71881846},{"name":"城南大橋第二","province":"東京都","city":"大田区","address":"東京都大田区東海3丁目4","lat":35.57770285,"lon":139.76242682},{"name":"京浜トラックターミナル","province":"東京都","city":"大田区","address":"東京都大田区平和島2丁目1-1","lat":35.58746451,"lon":139.74376358},{"name":"こども食堂ﾋﾛ","province":"東京都","city":"大田区","address":"東京都大田区南千束2丁目18-13","lat":35.60462481,"lon":139.68794244},{"name":"大岡山こども食堂","province":"東京都","city":"大田区","address":"東京都大田区北千束3丁目20-8","lat":35.60482752,"lon":139.68613703},{"name":"嶺町こども食堂みんなでごはん","province":"東京都","city":"大田区","address":"東京都大田区田園調布本町7-1","lat":35.58786589,"lon":139.67735279},{"name":"田園調布子ども食堂ともこｷｯﾁﾝ","province":"東京都","city":"大田区","address":"東京都大田区田園調布4丁目","lat":35.59272877,"lon":139.66135396},{"name":"ｶﾌｪｷｬﾋﾞﾝ","province":"東京都","city":"大田区","address":"東京都大田区南雪谷5丁目3-12","lat":35.58974056,"lon":139.68787927},{"name":"たんぽぽ食堂","province":"東京都","city":"大田区","address":"東京都大田区南雪谷5丁目3-12","lat":35.58974056,"lon":139.68787927},{"name":"子ども食堂ｳﾒｷｯﾁﾝ","province":"東京都","city":"大田区","address":"東京都大田区田園調布本町29-8","lat":35.58260295,"lon":139.67374809},{"name":"子ども食堂ﾌﾗﾝｼｽｺの広場","province":"東京都","city":"大田区","address":"東京都大田区仲池上1丁目21-11","lat":35.58569934,"lon":139.69815052},{"name":"こあら村のこども食堂","province":"東京都","city":"大田区","address":"東京都大田区久が原6丁目26-4","lat":35.57313754,"lon":139.69462416},{"name":"馬込子まもり食堂","province":"東京都","city":"大田区","address":"東京都大田区北馬込2丁目5-5","lat":35.59902577,"lon":139.7095962},{"name":"れんげの会こども食堂Withおとな","province":"東京都","city":"大田区","address":"東京都大田区西馬込2丁目20-1","lat":35.58649105,"lon":139.70527762},{"name":"絆倶楽部","province":"東京都","city":"大田区","address":"東京都大田区西馬込2丁目20-1","lat":35.58649105,"lon":139.70527762},{"name":"絆カフェ","province":"東京都","city":"大田区","address":"東京都大田区西馬込2丁目20-1","lat":35.58649105,"lon":139.70527762},{"name":"絆御飯","province":"東京都","city":"大田区","address":"東京都大田区西馬込2丁目20-1","lat":35.58649105,"lon":139.70527762},{"name":"てくてく食堂","province":"東京都","city":"大田区","address":"東京都大田区西馬込2丁目20-1","lat":35.58649105,"lon":139.70527762},{"name":"南馬込ｱｸﾞﾈｽこども食堂","province":"東京都","city":"大田区","address":"東京都大田区南馬込1丁目58-8","lat":35.58911316,"lon":139.71283519},{"name":"Steak＆Hamburg SOH","province":"東京都","city":"大田区","address":"東京都大田区山王2丁目36-9","lat":35.59170755,"lon":139.72220932},{"name":"おばんざい　地獄に佛","province":"東京都","city":"大田区","address":"東京都大田区山王2丁目2-15","lat":35.58900533,"lon":139.72802012},{"name":"ほっとねっとｷｯﾁﾝ","province":"東京都","city":"大田区","address":"東京都大田区中央2丁目10-1","lat":35.57955621,"lon":139.7202711},{"name":"みんなでべジ食","province":"東京都","city":"大田区","address":"東京都大田区池上3丁目32-17","lat":35.57372347,"lon":139.70167607},{"name":"子ども食堂ｵﾑﾗｲｽ食堂","province":"東京都","city":"大田区","address":"東京都大田区大森北1丁目29-6","lat":35.5855669,"lon":139.72875077},{"name":"こども＆ｼﾆｱ　もりもり食堂","province":"東京都","city":"大田区","address":"東京都大田区大森西2丁目2-1","lat":35.57887326,"lon":139.72839833},{"name":"こども食堂おやこｷｯﾁﾝ","province":"東京都","city":"大田区","address":"東京都大田区大森西2丁目2-1","lat":35.57887326,"lon":139.72839833},{"name":"感動こども食堂","province":"東京都","city":"大田区","address":"東京都大田区西蒲田7丁目5-12","lat":35.56378033,"lon":139.71516683},{"name":"だんだんﾜﾝｺｲﾝこども食堂","province":"東京都","city":"大田区","address":"東京都大田区東矢口1丁目17-9","lat":35.564572,"lon":139.70724548},{"name":"いちご食堂","province":"東京都","city":"大田区","address":"東京都大田区下丸子3丁目8-15","lat":35.57050488,"lon":139.68530334},{"name":"VICｽﾏｲﾙｷｯﾁﾝ","province":"東京都","city":"大田区","address":"東京都大田区矢口2丁目1-18","lat":35.56410568,"lon":139.69612749},{"name":"万人こども食堂","province":"東京都","city":"大田区","address":"東京都大田区新蒲田3丁目4-28","lat":35.55842023,"lon":139.70546838},{"name":"子ども食堂やんやん","province":"東京都","city":"大田区","address":"東京都大田区新蒲田2丁目1-13","lat":35.55895617,"lon":139.70872347},{"name":"ﾕﾆﾊﾞｰｻﾙこども食堂","province":"東京都","city":"大田区","address":"東京都大田区南六郷1丁目34-4","lat":35.54579173,"lon":139.72602558},{"name":"おおたﾗｰﾒﾝこども食堂（本羽田）","province":"東京都","city":"大田区","address":"東京都大田区本羽田1丁目12-9","lat":35.5488134,"lon":139.72456155},{"name":"大森東しあわせ食堂","province":"東京都","city":"大田区","address":"東京都大田区大森東4丁目6-15","lat":35.56848065,"lon":139.7383372},{"name":"ひこうき食堂","province":"東京都","city":"大田区","address":"東京都大田区新蒲田1丁目18-16","lat":35.55736749,"lon":139.71124551},{"name":"ﾄｰｷｮｰｺｰﾋｰ大田区　かぞく食堂","province":"東京都","city":"大田区","address":"東京都大田区大森東1丁目28-9","lat":35.57715448,"lon":139.73810337},{"name":"SOMPO流子ども食堂（そんぽの家　大鳥居）","province":"東京都","city":"大田区","address":"東京都大田区西糀谷3丁目32-2","lat":35.55304671,"lon":139.7372494},{"name":"SOMPO流子ども食堂（そんぽの家　東六郷）","province":"東京都","city":"大田区","address":"東京都大田区東六郷1丁目19-1","lat":35.55189611,"lon":139.7194534},{"name":"SOMPO流子ども食堂（そんぽの家S　西糀谷）","province":"東京都","city":"大田区","address":"東京都大田区西糀谷3丁目32-15","lat":35.552919,"lon":139.73772161},{"name":"SOMPO流子ども食堂（そんぽの家S　羽田）","province":"東京都","city":"大田区","address":"東京都大田区羽田2丁目2-11","lat":35.54853938,"lon":139.74190784},{"name":"SOMPO流子ども食堂（ﾗｳﾞｨｰﾚ羽田）","province":"東京都","city":"大田区","address":"東京都大田区東糀谷5丁目19-18","lat":35.55831036,"lon":139.74512924},{"name":"SOMPO流子ども食堂（ﾗｳﾞｨｰﾚ多摩川）","province":"東京都","city":"大田区","address":"東京都大田区多摩川2丁目13-22","lat":35.55821767,"lon":139.69939418},{"name":"みんなの食堂","province":"東京都","city":"大田区","address":"東京都大田区上池台1丁目13-4","lat":35.60263907,"lon":139.69726665},{"name":"羽田のこのこ食堂","province":"東京都","city":"大田区","address":"東京都大田区萩中2丁目11-5","lat":35.55107724,"lon":139.73176371},{"name":"ﾄﾘﾔｷ大学こども食堂","province":"東京都","city":"大田区","address":"東京都大田区蒲田5丁目19-15","lat":35.5622027,"lon":139.71791103},{"name":"子ども食堂ママちゃんち","province":"東京都","city":"大田区","address":"東京都大田区中央3丁目","lat":35.5766982,"lon":139.71946298},{"name":"えんむすび","province":"東京都","city":"大田区","address":"東京都大田区南六郷1丁目34-4","lat":35.54579173,"lon":139.72602558},{"name":"ﾌｰﾄﾞﾊﾞﾝｸ大田芋やぽんぽこ子ども食堂","province":"東京都","city":"大田区","address":"東京都大田区中央4丁目32-8","lat":35.57933676,"lon":139.71881846},{"name":"城南大橋第二","province":"東京都","city":"大田区","address":"東京都大田区東海3丁目4","lat":35.57770285,"lon":139.76242682},{"name":"京浜トラックターミナル","province":"東京都","city":"大田区","address":"東京都大田区平和島2丁目1-1","lat":35.58746451,"lon":139.74376358},{"name":"こども食堂ﾋﾛ","province":"東京都","city":"大田区","address":"東京都大田区南千束2丁目18-13","lat":35.60462481,"lon":139.68794244},{"name":"大岡山こども食堂","province":"東京都","city":"大田区","address":"東京都大田区北千束3丁目20-8","lat":35.60482752,"lon":139.68613703},{"name":"嶺町こども食堂みんなでごはん","province":"東京都","city":"大田区","address":"東京都大田区田園調布本町7-1","lat":35.58786589,"lon":139.67735279},{"name":"田園調布子ども食堂ともこｷｯﾁﾝ","province":"東京都","city":"大田区","address":"東京都大田区田園調布4丁目","lat":35.59272877,"lon":139.66135396},{"name":"ｶﾌｪｷｬﾋﾞﾝ","province":"東京都","city":"大田区","address":"東京都大田区南雪谷5丁目3-12","lat":35.58974056,"lon":139.68787927},{"name":"たんぽぽ食堂","province":"東京都","city":"大田区","address":"東京都大田区南雪谷5丁目3-12","lat":35.58974056,"lon":139.68787927},{"name":"子ども食堂ｳﾒｷｯﾁﾝ","province":"東京都","city":"大田区","address":"東京都大田区田園調布本町29-8","lat":35.58260295,"lon":139.67374809},{"name":"子ども食堂ﾌﾗﾝｼｽｺの広場","province":"東京都","city":"大田区","address":"東京都大田区仲池上1丁目21-11","lat":35.58569934,"lon":139.69815052},{"name":"こあら村のこども食堂","province":"東京都","city":"大田区","address":"東京都大田区久が原6丁目26-4","lat":35.57313754,"lon":139.69462416},{"name":"馬込子まもり食堂","province":"東京都","city":"大田区","address":"東京都大田区北馬込2丁目5-5","lat":35.59902577,"lon":139.7095962},{"name":"れんげの会こども食堂Withおとな","province":"東京都","city":"大田区","address":"東京都大田区西馬込2丁目20-1","lat":35.58649105,"lon":139.70527762},{"name":"絆倶楽部","province":"東京都","city":"大田区","address":"東京都大田区西馬込2丁目20-1","lat":35.58649105,"lon":139.70527762},{"name":"絆カフェ","province":"東京都","city":"大田区","address":"東京都大田区西馬込2丁目20-1","lat":35.58649105,"lon":139.70527762},{"name":"絆御飯","province":"東京都","city":"大田区","address":"東京都大田区西馬込2丁目20-1","lat":35.58649105,"lon":139.70527762},{"name":"てくてく食堂","province":"東京都","city":"大田区","address":"東京都大田区西馬込2丁目20-1","lat":35.58649105,"lon":139.70527762},{"name":"南馬込ｱｸﾞﾈｽこども食堂","province":"東京都","city":"大田区","address":"東京都大田区南馬込1丁目58-8","lat":35.58911316,"lon":139.71283519},{"name":"Steak＆Hamburg SOH","province":"東京都","city":"大田区","address":"東京都大田区山王2丁目36-9","lat":35.59170755,"lon":139.72220932},{"name":"おばんざい　地獄に佛","province":"東京都","city":"大田区","address":"東京都大田区山王2丁目2-15","lat":35.58900533,"lon":139.72802012},{"name":"ほっとねっとｷｯﾁﾝ","province":"東京都","city":"大田区","address":"東京都大田区中央2丁目10-1","lat":35.57955621,"lon":139.7202711},{"name":"みんなでべジ食","province":"東京都","city":"大田区","address":"東京都大田区池上3丁目32-17","lat":35.57372347,"lon":139.70167607},{"name":"子ども食堂ｵﾑﾗｲｽ食堂","province":"東京都","city":"大田区","address":"東京都大田区大森北1丁目29-6","lat":35.5855669,"lon":139.72875077},{"name":"こども＆ｼﾆｱ　もりもり食堂","province":"東京都","city":"大田区","address":"東京都大田区大森西2丁目2-1","lat":35.57887326,"lon":139.72839833},{"name":"こども食堂おやこｷｯﾁﾝ","province":"東京都","city":"大田区","address":"東京都大田区大森西2丁目2-1","lat":35.57887326,"lon":139.72839833},{"name":"感動こども食堂","province":"東京都","city":"大田区","address":"東京都大田区西蒲田7丁目5-12","lat":35.56378033,"lon":139.71516683},{"name":"だんだんﾜﾝｺｲﾝこども食堂","province":"東京都","city":"大田区","address":"東京都大田区東矢口1丁目17-9","lat":35.564572,"lon":139.70724548},{"name":"いちご食堂","province":"東京都","city":"大田区","address":"東京都大田区下丸子3丁目8-15","lat":35.57050488,"lon":139.68530334},{"name":"VICｽﾏｲﾙｷｯﾁﾝ","province":"東京都","city":"大田区","address":"東京都大田区矢口2丁目1-18","lat":35.56410568,"lon":139.69612749},{"name":"万人こども食堂","province":"東京都","city":"大田区","address":"東京都大田区新蒲田3丁目4-28","lat":35.55842023,"lon":139.70546838},{"name":"子ども食堂やんやん","province":"東京都","city":"大田区","address":"東京都大田区新蒲田2丁目1-13","lat":35.55895617,"lon":139.70872347},{"name":"ﾕﾆﾊﾞｰｻﾙこども食堂","province":"東京都","city":"大田区","address":"東京都大田区南六郷1丁目34-4","lat":35.54579173,"lon":139.72602558},{"name":"おおたﾗｰﾒﾝこども食堂（本羽田）","province":"東京都","city":"大田区","address":"東京都大田区本羽田1丁目12-9","lat":35.5488134,"lon":139.72456155},{"name":"大森東しあわせ食堂","province":"東京都","city":"大田区","address":"東京都大田区大森東4丁目6-15","lat":35.56848065,"lon":139.7383372},{"name":"ひこうき食堂","province":"東京都","city":"大田区","address":"東京都大田区新蒲田1丁目18-16","lat":35.55736749,"lon":139.71124551},{"name":"ﾄｰｷｮｰｺｰﾋｰ大田区　かぞく食堂","province":"東京都","city":"大田区","address":"東京都大田区大森東1丁目28-9","lat":35.57715448,"lon":139.73810337},{"name":"SOMPO流子ども食堂（そんぽの家　大鳥居）","province":"東京都","city":"大田区","address":"東京都大田区西糀谷3丁目32-2","lat":35.55304671,"lon":139.7372494},{"name":"SOMPO流子ども食堂（そんぽの家　東六郷）","province":"東京都","city":"大田区","address":"東京都大田区東六郷1丁目19-1","lat":35.55189611,"lon":139.7194534},{"name":"SOMPO流子ども食堂（そんぽの家S　西糀谷）","province":"東京都","city":"大田区","address":"東京都大田区西糀谷3丁目32-15","lat":35.552919,"lon":139.73772161},{"name":"SOMPO流子ども食堂（そんぽの家S　羽田）","province":"東京都","city":"大田区","address":"東京都大田区羽田2丁目2-11","lat":35.54853938,"lon":139.74190784},{"name":"SOMPO流子ども食堂（ﾗｳﾞｨｰﾚ羽田）","province":"東京都","city":"大田区","address":"東京都大田区東糀谷5丁目19-18","lat":35.55831036,"lon":139.74512924},{"name":"SOMPO流子ども食堂（ﾗｳﾞｨｰﾚ多摩川）","province":"東京都","city":"大田区","address":"東京都大田区多摩川2丁目13-22","lat":35.55821767,"lon":139.69939418},{"name":"みんなの食堂","province":"東京都","city":"大田区","address":"東京都大田区上池台1丁目13-4","lat":35.60263907,"lon":139.69726665},{"name":"羽田のこのこ食堂","province":"東京都","city":"大田区","address":"東京都大田区萩中2丁目11-5","lat":35.55107724,"lon":139.73176371},{"name":"ﾄﾘﾔｷ大学こども食堂","province":"東京都","city":"大田区","address":"東京都大田区蒲田5丁目19-15","lat":35.5622027,"lon":139.71791103},{"name":"子ども食堂ママちゃんち","province":"東京都","city":"大田区","address":"東京都大田区中央3丁目","lat":35.5766982,"lon":139.71946298},{"name":"えんむすび","province":"東京都","city":"大田区","address":"東京都大田区南六郷1丁目34-4","lat":35.54579173,"lon":139.72602558},{"name":"ﾌｰﾄﾞﾊﾞﾝｸ大田芋やぽんぽこ子ども食堂","province":"東京都","city":"大田区","address":"東京都大田区中央4丁目32-8","lat":35.57933676,"lon":139.71881846},{"name":"こども食堂ﾋﾛ","province":"東京都","city":"大田区","address":"東京都大田区南千束2丁目18-13","lat":35.60462481,"lon":139.68794244},{"name":"大岡山こども食堂","province":"東京都","city":"大田区","address":"東京都大田区北千束3丁目20-8","lat":35.60482752,"lon":139.68613703},{"name":"嶺町こども食堂みんなでごはん","province":"東京都","city":"大田区","address":"東京都大田区田園調布本町7-1","lat":35.58786589,"lon":139.67735279},{"name":"田園調布子ども食堂ともこｷｯﾁﾝ","province":"東京都","city":"大田区","address":"東京都大田区田園調布4丁目","lat":35.59272877,"lon":139.66135396},{"name":"ｶﾌｪｷｬﾋﾞﾝ","province":"東京都","city":"大田区","address":"東京都大田区南雪谷5丁目3-12","lat":35.58974056,"lon":139.68787927},{"name":"たんぽぽ食堂","province":"東京都","city":"大田区","address":"東京都大田区南雪谷5丁目3-12","lat":35.58974056,"lon":139.68787927},{"name":"子ども食堂ｳﾒｷｯﾁﾝ","province":"東京都","city":"大田区","address":"東京都大田区田園調布本町29-8","lat":35.58260295,"lon":139.67374809},{"name":"子ども食堂ﾌﾗﾝｼｽｺの広場","province":"東京都","city":"大田区","address":"東京都大田区仲池上1丁目21-11","lat":35.58569934,"lon":139.69815052},{"name":"こあら村のこども食堂","province":"東京都","city":"大田区","address":"東京都大田区久が原6丁目26-4","lat":35.57313754,"lon":139.69462416},{"name":"馬込子まもり食堂","province":"東京都","city":"大田区","address":"東京都大田区北馬込2丁目5-5","lat":35.59902577,"lon":139.7095962},{"name":"れんげの会こども食堂Withおとな","province":"東京都","city":"大田区","address":"東京都大田区西馬込2丁目20-1","lat":35.58649105,"lon":139.70527762},{"name":"絆倶楽部","province":"東京都","city":"大田区","address":"東京都大田区西馬込2丁目20-1","lat":35.58649105,"lon":139.70527762},{"name":"絆カフェ","province":"東京都","city":"大田区","address":"東京都大田区西馬込2丁目20-1","lat":35.58649105,"lon":139.70527762},{"name":"絆御飯","province":"東京都","city":"大田区","address":"東京都大田区西馬込2丁目20-1","lat":35.58649105,"lon":139.70527762},{"name":"てくてく食堂","province":"東京都","city":"大田区","address":"東京都大田区西馬込2丁目20-1","lat":35.58649105,"lon":139.70527762},{"name":"南馬込ｱｸﾞﾈｽこども食堂","province":"東京都","city":"大田区","address":"東京都大田区南馬込1丁目58-8","lat":35.58911316,"lon":139.71283519},{"name":"Steak＆Hamburg SOH","province":"東京都","city":"大田区","address":"東京都大田区山王2丁目36-9","lat":35.59170755,"lon":139.72220932},{"name":"おばんざい　地獄に佛","province":"東京都","city":"大田区","address":"東京都大田区山王2丁目2-15","lat":35.58900533,"lon":139.72802012},{"name":"ほっとねっとｷｯﾁﾝ","province":"東京都","city":"大田区","address":"東京都大田区中央2丁目10-1","lat":35.57955621,"lon":139.7202711},{"name":"みんなでべジ食","province":"東京都","city":"大田区","address":"東京都大田区池上3丁目32-17","lat":35.57372347,"lon":139.70167607},{"name":"子ども食堂ｵﾑﾗｲｽ食堂","province":"東京都","city":"大田区","address":"東京都大田区大森北1丁目29-6","lat":35.5855669,"lon":139.72875077},{"name":"こども＆ｼﾆｱ　もりもり食堂","province":"東京都","city":"大田区","address":"東京都大田区大森西2丁目2-1","lat":35.57887326,"lon":139.72839833},{"name":"こども食堂おやこｷｯﾁﾝ","province":"東京都","city":"大田区","address":"東京都大田区大森西2丁目2-1","lat":35.57887326,"lon":139.72839833},{"name":"感動こども食堂","province":"東京都","city":"大田区","address":"東京都大田区西蒲田7丁目5-12","lat":35.56378033,"lon":139.71516683},{"name":"だんだんﾜﾝｺｲﾝこども食堂","province":"東京都","city":"大田区","address":"東京都大田区東矢口1丁目17-9","lat":35.564572,"lon":139.70724548},{"name":"いちご食堂","province":"東京都","city":"大田区","address":"東京都大田区下丸子3丁目8-15","lat":35.57050488,"lon":139.68530334},{"name":"VICｽﾏｲﾙｷｯﾁﾝ","province":"東京都","city":"大田区","address":"東京都大田区矢口2丁目1-18","lat":35.56410568,"lon":139.69612749},{"name":"万人こども食堂","province":"東京都","city":"大田区","address":"東京都大田区新蒲田3丁目4-28","lat":35.55842023,"lon":139.70546838},{"name":"子ども食堂やんやん","province":"東京都","city":"大田区","address":"東京都大田区新蒲田2丁目1-13","lat":35.55895617,"lon":139.70872347},{"name":"ﾕﾆﾊﾞｰｻﾙこども食堂","province":"東京都","city":"大田区","address":"東京都大田区南六郷1丁目34-4","lat":35.54579173,"lon":139.72602558},{"name":"おおたﾗｰﾒﾝこども食堂（本羽田）","province":"東京都","city":"大田区","address":"東京都大田区本羽田1丁目12-9","lat":35.5488134,"lon":139.72456155},{"name":"大森東しあわせ食堂","province":"東京都","city":"大田区","address":"東京都大田区大森東4丁目6-15","lat":35.56848065,"lon":139.7383372},{"name":"ひこうき食堂","province":"東京都","city":"大田区","address":"東京都大田区新蒲田1丁目18-16","lat":35.55736749,"lon":139.71124551},{"name":"ﾄｰｷｮｰｺｰﾋｰ大田区　かぞく食堂","province":"東京都","city":"大田区","address":"東京都大田区大森東1丁目28-9","lat":35.57715448,"lon":139.73810337},{"name":"SOMPO流子ども食堂（そんぽの家　大鳥居）","province":"東京都","city":"大田区","address":"東京都大田区西糀谷3丁目32-2","lat":35.55304671,"lon":139.7372494},{"name":"SOMPO流子ども食堂（そんぽの家　東六郷）","province":"東京都","city":"大田区","address":"東京都大田区東六郷1丁目19-1","lat":35.55189611,"lon":139.7194534},{"name":"SOMPO流子ども食堂（そんぽの家S　西糀谷）","province":"東京都","city":"大田区","address":"東京都大田区西糀谷3丁目32-15","lat":35.552919,"lon":139.73772161},{"name":"SOMPO流子ども食堂（そんぽの家S　羽田）","province":"東京都","city":"大田区","address":"東京都大田区羽田2丁目2-11","lat":35.54853938,"lon":139.74190784},{"name":"SOMPO流子ども食堂（ﾗｳﾞｨｰﾚ羽田）","province":"東京都","city":"大田区","address":"東京都大田区東糀谷5丁目19-18","lat":35.55831036,"lon":139.74512924},{"name":"SOMPO流子ども食堂（ﾗｳﾞｨｰﾚ多摩川）","province":"東京都","city":"大田区","address":"東京都大田区多摩川2丁目13-22","lat":35.55821767,"lon":139.69939418},{"name":"みんなの食堂","province":"東京都","city":"大田区","address":"東京都大田区上池台1丁目13-4","lat":35.60263907,"lon":139.69726665},{"name":"羽田のこのこ食堂","province":"東京都","city":"大田区","address":"東京都大田区萩中2丁目11-5","lat":35.55107724,"lon":139.73176371},{"name":"ﾄﾘﾔｷ大学こども食堂","province":"東京都","city":"大田区","address":"東京都大田区蒲田5丁目19-15","lat":35.5622027,"lon":139.71791103},{"name":"子ども食堂ママちゃんち","province":"東京都","city":"大田区","address":"東京都大田区中央3丁目","lat":35.5766982,"lon":139.71946298},{"name":"えんむすび","province":"東京都","city":"大田区","address":"東京都大田区南六郷1丁目34-4","lat":35.54579173,"lon":139.72602558},{"name":"ﾌｰﾄﾞﾊﾞﾝｸ大田芋やぽんぽこ子ども食堂","province":"東京都","city":"大田区","address":"東京都大田区中央4丁目32-8","lat":35.57933676,"lon":139.71881846},{"name":"こども食堂ﾋﾛ","province":"東京都","city":"大田区","address":"東京都大田区南千束2丁目18-13","lat":35.60462481,"lon":139.68794244},{"name":"大岡山こども食堂","province":"東京都","city":"大田区","address":"東京都大田区北千束3丁目20-8","lat":35.60482752,"lon":139.68613703},{"name":"嶺町こども食堂みんなでごはん","province":"東京都","city":"大田区","address":"東京都大田区田園調布本町7-1","lat":35.58786589,"lon":139.67735279},{"name":"田園調布子ども食堂ともこｷｯﾁﾝ","province":"東京都","city":"大田区","address":"東京都大田区田園調布4丁目","lat":35.59272877,"lon":139.66135396},{"name":"ｶﾌｪｷｬﾋﾞﾝ","province":"東京都","city":"大田区","address":"東京都大田区南雪谷5丁目3-12","lat":35.58974056,"lon":139.68787927},{"name":"たんぽぽ食堂","province":"東京都","city":"大田区","address":"東京都大田区南雪谷5丁目3-12","lat":35.58974056,"lon":139.68787927},{"name":"子ども食堂ｳﾒｷｯﾁﾝ","province":"東京都","city":"大田区","address":"東京都大田区田園調布本町29-8","lat":35.58260295,"lon":139.67374809},{"name":"子ども食堂ﾌﾗﾝｼｽｺの広場","province":"東京都","city":"大田区","address":"東京都大田区仲池上1丁目21-11","lat":35.58569934,"lon":139.69815052},{"name":"こあら村のこども食堂","province":"東京都","city":"大田区","address":"東京都大田区久が原6丁目26-4","lat":35.57313754,"lon":139.69462416},{"name":"馬込子まもり食堂","province":"東京都","city":"大田区","address":"東京都大田区北馬込2丁目5-5","lat":35.59902577,"lon":139.7095962},{"name":"れんげの会こども食堂Withおとな","province":"東京都","city":"大田区","address":"東京都大田区西馬込2丁目20-1","lat":35.58649105,"lon":139.70527762},{"name":"絆倶楽部","province":"東京都","city":"大田区","address":"東京都大田区西馬込2丁目20-1","lat":35.58649105,"lon":139.70527762},{"name":"絆カフェ","province":"東京都","city":"大田区","address":"東京都大田区西馬込2丁目20-1","lat":35.58649105,"lon":139.70527762},{"name":"絆御飯","province":"東京都","city":"大田区","address":"東京都大田区西馬込2丁目20-1","lat":35.58649105,"lon":139.70527762},{"name":"てくてく食堂","province":"東京都","city":"大田区","address":"東京都大田区西馬込2丁目20-1","lat":35.58649105,"lon":139.70527762},{"name":"南馬込ｱｸﾞﾈｽこども食堂","province":"東京都","city":"大田区","address":"東京都大田区南馬込1丁目58-8","lat":35.58911316,"lon":139.71283519},{"name":"Steak＆Hamburg SOH","province":"東京都","city":"大田区","address":"東京都大田区山王2丁目36-9","lat":35.59170755,"lon":139.72220932},{"name":"おばんざい　地獄に佛","province":"東京都","city":"大田区","address":"東京都大田区山王2丁目2-15","lat":35.58900533,"lon":139.72802012},{"name":"ほっとねっとｷｯﾁﾝ","province":"東京都","city":"大田区","address":"東京都大田区中央2丁目10-1","lat":35.57955621,"lon":139.7202711},{"name":"みんなでべジ食","province":"東京都","city":"大田区","address":"東京都大田区池上3丁目32-17","lat":35.57372347,"lon":139.70167607},{"name":"子ども食堂ｵﾑﾗｲｽ食堂","province":"東京都","city":"大田区","address":"東京都大田区大森北1丁目29-6","lat":35.5855669,"lon":139.72875077},{"name":"こども＆ｼﾆｱ　もりもり食堂","province":"東京都","city":"大田区","address":"東京都大田区大森西2丁目2-1","lat":35.57887326,"lon":139.72839833},{"name":"こども食堂おやこｷｯﾁﾝ","province":"東京都","city":"大田区","address":"東京都大田区大森西2丁目2-1","lat":35.57887326,"lon":139.72839833},{"name":"感動こども食堂","province":"東京都","city":"大田区","address":"東京都大田区西蒲田7丁目5-12","lat":35.56378033,"lon":139.71516683},{"name":"だんだんﾜﾝｺｲﾝこども食堂","province":"東京都","city":"大田区","address":"東京都大田区東矢口1丁目17-9","lat":35.564572,"lon":139.70724548},{"name":"いちご食堂","province":"東京都","city":"大田区","address":"東京都大田区下丸子3丁目8-15","lat":35.57050488,"lon":139.68530334},{"name":"VICｽﾏｲﾙｷｯﾁﾝ","province":"東京都","city":"大田区","address":"東京都大田区矢口2丁目1-18","lat":35.56410568,"lon":139.69612749},{"name":"万人こども食堂","province":"東京都","city":"大田区","address":"東京都大田区新蒲田3丁目4-28","lat":35.55842023,"lon":139.70546838},{"name":"子ども食堂やんやん","province":"東京都","city":"大田区","address":"東京都大田区新蒲田2丁目1-13","lat":35.55895617,"lon":139.70872347},{"name":"ﾕﾆﾊﾞｰｻﾙこども食堂","province":"東京都","city":"大田区","address":"東京都大田区南六郷1丁目34-4","lat":35.54579173,"lon":139.72602558},{"name":"おおたﾗｰﾒﾝこども食堂（本羽田）","province":"東京都","city":"大田区","address":"東京都大田区本羽田1丁目12-9","lat":35.5488134,"lon":139.72456155},{"name":"大森東しあわせ食堂","province":"東京都","city":"大田区","address":"東京都大田区大森東4丁目6-15","lat":35.56848065,"lon":139.7383372},{"name":"ひこうき食堂","province":"東京都","city":"大田区","address":"東京都大田区新蒲田1丁目18-16","lat":35.55736749,"lon":139.71124551},{"name":"ﾄｰｷｮｰｺｰﾋｰ大田区　かぞく食堂","province":"東京都","city":"大田区","address":"東京都大田区大森東1丁目28-9","lat":35.57715448,"lon":139.73810337},{"name":"SOMPO流子ども食堂（そんぽの家　大鳥居）","province":"東京都","city":"大田区","address":"東京都大田区西糀谷3丁目32-2","lat":35.55304671,"lon":139.7372494},{"name":"SOMPO流子ども食堂（そんぽの家　東六郷）","province":"東京都","city":"大田区","address":"東京都大田区東六郷1丁目19-1","lat":35.55189611,"lon":139.7194534},{"name":"SOMPO流子ども食堂（そんぽの家S　西糀谷）","province":"東京都","city":"大田区","address":"東京都大田区西糀谷3丁目32-15","lat":35.552919,"lon":139.73772161},{"name":"SOMPO流子ども食堂（そんぽの家S　羽田）","province":"東京都","city":"大田区","address":"東京都大田区羽田2丁目2-11","lat":35.54853938,"lon":139.74190784},{"name":"SOMPO流子ども食堂（ﾗｳﾞｨｰﾚ羽田）","province":"東京都","city":"大田区","address":"東京都大田区東糀谷5丁目19-18","lat":35.55831036,"lon":139.74512924},{"name":"SOMPO流子ども食堂（ﾗｳﾞｨｰﾚ多摩川）","province":"東京都","city":"大田区","address":"東京都大田区多摩川2丁目13-22","lat":35.55821767,"lon":139.69939418},{"name":"みんなの食堂","province":"東京都","city":"大田区","address":"東京都大田区上池台1丁目13-4","lat":35.60263907,"lon":139.69726665},{"name":"羽田のこのこ食堂","province":"東京都","city":"大田区","address":"東京都大田区萩中2丁目11-5","lat":35.55107724,"lon":139.73176371},{"name":"ﾄﾘﾔｷ大学こども食堂","province":"東京都","city":"大田区","address":"東京都大田区蒲田5丁目19-15","lat":35.5622027,"lon":139.71791103},{"name":"子ども食堂ママちゃんち","province":"東京都","city":"大田区","address":"東京都大田区中央3丁目","lat":35.5766982,"lon":139.71946298},{"name":"えんむすび","province":"東京都","city":"大田区","address":"東京都大田区南六郷1丁目34-4","lat":35.54579173,"lon":139.72602558},{"name":"ﾌｰﾄﾞﾊﾞﾝｸ大田芋やぽんぽこ子ども食堂","province":"東京都","city":"大田区","address":"東京都大田区中央4丁目32-8","lat":35.57933676,"lon":139.71881846}]}