{"keyword":"宿泊","data":[{"name":"カーサ大鳥居","province":"東京都","city":"大田区","address":"大田区本羽田3-13-16","lat":35.548042,"lon":139.736422},{"name":"カーサ雪谷","province":"東京都","city":"大田区","address":"大田区東雪谷3-14-25","lat":35.594873,"lon":139.688973},{"name":"春風寮","province":"東京都","city":"大田区","address":"大田区仲六郷4-2-12","lat":35.54535,"lon":139.709394},{"name":"蒲田荘","province":"東京都","city":"大田区","address":"大田区蒲田本町2-19-4","lat":35.556395,"lon":139.717403},{"name":"大森南荘","province":"東京都","city":"大田区","address":"大田区大森南2-1-26","lat":35.563251,"lon":139.74031},{"name":"Ｌ．Ｃ大森中","province":"東京都","city":"大田区","address":"大田区大森中3-1-5","lat":35.566147,"lon":139.730238},{"name":"Ｌ．Ｃ西蒲田","province":"東京都","city":"大田区","address":"大田区西蒲田4-2-2","lat":35.56973,"lon":139.71805},{"name":"Ｌ．Ｃ西糀谷","province":"東京都","city":"大田区","address":"大田区西糀谷1-4-4","lat":35.560409,"lon":139.730591},{"name":"カインドネス西蒲田","province":"東京都","city":"大田区","address":"大田区西蒲田7-9-15","lat":35.564203,"lon":139.712478},{"name":"さくら下丸子ハウス","province":"東京都","city":"大田区","address":"大田区下丸子1-1-8","lat":35.570494,"lon":139.688328},{"name":"カーサ羽田","province":"東京都","city":"大田区","address":"大田区羽田3-36-4","lat":35.545104,"lon":139.745963},{"name":"カーサ大森","province":"東京都","city":"大田区","address":"大田区山王4-21-61-B","lat":35.586766,"lon":139.720993},{"name":"カーサ糀谷","province":"東京都","city":"大田区","address":"大田区南蒲田3-12-18","lat":35.553366,"lon":139.728811},{"name":"カーサ東六郷","province":"東京都","city":"大田区","address":"大田区東六郷1-10-11","lat":35.552146,"lon":139.721681},{"name":"大森南荘","province":"東京都","city":"大田区","address":"大田区大森南2-1-26","lat":35.56315,"lon":139.74091},{"name":"Ｌ．Ｃ大森中","province":"東京都","city":"大田区","address":"大田区大森中3-1-5","lat":35.56613,"lon":139.73019},{"name":"カーサ大森","province":"東京都","city":"大田区","address":"大田区山王4-21-6コーポカーサグランデ","lat":35.58713,"lon":139.72069},{"name":"Ｌ．Ｃ西糀谷","province":"東京都","city":"大田区","address":"大田区西糀谷1-4-4","lat":35.56016,"lon":139.73024},{"name":"カーサ糀谷","province":"東京都","city":"大田区","address":"大田区南蒲田3-12-18","lat":35.5534,"lon":139.7291},{"name":"カーサ羽田","province":"東京都","city":"大田区","address":"大田区羽田3-36-4","lat":35.54501,"lon":139.74629},{"name":"カーサ大鳥居","province":"東京都","city":"大田区","address":"大田区本羽田3-13-16","lat":35.54794,"lon":139.73654},{"name":"カーサ東六郷","province":"東京都","city":"大田区","address":"大田区東六郷1-10-11","lat":35.55215,"lon":139.72131},{"name":"Ｌ．Ｃ西蒲田","province":"東京都","city":"大田区","address":"大田区西蒲田4-2-2","lat":35.56959,"lon":139.71831},{"name":"蒲田荘","province":"東京都","city":"大田区","address":"大田区蒲田本町2-19-4","lat":35.55631,"lon":139.71729},{"name":"春風寮","province":"東京都","city":"大田区","address":"大田区仲六郷4-2-12","lat":35.54505,"lon":139.70972},{"name":"カーサ雪谷","province":"東京都","city":"大田区","address":"大田区東雪谷3-14-25","lat":35.59449,"lon":139.68898},{"name":"さくら下丸子ハウス","province":"東京都","city":"大田区","address":"大田区下丸子1-1-8","lat":35.57084,"lon":139.68808}]}