{"keyword":"戸数","data":[{"name":"荏原病院","province":"東京都","city":"大田区","address":"東京都大田区東雪谷4丁目5-10","lat":35.59460659,"lon":139.69367561},{"name":"大田区社会福祉協議会","province":"東京都","city":"大田区","address":"大田区西蒲田7-49-2大田区社会福祉センター5、6、7階","lat":35.562558,"lon":139.712639},{"name":"大田区","province":"東京都","city":"大田区","address":"大田区蒲田5-13-14","lat":35.5615214,"lon":139.71611},{"name":"\"株式会社荒木葬儀社 \"","province":"東京都","city":"大田区","address":"東京都大田区仲六郷2丁目7-8","lat":35.55222386,"lon":139.71480108},{"name":"\"有限会社池牧 \"","province":"東京都","city":"大田区","address":"東京都大田区池上4丁目8-6","lat":35.57536487,"lon":139.70771972},{"name":"\"大田葬祭株式会社 \"","province":"東京都","city":"大田区","address":"東京都大田区大森中1丁目13-3","lat":35.56926082,"lon":139.73397627},{"name":"\"有限会社金子式典センター \"","province":"東京都","city":"大田区","address":"東京都大田区東雪谷3丁目8-6","lat":35.59346505,"lon":139.69205361},{"name":"\"株式会社明進社　金子商店 \"","province":"東京都","city":"大田区","address":"東京都大田区大森中1丁目18-23","lat":35.56892181,"lon":139.7306987},{"name":"\"有限会社北嶋葬儀社 \"","province":"東京都","city":"大田区","address":"東京都大田区東矢口3丁目5-4","lat":35.56388876,"lon":139.70777046},{"name":"\"有限会社立花屋 \"","province":"東京都","city":"大田区","address":"東京都大田区南千束3丁目3-15","lat":35.60446368,"lon":139.68642591},{"name":"\"鶴屋葬祭支店 \"","province":"東京都","city":"大田区","address":"東京都大田区北糀谷1丁目7-4","lat":35.56411711,"lon":139.73441544},{"name":"\"有限会社牧野 \"","province":"東京都","city":"大田区","address":"東京都大田区下丸子1丁目1-4","lat":35.57107138,"lon":139.68795017},{"name":"\"合資会社山田屋葬儀社 \"","province":"東京都","city":"大田区","address":"東京都大田区大森北4丁目26-18","lat":35.58172291,"lon":139.72818432},{"name":"大田区社会福祉協議会","province":"東京都","city":"大田区","address":"大田区西蒲田7-49-2大田区社会福祉センター内","lat":35.56249,"lon":139.71275},{"name":"大田区青少年交流センター（ゆいっつ）","province":"東京都","city":"大田区","address":"東京都大田区平和島4-2-15","lat":35.58352,"lon":139.743012},{"name":"大田図書館","province":"東京都","city":"大田区","address":"東京都大田区田園調布南25番1号","lat":35.581606,"lon":139.676125},{"name":"大森南図書館","province":"東京都","city":"大田区","address":"東京都大田区大森南一丁目17番7号","lat":35.563429,"lon":139.739788},{"name":"大森東図書館","province":"東京都","city":"大田区","address":"東京都大田区大森東一丁目31番3号-104","lat":35.57617,"lon":139.739109},{"name":"大森西図書館","province":"東京都","city":"大田区","address":"東京都大田区大森西五丁目2番13号","lat":35.571869,"lon":139.72604},{"name":"入新井図書館","province":"東京都","city":"大田区","address":"東京都大田区大森北一丁目10番14号(大森複合施設ビル(Luz大森)内)","lat":35.586349,"lon":139.72822},{"name":"馬込図書館","province":"東京都","city":"大田区","address":"東京都大田区中馬込二丁目26番10号","lat":35.595677,"lon":139.71042},{"name":"池上図書館","province":"東京都","city":"大田区","address":"東京都大田区池上六丁目3番10号エトモ池上4階","lat":35.574768,"lon":139.703243},{"name":"久が原図書館","province":"東京都","city":"大田区","address":"東京都大田区久が原二丁目28番4号","lat":35.579334,"lon":139.695276},{"name":"洗足池図書館","province":"東京都","city":"大田区","address":"東京都大田区南千束二丁目2番10号","lat":35.600792,"lon":139.69193},{"name":"浜竹図書館","province":"東京都","city":"大田区","address":"東京都大田区西糀谷三丁目32番7号","lat":35.553368,"lon":139.737368},{"name":"羽田図書館","province":"東京都","city":"大田区","address":"東京都大田区羽田一丁目11番1号","lat":35.55041,"lon":139.74348},{"name":"六郷図書館","province":"東京都","city":"大田区","address":"東京都大田区南六郷三丁目10番3号","lat":35.543921,"lon":139.71401},{"name":"下丸子図書館","province":"東京都","city":"大田区","address":"東京都大田区下丸子二丁目18番11号","lat":35.565849,"lon":139.688037},{"name":"多摩川図書館","province":"東京都","city":"大田区","address":"東京都大田区多摩川二丁目24番63号","lat":35.556123,"lon":139.702316},{"name":"蒲田図書館","province":"東京都","city":"大田区","address":"東京都大田区東蒲田一丁目19番22号","lat":35.563686,"lon":139.728443},{"name":"蒲田駅前図書館","province":"東京都","city":"大田区","address":"東京都大田区蒲田五丁目13番26-301号","lat":35.559837,"lon":139.715496},{"name":"田園調布せせらぎ館","province":"東京都","city":"大田区","address":"東京都大田区田園調布1-53-12","lat":35.5899036,"lon":139.669526},{"name":"大田区役所","province":"東京都","city":"大田区","address":"東京都大田区蒲田5-13-14","lat":35.561326,"lon":139.716082},{"name":"大森東特別出張所","province":"東京都","city":"大田区","address":"東京都大田区大森南四丁目9番1号","lat":35.566933,"lon":139.7459},{"name":"大森西特別出張所","province":"東京都","city":"大田区","address":"東京都大田区大森西二丁目16番2号区民活動支援施設大森(こらぼ大森)1階","lat":35.576557,"lon":139.730251},{"name":"入新井特別出張所","province":"東京都","city":"大田区","address":"東京都大田区大森北一丁目10番14号","lat":35.586449,"lon":139.728206},{"name":"馬込特別出張所","province":"東京都","city":"大田区","address":"東京都大田区中馬込三丁目25番5号","lat":35.593962,"lon":139.709813},{"name":"池上特別出張所","province":"東京都","city":"大田区","address":"東京都大田区池上一丁目29番6号","lat":35.575115,"lon":139.710296},{"name":"新井宿特別出張所","province":"東京都","city":"大田区","address":"東京都大田区中央一丁目21番6号","lat":35.579697,"lon":139.719709},{"name":"嶺町特別出張所","province":"東京都","city":"大田区","address":"東京都大田区田園調布本町7番1号","lat":35.587911,"lon":139.67735},{"name":"田園調布特別出張所","province":"東京都","city":"大田区","address":"東京都大田区田園調布一丁目30番1号","lat":35.588316,"lon":139.67094},{"name":"鵜の木特別出張所","province":"東京都","city":"大田区","address":"東京都大田区南久が原二丁目30番5号","lat":35.574934,"lon":139.685171},{"name":"久が原特別出張所","province":"東京都","city":"大田区","address":"東京都大田区久が原四丁目12番10号","lat":35.580307,"lon":139.693975},{"name":"雪谷特別出張所","province":"東京都","city":"大田区","address":"東京都大田区東雪谷三丁目6番2号","lat":35.594554,"lon":139.691156},{"name":"千束特別出張所","province":"東京都","city":"大田区","address":"東京都大田区南千束二丁目16番19号","lat":35.604988,"lon":139.689441},{"name":"六郷特別出張所","province":"東京都","city":"大田区","address":"東京都大田区仲六郷二丁目44番11号","lat":35.550903,"lon":139.716084},{"name":"矢口特別出張所","province":"東京都","city":"大田区","address":"東京都大田区矢口二丁目21番14号","lat":35.562124,"lon":139.690283},{"name":"蒲田西特別出張所","province":"東京都","city":"大田区","address":"東京都大田区西蒲田七丁目12番2号1階","lat":35.564472,"lon":139.710686},{"name":"蒲田東特別出張所","province":"東京都","city":"大田区","address":"東京都大田区蒲田本町二丁目1番1号","lat":35.558535,"lon":139.718592},{"name":"糀谷特別出張所","province":"東京都","city":"大田区","address":"東京都大田区西糀谷二丁目14番13号","lat":35.55873,"lon":139.73676},{"name":"羽田特別出張所","province":"東京都","city":"大田区","address":"東京都大田区羽田一丁目18番13号","lat":35.549143,"lon":139.741826},{"name":"おおた国際交流センター（Minto Ota）","province":"東京都","city":"大田区","address":"東京都大田区蒲田4-16-82階","lat":35.5613404,"lon":139.7223747},{"name":"消費者生活センター","province":"東京都","city":"大田区","address":"東京都大田区蒲田五丁目13番26-101号","lat":35.559839,"lon":139.715496},{"name":"池上会館","province":"東京都","city":"大田区","address":"東京都大田区池上一丁目32番8号","lat":35.576883,"lon":139.706363},{"name":"新蒲田一丁目複合施設（カムカム新蒲田）","province":"東京都","city":"大田区","address":"東京都大田区新蒲田一丁目18番16号","lat":35.5575665,"lon":139.7110827},{"name":"東邦大学医療センター大森病院","province":"東京都","city":"大田区","address":"東京都大田区大森西6丁目11-1","lat":35.56903533,"lon":139.72396297},{"name":"大森赤十字病院","province":"東京都","city":"大田区","address":"東京都大田区中央4丁目30-1","lat":35.5787979,"lon":139.71718252},{"name":"東京都保健医療公社荏原病院","province":"東京都","city":"大田区","address":"東京都大田区東雪谷4丁目5-10","lat":35.59460659,"lon":139.69367561},{"name":"臨海斎場","province":"東京都","city":"大田区","address":"東京都大田区東海1丁目3-1","lat":35.58556795,"lon":139.7528242},{"name":"馬込給水所","province":"東京都","city":"大田区","address":"東京都大田区西馬込2丁目15-6","lat":35.58832131,"lon":139.70213893},{"name":"上池台給水所","province":"東京都","city":"大田区","address":"東京都大田区上池台1丁目48-25","lat":35.6004699,"lon":139.69973594},{"name":"区立西六郷三丁目公園","province":"東京都","city":"大田区","address":"東京都大田区西六郷3丁目16-16","lat":35.54629163,"lon":139.7059358},{"name":"区立萩中公園","province":"東京都","city":"大田区","address":"東京都大田区萩中3丁目25-26","lat":35.54972234,"lon":139.73905511},{"name":"区立都堀公園","province":"東京都","city":"大田区","address":"東京都大田区大森東1丁目30","lat":35.57738779,"lon":139.73836722},{"name":"区立下丸子公園","province":"東京都","city":"大田区","address":"東京都大田区下丸子4丁目21","lat":35.56920527,"lon":139.67906532},{"name":"区立女塚なかよし公園","province":"東京都","city":"大田区","address":"東京都大田区池上5丁目24","lat":35.57274857,"lon":139.71105287},{"name":"東海給水所","province":"東京都","city":"大田区","address":"東京都大田区東海1丁目3-12","lat":35.585493,"lon":139.7537297},{"name":"呑川水門","province":"東京都","city":"大田区","address":"東京都大田区大森東5丁目37-28","lat":35.56922547,"lon":139.74610619},{"name":"南前堀水門","province":"東京都","city":"大田区","address":"東京都大田区東糀谷6丁目10-18","lat":35.55664715,"lon":139.75146239},{"name":"大田区立平和島公園運動場","province":"東京都","city":"大田区","address":"東京都大田区平和島4丁目2-2","lat":35.58184851,"lon":139.74213343},{"name":"都立大井埠頭中央海浜公園第２球技場","province":"東京都","city":"大田区","address":"東京都大田区東海1丁目4","lat":35.58593444,"lon":139.74992159},{"name":"京浜島防災広場運動場","province":"東京都","city":"大田区","address":"東京都大田区京浜島2丁目10","lat":35.57091777,"lon":139.7634161},{"name":"丸子橋野球場","province":"東京都","city":"大田区","address":"東京都大田区田園調布本町31","lat":35.58310843,"lon":139.67183161},{"name":"多摩川緑地サッカー場","province":"東京都","city":"大田区","address":"東京都大田区田園調布5丁目54","lat":35.59239824,"lon":139.65872368},{"name":"多摩川緑地野球場（西六郷４丁目）","province":"東京都","city":"大田区","address":"東京都大田区西六郷4丁目33","lat":35.54406986,"lon":139.70286408},{"name":"ガス橋緑地少年サッカー場（下丸子３丁目）","province":"東京都","city":"大田区","address":"東京都大田区下丸子3丁目30","lat":35.5668806,"lon":139.68245956},{"name":"ガス橋緑地少年野球場（下丸子２丁目）","province":"東京都","city":"大田区","address":"東京都大田区下丸子2丁目13","lat":35.56350616,"lon":139.684143},{"name":"東京都保健医療公社荏原病院ヘリポート","province":"東京都","city":"大田区","address":"東京都大田区東雪谷4丁目5-10","lat":35.59460659,"lon":139.69367561},{"name":"東京ガスグラウンド","province":"東京都","city":"大田区","address":"東京都大田区大森東3丁目28-1","lat":35.57249131,"lon":139.7398702},{"name":"多摩川緑地広場硬式野球場Ａ面（旧巨人軍グラウンド）","province":"東京都","city":"大田区","address":"東京都大田区田園調布4丁目44","lat":35.59210389,"lon":139.66145123},{"name":"多摩川大師橋緑地野球場","province":"東京都","city":"大田区","address":"東京都大田区本羽田2丁目14","lat":35.54584467,"lon":139.73048361},{"name":"区民広場（西六郷三丁目）","province":"東京都","city":"大田区","address":"東京都大田区西六郷3丁目13","lat":35.54625004,"lon":139.70335835},{"name":"大田スタジアム","province":"東京都","city":"大田区","address":"東京都大田区東海1丁目2-10","lat":35.58843701,"lon":139.75284626},{"name":"六郷橋緑地野球場","province":"東京都","city":"大田区","address":"東京都大田区東六郷3丁目","lat":35.54202554,"lon":139.71164099},{"name":"多摩川田園調布緑地サッカー場","province":"東京都","city":"大田区","address":"東京都大田区田園調布4丁目","lat":35.59272877,"lon":139.66135396},{"name":"大田区立東調布公園","province":"東京都","city":"大田区","address":"東京都大田区南雪谷5丁目13-1","lat":35.58826574,"lon":139.68930418},{"name":"多摩川大橋緑地","province":"東京都","city":"大田区","address":"東京都大田区矢口3丁目","lat":35.56021468,"lon":139.69576395},{"name":"大田区選挙管理委員会","province":"東京都","city":"大田区","address":"大田区蒲田5-13-14","lat":35.561451,"lon":139.7161},{"name":"大田都税事務所","province":"東京都","city":"大田区","address":"東京都大田区西蒲田7丁目11-1","lat":35.56412477,"lon":139.71108117},{"name":"城南職業能力開発センター大田校","province":"東京都","city":"大田区","address":"東京都大田区本羽田3丁目4-30","lat":35.54887804,"lon":139.73934127},{"name":"産業技術研究センター城南支所","province":"東京都","city":"大田区","address":"東京都大田区南蒲田1丁目20-20","lat":35.55879224,"lon":139.72416907},{"name":"大田桜台高等学校","province":"東京都","city":"大田区","address":"東京都大田区中馬込3丁目11-10","lat":35.59227921,"lon":139.70362198},{"name":"大森高等学校","province":"東京都","city":"大田区","address":"東京都大田区西蒲田2丁目2-1","lat":35.57117099,"lon":139.70945034},{"name":"蒲田高等学校","province":"東京都","city":"大田区","address":"東京都大田区蒲田本町1丁目1-30","lat":35.55773127,"lon":139.71513949},{"name":"田園調布高等学校","province":"東京都","city":"大田区","address":"東京都大田区田園調布南27-1","lat":35.5823113,"lon":139.67655891},{"name":"美原高等学校","province":"東京都","city":"大田区","address":"東京都大田区大森東1丁目33-1","lat":35.57802672,"lon":139.74070317},{"name":"雪谷高等学校","province":"東京都","city":"大田区","address":"東京都大田区久が原1丁目14-1","lat":35.58597717,"lon":139.68956818},{"name":"六郷工科高等学校","province":"東京都","city":"大田区","address":"東京都大田区東六郷2丁目18-2","lat":35.54798845,"lon":139.71575962},{"name":"つばさ総合高等学校","province":"東京都","city":"大田区","address":"東京都大田区本羽田3丁目11-5","lat":35.54750602,"lon":139.73922191},{"name":"東京空港事務所","province":"東京都","city":"大田区","address":"大田区羽田空港3-3-1","lat":35.5537,"lon":139.7822},{"name":"大田区田園調布南倉庫","province":"東京都","city":"大田区","address":"大田区田園調布南3-8区立田園調布南公園内","lat":35.57919,"lon":139.6752},{"name":"大田区南六郷倉庫","province":"東京都","city":"大田区","address":"大田区南六郷1-29-2-101都市再生機構南六郷一丁目団地内","lat":35.5462,"lon":139.7254},{"name":"東邦薬品（株）ＷＩＬＬ平和島","province":"東京都","city":"大田区","address":"大田区平和島6-1-1(株)東京流通センター内AE4-2","lat":35.57911,"lon":139.7477},{"name":"相互産業（株）","province":"東京都","city":"大田区","address":"大田区中央3-19-5","lat":35.57492,"lon":139.7186},{"name":"エアポートクリーンセンター","province":"東京都","city":"大田区","address":"大田区羽田空港3-6-6","lat":35.54332,"lon":139.792267},{"name":"荏原病院","province":"東京都","city":"大田区","address":"東京都大田区東雪谷4丁目5-10","lat":35.59460659,"lon":139.69367561},{"name":"大田区社会福祉協議会","province":"東京都","city":"大田区","address":"大田区西蒲田7-49-2大田区社会福祉センター5、6、7階","lat":35.562558,"lon":139.712639},{"name":"大田区社会福祉協議会","province":"東京都","city":"大田区","address":"大田区西蒲田7-49-2大田区社会福祉センター内","lat":35.56249,"lon":139.71275},{"name":"大田区青少年交流センター（ゆいっつ）","province":"東京都","city":"大田区","address":"東京都大田区平和島4-2-15","lat":35.58352,"lon":139.743012},{"name":"大田図書館","province":"東京都","city":"大田区","address":"東京都大田区田園調布南25番1号","lat":35.581606,"lon":139.676125},{"name":"大森南図書館","province":"東京都","city":"大田区","address":"東京都大田区大森南一丁目17番7号","lat":35.563429,"lon":139.739788},{"name":"大森東図書館","province":"東京都","city":"大田区","address":"東京都大田区大森東一丁目31番3号-104","lat":35.57617,"lon":139.739109},{"name":"大森西図書館","province":"東京都","city":"大田区","address":"東京都大田区大森西五丁目2番13号","lat":35.571869,"lon":139.72604},{"name":"入新井図書館","province":"東京都","city":"大田区","address":"東京都大田区大森北一丁目10番14号(大森複合施設ビル(Luz大森)内)","lat":35.586349,"lon":139.72822},{"name":"馬込図書館","province":"東京都","city":"大田区","address":"東京都大田区中馬込二丁目26番10号","lat":35.595677,"lon":139.71042},{"name":"池上図書館","province":"東京都","city":"大田区","address":"東京都大田区池上六丁目3番10号エトモ池上4階","lat":35.574768,"lon":139.703243},{"name":"久が原図書館","province":"東京都","city":"大田区","address":"東京都大田区久が原二丁目28番4号","lat":35.579334,"lon":139.695276},{"name":"洗足池図書館","province":"東京都","city":"大田区","address":"東京都大田区南千束二丁目2番10号","lat":35.600792,"lon":139.69193},{"name":"浜竹図書館","province":"東京都","city":"大田区","address":"東京都大田区西糀谷三丁目32番7号","lat":35.553368,"lon":139.737368},{"name":"羽田図書館","province":"東京都","city":"大田区","address":"東京都大田区羽田一丁目11番1号","lat":35.55041,"lon":139.74348},{"name":"六郷図書館","province":"東京都","city":"大田区","address":"東京都大田区南六郷三丁目10番3号","lat":35.543921,"lon":139.71401},{"name":"下丸子図書館","province":"東京都","city":"大田区","address":"東京都大田区下丸子二丁目18番11号","lat":35.565849,"lon":139.688037},{"name":"多摩川図書館","province":"東京都","city":"大田区","address":"東京都大田区多摩川二丁目24番63号","lat":35.556123,"lon":139.702316},{"name":"蒲田図書館","province":"東京都","city":"大田区","address":"東京都大田区東蒲田一丁目19番22号","lat":35.563686,"lon":139.728443},{"name":"蒲田駅前図書館","province":"東京都","city":"大田区","address":"東京都大田区蒲田五丁目13番26-301号","lat":35.559837,"lon":139.715496},{"name":"田園調布せせらぎ館","province":"東京都","city":"大田区","address":"東京都大田区田園調布1-53-12","lat":35.5899036,"lon":139.669526},{"name":"大田区役所","province":"東京都","city":"大田区","address":"東京都大田区蒲田5-13-14","lat":35.561326,"lon":139.716082},{"name":"大森東特別出張所","province":"東京都","city":"大田区","address":"東京都大田区大森南四丁目9番1号","lat":35.566933,"lon":139.7459},{"name":"大森西特別出張所","province":"東京都","city":"大田区","address":"東京都大田区大森西二丁目16番2号区民活動支援施設大森(こらぼ大森)1階","lat":35.576557,"lon":139.730251},{"name":"入新井特別出張所","province":"東京都","city":"大田区","address":"東京都大田区大森北一丁目10番14号","lat":35.586449,"lon":139.728206},{"name":"馬込特別出張所","province":"東京都","city":"大田区","address":"東京都大田区中馬込三丁目25番5号","lat":35.593962,"lon":139.709813},{"name":"池上特別出張所","province":"東京都","city":"大田区","address":"東京都大田区池上一丁目29番6号","lat":35.575115,"lon":139.710296},{"name":"新井宿特別出張所","province":"東京都","city":"大田区","address":"東京都大田区中央一丁目21番6号","lat":35.579697,"lon":139.719709},{"name":"嶺町特別出張所","province":"東京都","city":"大田区","address":"東京都大田区田園調布本町7番1号","lat":35.587911,"lon":139.67735},{"name":"田園調布特別出張所","province":"東京都","city":"大田区","address":"東京都大田区田園調布一丁目30番1号","lat":35.588316,"lon":139.67094},{"name":"鵜の木特別出張所","province":"東京都","city":"大田区","address":"東京都大田区南久が原二丁目30番5号","lat":35.574934,"lon":139.685171},{"name":"久が原特別出張所","province":"東京都","city":"大田区","address":"東京都大田区久が原四丁目12番10号","lat":35.580307,"lon":139.693975},{"name":"雪谷特別出張所","province":"東京都","city":"大田区","address":"東京都大田区東雪谷三丁目6番2号","lat":35.594554,"lon":139.691156},{"name":"千束特別出張所","province":"東京都","city":"大田区","address":"東京都大田区南千束二丁目16番19号","lat":35.604988,"lon":139.689441},{"name":"六郷特別出張所","province":"東京都","city":"大田区","address":"東京都大田区仲六郷二丁目44番11号","lat":35.550903,"lon":139.716084},{"name":"矢口特別出張所","province":"東京都","city":"大田区","address":"東京都大田区矢口二丁目21番14号","lat":35.562124,"lon":139.690283},{"name":"蒲田西特別出張所","province":"東京都","city":"大田区","address":"東京都大田区西蒲田七丁目12番2号1階","lat":35.564472,"lon":139.710686},{"name":"蒲田東特別出張所","province":"東京都","city":"大田区","address":"東京都大田区蒲田本町二丁目1番1号","lat":35.558535,"lon":139.718592},{"name":"糀谷特別出張所","province":"東京都","city":"大田区","address":"東京都大田区西糀谷二丁目14番13号","lat":35.55873,"lon":139.73676},{"name":"羽田特別出張所","province":"東京都","city":"大田区","address":"東京都大田区羽田一丁目18番13号","lat":35.549143,"lon":139.741826},{"name":"おおた国際交流センター（Minto Ota）","province":"東京都","city":"大田区","address":"東京都大田区蒲田4-16-82階","lat":35.5613404,"lon":139.7223747},{"name":"消費者生活センター","province":"東京都","city":"大田区","address":"東京都大田区蒲田五丁目13番26-101号","lat":35.559839,"lon":139.715496},{"name":"池上会館","province":"東京都","city":"大田区","address":"東京都大田区池上一丁目32番8号","lat":35.576883,"lon":139.706363},{"name":"新蒲田一丁目複合施設（カムカム新蒲田）","province":"東京都","city":"大田区","address":"東京都大田区新蒲田一丁目18番16号","lat":35.5575665,"lon":139.7110827},{"name":"東邦大学医療センター大森病院","province":"東京都","city":"大田区","address":"東京都大田区大森西6丁目11-1","lat":35.56903533,"lon":139.72396297},{"name":"大森赤十字病院","province":"東京都","city":"大田区","address":"東京都大田区中央4丁目30-1","lat":35.5787979,"lon":139.71718252},{"name":"東京都保健医療公社荏原病院","province":"東京都","city":"大田区","address":"東京都大田区東雪谷4丁目5-10","lat":35.59460659,"lon":139.69367561},{"name":"臨海斎場","province":"東京都","city":"大田区","address":"東京都大田区東海1丁目3-1","lat":35.58556795,"lon":139.7528242},{"name":"馬込給水所","province":"東京都","city":"大田区","address":"東京都大田区西馬込2丁目15-6","lat":35.58832131,"lon":139.70213893},{"name":"上池台給水所","province":"東京都","city":"大田区","address":"東京都大田区上池台1丁目48-25","lat":35.6004699,"lon":139.69973594},{"name":"区立西六郷三丁目公園","province":"東京都","city":"大田区","address":"東京都大田区西六郷3丁目16-16","lat":35.54629163,"lon":139.7059358},{"name":"区立萩中公園","province":"東京都","city":"大田区","address":"東京都大田区萩中3丁目25-26","lat":35.54972234,"lon":139.73905511},{"name":"区立都堀公園","province":"東京都","city":"大田区","address":"東京都大田区大森東1丁目30","lat":35.57738779,"lon":139.73836722},{"name":"区立下丸子公園","province":"東京都","city":"大田区","address":"東京都大田区下丸子4丁目21","lat":35.56920527,"lon":139.67906532},{"name":"区立女塚なかよし公園","province":"東京都","city":"大田区","address":"東京都大田区池上5丁目24","lat":35.57274857,"lon":139.71105287},{"name":"東海給水所","province":"東京都","city":"大田区","address":"東京都大田区東海1丁目3-12","lat":35.585493,"lon":139.7537297},{"name":"呑川水門","province":"東京都","city":"大田区","address":"東京都大田区大森東5丁目37-28","lat":35.56922547,"lon":139.74610619},{"name":"南前堀水門","province":"東京都","city":"大田区","address":"東京都大田区東糀谷6丁目10-18","lat":35.55664715,"lon":139.75146239},{"name":"大田区立平和島公園運動場","province":"東京都","city":"大田区","address":"東京都大田区平和島4丁目2-2","lat":35.58184851,"lon":139.74213343},{"name":"都立大井埠頭中央海浜公園第２球技場","province":"東京都","city":"大田区","address":"東京都大田区東海1丁目4","lat":35.58593444,"lon":139.74992159},{"name":"京浜島防災広場運動場","province":"東京都","city":"大田区","address":"東京都大田区京浜島2丁目10","lat":35.57091777,"lon":139.7634161},{"name":"丸子橋野球場","province":"東京都","city":"大田区","address":"東京都大田区田園調布本町31","lat":35.58310843,"lon":139.67183161},{"name":"多摩川緑地サッカー場","province":"東京都","city":"大田区","address":"東京都大田区田園調布5丁目54","lat":35.59239824,"lon":139.65872368},{"name":"多摩川緑地野球場（西六郷４丁目）","province":"東京都","city":"大田区","address":"東京都大田区西六郷4丁目33","lat":35.54406986,"lon":139.70286408},{"name":"ガス橋緑地少年サッカー場（下丸子３丁目）","province":"東京都","city":"大田区","address":"東京都大田区下丸子3丁目30","lat":35.5668806,"lon":139.68245956},{"name":"ガス橋緑地少年野球場（下丸子２丁目）","province":"東京都","city":"大田区","address":"東京都大田区下丸子2丁目13","lat":35.56350616,"lon":139.684143},{"name":"東京都保健医療公社荏原病院ヘリポート","province":"東京都","city":"大田区","address":"東京都大田区東雪谷4丁目5-10","lat":35.59460659,"lon":139.69367561},{"name":"東京ガスグラウンド","province":"東京都","city":"大田区","address":"東京都大田区大森東3丁目28-1","lat":35.57249131,"lon":139.7398702},{"name":"多摩川緑地広場硬式野球場Ａ面（旧巨人軍グラウンド）","province":"東京都","city":"大田区","address":"東京都大田区田園調布4丁目44","lat":35.59210389,"lon":139.66145123},{"name":"多摩川大師橋緑地野球場","province":"東京都","city":"大田区","address":"東京都大田区本羽田2丁目14","lat":35.54584467,"lon":139.73048361},{"name":"区民広場（西六郷三丁目）","province":"東京都","city":"大田区","address":"東京都大田区西六郷3丁目13","lat":35.54625004,"lon":139.70335835},{"name":"大田スタジアム","province":"東京都","city":"大田区","address":"東京都大田区東海1丁目2-10","lat":35.58843701,"lon":139.75284626},{"name":"六郷橋緑地野球場","province":"東京都","city":"大田区","address":"東京都大田区東六郷3丁目","lat":35.54202554,"lon":139.71164099},{"name":"多摩川田園調布緑地サッカー場","province":"東京都","city":"大田区","address":"東京都大田区田園調布4丁目","lat":35.59272877,"lon":139.66135396},{"name":"大田区立東調布公園","province":"東京都","city":"大田区","address":"東京都大田区南雪谷5丁目13-1","lat":35.58826574,"lon":139.68930418},{"name":"多摩川大橋緑地","province":"東京都","city":"大田区","address":"東京都大田区矢口3丁目","lat":35.56021468,"lon":139.69576395},{"name":"大田都税事務所","province":"東京都","city":"大田区","address":"東京都大田区西蒲田7丁目11-1","lat":35.56412477,"lon":139.71108117},{"name":"城南職業能力開発センター大田校","province":"東京都","city":"大田区","address":"東京都大田区本羽田3丁目4-30","lat":35.54887804,"lon":139.73934127},{"name":"産業技術研究センター城南支所","province":"東京都","city":"大田区","address":"東京都大田区南蒲田1丁目20-20","lat":35.55879224,"lon":139.72416907},{"name":"大田桜台高等学校","province":"東京都","city":"大田区","address":"東京都大田区中馬込3丁目11-10","lat":35.59227921,"lon":139.70362198},{"name":"大森高等学校","province":"東京都","city":"大田区","address":"東京都大田区西蒲田2丁目2-1","lat":35.57117099,"lon":139.70945034},{"name":"蒲田高等学校","province":"東京都","city":"大田区","address":"東京都大田区蒲田本町1丁目1-30","lat":35.55773127,"lon":139.71513949},{"name":"田園調布高等学校","province":"東京都","city":"大田区","address":"東京都大田区田園調布南27-1","lat":35.5823113,"lon":139.67655891},{"name":"美原高等学校","province":"東京都","city":"大田区","address":"東京都大田区大森東1丁目33-1","lat":35.57802672,"lon":139.74070317},{"name":"雪谷高等学校","province":"東京都","city":"大田区","address":"東京都大田区久が原1丁目14-1","lat":35.58597717,"lon":139.68956818},{"name":"六郷工科高等学校","province":"東京都","city":"大田区","address":"東京都大田区東六郷2丁目18-2","lat":35.54798845,"lon":139.71575962},{"name":"つばさ総合高等学校","province":"東京都","city":"大田区","address":"東京都大田区本羽田3丁目11-5","lat":35.54750602,"lon":139.73922191},{"name":"東京空港事務所","province":"東京都","city":"大田区","address":"大田区羽田空港3-3-1","lat":35.5537,"lon":139.7822},{"name":"大田区田園調布南倉庫","province":"東京都","city":"大田区","address":"大田区田園調布南3-8区立田園調布南公園内","lat":35.57919,"lon":139.6752},{"name":"大田区南六郷倉庫","province":"東京都","city":"大田区","address":"大田区南六郷1-29-2-101都市再生機構南六郷一丁目団地内","lat":35.5462,"lon":139.7254},{"name":"東邦薬品（株）ＷＩＬＬ平和島","province":"東京都","city":"大田区","address":"大田区平和島6-1-1(株)東京流通センター内AE4-2","lat":35.57911,"lon":139.7477},{"name":"相互産業（株）","province":"東京都","city":"大田区","address":"大田区中央3-19-5","lat":35.57492,"lon":139.7186},{"name":"エアポートクリーンセンター","province":"東京都","city":"大田区","address":"大田区羽田空港3-6-6","lat":35.54332,"lon":139.792267},{"name":"荏原病院","province":"東京都","city":"大田区","address":"東京都大田区東雪谷4丁目5-10","lat":35.59460659,"lon":139.69367561},{"name":"大田区青少年交流センター（ゆいっつ）","province":"東京都","city":"大田区","address":"東京都大田区平和島4-2-15","lat":35.58352,"lon":139.743012},{"name":"大田図書館","province":"東京都","city":"大田区","address":"東京都大田区田園調布南25番1号","lat":35.581606,"lon":139.676125},{"name":"大森南図書館","province":"東京都","city":"大田区","address":"東京都大田区大森南一丁目17番7号","lat":35.563429,"lon":139.739788},{"name":"大森東図書館","province":"東京都","city":"大田区","address":"東京都大田区大森東一丁目31番3号-104","lat":35.57617,"lon":139.739109},{"name":"大森西図書館","province":"東京都","city":"大田区","address":"東京都大田区大森西五丁目2番13号","lat":35.571869,"lon":139.72604},{"name":"入新井図書館","province":"東京都","city":"大田区","address":"東京都大田区大森北一丁目10番14号(大森複合施設ビル(Luz大森)内)","lat":35.586349,"lon":139.72822},{"name":"馬込図書館","province":"東京都","city":"大田区","address":"東京都大田区中馬込二丁目26番10号","lat":35.595677,"lon":139.71042},{"name":"池上図書館","province":"東京都","city":"大田区","address":"東京都大田区池上六丁目3番10号エトモ池上4階","lat":35.574768,"lon":139.703243},{"name":"久が原図書館","province":"東京都","city":"大田区","address":"東京都大田区久が原二丁目28番4号","lat":35.579334,"lon":139.695276},{"name":"洗足池図書館","province":"東京都","city":"大田区","address":"東京都大田区南千束二丁目2番10号","lat":35.600792,"lon":139.69193},{"name":"浜竹図書館","province":"東京都","city":"大田区","address":"東京都大田区西糀谷三丁目32番7号","lat":35.553368,"lon":139.737368},{"name":"羽田図書館","province":"東京都","city":"大田区","address":"東京都大田区羽田一丁目11番1号","lat":35.55041,"lon":139.74348},{"name":"六郷図書館","province":"東京都","city":"大田区","address":"東京都大田区南六郷三丁目10番3号","lat":35.543921,"lon":139.71401},{"name":"下丸子図書館","province":"東京都","city":"大田区","address":"東京都大田区下丸子二丁目18番11号","lat":35.565849,"lon":139.688037},{"name":"多摩川図書館","province":"東京都","city":"大田区","address":"東京都大田区多摩川二丁目24番63号","lat":35.556123,"lon":139.702316},{"name":"蒲田図書館","province":"東京都","city":"大田区","address":"東京都大田区東蒲田一丁目19番22号","lat":35.563686,"lon":139.728443},{"name":"蒲田駅前図書館","province":"東京都","city":"大田区","address":"東京都大田区蒲田五丁目13番26-301号","lat":35.559837,"lon":139.715496},{"name":"田園調布せせらぎ館","province":"東京都","city":"大田区","address":"東京都大田区田園調布1-53-12","lat":35.5899036,"lon":139.669526},{"name":"大田区役所","province":"東京都","city":"大田区","address":"東京都大田区蒲田5-13-14","lat":35.561326,"lon":139.716082},{"name":"大森東特別出張所","province":"東京都","city":"大田区","address":"東京都大田区大森南四丁目9番1号","lat":35.566933,"lon":139.7459},{"name":"大森西特別出張所","province":"東京都","city":"大田区","address":"東京都大田区大森西二丁目16番2号区民活動支援施設大森(こらぼ大森)1階","lat":35.576557,"lon":139.730251},{"name":"入新井特別出張所","province":"東京都","city":"大田区","address":"東京都大田区大森北一丁目10番14号","lat":35.586449,"lon":139.728206},{"name":"馬込特別出張所","province":"東京都","city":"大田区","address":"東京都大田区中馬込三丁目25番5号","lat":35.593962,"lon":139.709813},{"name":"池上特別出張所","province":"東京都","city":"大田区","address":"東京都大田区池上一丁目29番6号","lat":35.575115,"lon":139.710296},{"name":"新井宿特別出張所","province":"東京都","city":"大田区","address":"東京都大田区中央一丁目21番6号","lat":35.579697,"lon":139.719709},{"name":"嶺町特別出張所","province":"東京都","city":"大田区","address":"東京都大田区田園調布本町7番1号","lat":35.587911,"lon":139.67735},{"name":"田園調布特別出張所","province":"東京都","city":"大田区","address":"東京都大田区田園調布一丁目30番1号","lat":35.588316,"lon":139.67094},{"name":"鵜の木特別出張所","province":"東京都","city":"大田区","address":"東京都大田区南久が原二丁目30番5号","lat":35.574934,"lon":139.685171},{"name":"久が原特別出張所","province":"東京都","city":"大田区","address":"東京都大田区久が原四丁目12番10号","lat":35.580307,"lon":139.693975},{"name":"雪谷特別出張所","province":"東京都","city":"大田区","address":"東京都大田区東雪谷三丁目6番2号","lat":35.594554,"lon":139.691156},{"name":"千束特別出張所","province":"東京都","city":"大田区","address":"東京都大田区南千束二丁目16番19号","lat":35.604988,"lon":139.689441},{"name":"六郷特別出張所","province":"東京都","city":"大田区","address":"東京都大田区仲六郷二丁目44番11号","lat":35.550903,"lon":139.716084},{"name":"矢口特別出張所","province":"東京都","city":"大田区","address":"東京都大田区矢口二丁目21番14号","lat":35.562124,"lon":139.690283},{"name":"蒲田西特別出張所","province":"東京都","city":"大田区","address":"東京都大田区西蒲田七丁目12番2号1階","lat":35.564472,"lon":139.710686},{"name":"蒲田東特別出張所","province":"東京都","city":"大田区","address":"東京都大田区蒲田本町二丁目1番1号","lat":35.558535,"lon":139.718592},{"name":"糀谷特別出張所","province":"東京都","city":"大田区","address":"東京都大田区西糀谷二丁目14番13号","lat":35.55873,"lon":139.73676},{"name":"羽田特別出張所","province":"東京都","city":"大田区","address":"東京都大田区羽田一丁目18番13号","lat":35.549143,"lon":139.741826},{"name":"おおた国際交流センター（Minto Ota）","province":"東京都","city":"大田区","address":"東京都大田区蒲田4-16-82階","lat":35.5613404,"lon":139.7223747},{"name":"消費者生活センター","province":"東京都","city":"大田区","address":"東京都大田区蒲田五丁目13番26-101号","lat":35.559839,"lon":139.715496},{"name":"池上会館","province":"東京都","city":"大田区","address":"東京都大田区池上一丁目32番8号","lat":35.576883,"lon":139.706363},{"name":"新蒲田一丁目複合施設（カムカム新蒲田）","province":"東京都","city":"大田区","address":"東京都大田区新蒲田一丁目18番16号","lat":35.5575665,"lon":139.7110827},{"name":"東邦大学医療センター大森病院","province":"東京都","city":"大田区","address":"東京都大田区大森西6丁目11-1","lat":35.56903533,"lon":139.72396297},{"name":"大森赤十字病院","province":"東京都","city":"大田区","address":"東京都大田区中央4丁目30-1","lat":35.5787979,"lon":139.71718252},{"name":"東京都保健医療公社荏原病院","province":"東京都","city":"大田区","address":"東京都大田区東雪谷4丁目5-10","lat":35.59460659,"lon":139.69367561},{"name":"呑川水門","province":"東京都","city":"大田区","address":"東京都大田区大森東5丁目37-28","lat":35.56922547,"lon":139.74610619},{"name":"南前堀水門","province":"東京都","city":"大田区","address":"東京都大田区東糀谷6丁目10-18","lat":35.55664715,"lon":139.75146239},{"name":"大田都税事務所","province":"東京都","city":"大田区","address":"東京都大田区西蒲田7丁目11-1","lat":35.56412477,"lon":139.71108117},{"name":"城南職業能力開発センター大田校","province":"東京都","city":"大田区","address":"東京都大田区本羽田3丁目4-30","lat":35.54887804,"lon":139.73934127},{"name":"産業技術研究センター城南支所","province":"東京都","city":"大田区","address":"東京都大田区南蒲田1丁目20-20","lat":35.55879224,"lon":139.72416907},{"name":"大田桜台高等学校","province":"東京都","city":"大田区","address":"東京都大田区中馬込3丁目11-10","lat":35.59227921,"lon":139.70362198},{"name":"大森高等学校","province":"東京都","city":"大田区","address":"東京都大田区西蒲田2丁目2-1","lat":35.57117099,"lon":139.70945034},{"name":"蒲田高等学校","province":"東京都","city":"大田区","address":"東京都大田区蒲田本町1丁目1-30","lat":35.55773127,"lon":139.71513949},{"name":"田園調布高等学校","province":"東京都","city":"大田区","address":"東京都大田区田園調布南27-1","lat":35.5823113,"lon":139.67655891},{"name":"美原高等学校","province":"東京都","city":"大田区","address":"東京都大田区大森東1丁目33-1","lat":35.57802672,"lon":139.74070317},{"name":"雪谷高等学校","province":"東京都","city":"大田区","address":"東京都大田区久が原1丁目14-1","lat":35.58597717,"lon":139.68956818},{"name":"六郷工科高等学校","province":"東京都","city":"大田区","address":"東京都大田区東六郷2丁目18-2","lat":35.54798845,"lon":139.71575962},{"name":"つばさ総合高等学校","province":"東京都","city":"大田区","address":"東京都大田区本羽田3丁目11-5","lat":35.54750602,"lon":139.73922191},{"name":"荏原病院","province":"東京都","city":"大田区","address":"東京都大田区東雪谷4丁目5-10","lat":35.59460659,"lon":139.69367561},{"name":"大田区青少年交流センター（ゆいっつ）","province":"東京都","city":"大田区","address":"東京都大田区平和島4-2-15","lat":35.58352,"lon":139.743012},{"name":"大田図書館","province":"東京都","city":"大田区","address":"東京都大田区田園調布南25番1号","lat":35.581606,"lon":139.676125},{"name":"大森南図書館","province":"東京都","city":"大田区","address":"東京都大田区大森南一丁目17番7号","lat":35.563429,"lon":139.739788},{"name":"大森東図書館","province":"東京都","city":"大田区","address":"東京都大田区大森東一丁目31番3号-104","lat":35.57617,"lon":139.739109},{"name":"大森西図書館","province":"東京都","city":"大田区","address":"東京都大田区大森西五丁目2番13号","lat":35.571869,"lon":139.72604},{"name":"入新井図書館","province":"東京都","city":"大田区","address":"東京都大田区大森北一丁目10番14号(大森複合施設ビル(Luz大森)内)","lat":35.586349,"lon":139.72822},{"name":"馬込図書館","province":"東京都","city":"大田区","address":"東京都大田区中馬込二丁目26番10号","lat":35.595677,"lon":139.71042},{"name":"池上図書館","province":"東京都","city":"大田区","address":"東京都大田区池上六丁目3番10号エトモ池上4階","lat":35.574768,"lon":139.703243},{"name":"久が原図書館","province":"東京都","city":"大田区","address":"東京都大田区久が原二丁目28番4号","lat":35.579334,"lon":139.695276},{"name":"洗足池図書館","province":"東京都","city":"大田区","address":"東京都大田区南千束二丁目2番10号","lat":35.600792,"lon":139.69193},{"name":"浜竹図書館","province":"東京都","city":"大田区","address":"東京都大田区西糀谷三丁目32番7号","lat":35.553368,"lon":139.737368},{"name":"羽田図書館","province":"東京都","city":"大田区","address":"東京都大田区羽田一丁目11番1号","lat":35.55041,"lon":139.74348},{"name":"六郷図書館","province":"東京都","city":"大田区","address":"東京都大田区南六郷三丁目10番3号","lat":35.543921,"lon":139.71401},{"name":"下丸子図書館","province":"東京都","city":"大田区","address":"東京都大田区下丸子二丁目18番11号","lat":35.565849,"lon":139.688037},{"name":"多摩川図書館","province":"東京都","city":"大田区","address":"東京都大田区多摩川二丁目24番63号","lat":35.556123,"lon":139.702316},{"name":"蒲田図書館","province":"東京都","city":"大田区","address":"東京都大田区東蒲田一丁目19番22号","lat":35.563686,"lon":139.728443},{"name":"蒲田駅前図書館","province":"東京都","city":"大田区","address":"東京都大田区蒲田五丁目13番26-301号","lat":35.559837,"lon":139.715496},{"name":"田園調布せせらぎ館","province":"東京都","city":"大田区","address":"東京都大田区田園調布1-53-12","lat":35.5899036,"lon":139.669526},{"name":"大田区役所","province":"東京都","city":"大田区","address":"東京都大田区蒲田5-13-14","lat":35.561326,"lon":139.716082},{"name":"大森東特別出張所","province":"東京都","city":"大田区","address":"東京都大田区大森南四丁目9番1号","lat":35.566933,"lon":139.7459},{"name":"大森西特別出張所","province":"東京都","city":"大田区","address":"東京都大田区大森西二丁目16番2号区民活動支援施設大森(こらぼ大森)1階","lat":35.576557,"lon":139.730251},{"name":"入新井特別出張所","province":"東京都","city":"大田区","address":"東京都大田区大森北一丁目10番14号","lat":35.586449,"lon":139.728206},{"name":"馬込特別出張所","province":"東京都","city":"大田区","address":"東京都大田区中馬込三丁目25番5号","lat":35.593962,"lon":139.709813},{"name":"池上特別出張所","province":"東京都","city":"大田区","address":"東京都大田区池上一丁目29番6号","lat":35.575115,"lon":139.710296},{"name":"新井宿特別出張所","province":"東京都","city":"大田区","address":"東京都大田区中央一丁目21番6号","lat":35.579697,"lon":139.719709},{"name":"嶺町特別出張所","province":"東京都","city":"大田区","address":"東京都大田区田園調布本町7番1号","lat":35.587911,"lon":139.67735},{"name":"田園調布特別出張所","province":"東京都","city":"大田区","address":"東京都大田区田園調布一丁目30番1号","lat":35.588316,"lon":139.67094},{"name":"鵜の木特別出張所","province":"東京都","city":"大田区","address":"東京都大田区南久が原二丁目30番5号","lat":35.574934,"lon":139.685171},{"name":"久が原特別出張所","province":"東京都","city":"大田区","address":"東京都大田区久が原四丁目12番10号","lat":35.580307,"lon":139.693975},{"name":"雪谷特別出張所","province":"東京都","city":"大田区","address":"東京都大田区東雪谷三丁目6番2号","lat":35.594554,"lon":139.691156},{"name":"千束特別出張所","province":"東京都","city":"大田区","address":"東京都大田区南千束二丁目16番19号","lat":35.604988,"lon":139.689441},{"name":"六郷特別出張所","province":"東京都","city":"大田区","address":"東京都大田区仲六郷二丁目44番11号","lat":35.550903,"lon":139.716084},{"name":"矢口特別出張所","province":"東京都","city":"大田区","address":"東京都大田区矢口二丁目21番14号","lat":35.562124,"lon":139.690283},{"name":"蒲田西特別出張所","province":"東京都","city":"大田区","address":"東京都大田区西蒲田七丁目12番2号1階","lat":35.564472,"lon":139.710686},{"name":"蒲田東特別出張所","province":"東京都","city":"大田区","address":"東京都大田区蒲田本町二丁目1番1号","lat":35.558535,"lon":139.718592},{"name":"糀谷特別出張所","province":"東京都","city":"大田区","address":"東京都大田区西糀谷二丁目14番13号","lat":35.55873,"lon":139.73676},{"name":"羽田特別出張所","province":"東京都","city":"大田区","address":"東京都大田区羽田一丁目18番13号","lat":35.549143,"lon":139.741826},{"name":"おおた国際交流センター（Minto Ota）","province":"東京都","city":"大田区","address":"東京都大田区蒲田4-16-82階","lat":35.5613404,"lon":139.7223747},{"name":"消費者生活センター","province":"東京都","city":"大田区","address":"東京都大田区蒲田五丁目13番26-101号","lat":35.559839,"lon":139.715496},{"name":"池上会館","province":"東京都","city":"大田区","address":"東京都大田区池上一丁目32番8号","lat":35.576883,"lon":139.706363},{"name":"新蒲田一丁目複合施設（カムカム新蒲田）","province":"東京都","city":"大田区","address":"東京都大田区新蒲田一丁目18番16号","lat":35.5575665,"lon":139.7110827},{"name":"東邦大学医療センター大森病院","province":"東京都","city":"大田区","address":"東京都大田区大森西6丁目11-1","lat":35.56903533,"lon":139.72396297},{"name":"大森赤十字病院","province":"東京都","city":"大田区","address":"東京都大田区中央4丁目30-1","lat":35.5787979,"lon":139.71718252},{"name":"東京都保健医療公社荏原病院","province":"東京都","city":"大田区","address":"東京都大田区東雪谷4丁目5-10","lat":35.59460659,"lon":139.69367561},{"name":"呑川水門","province":"東京都","city":"大田区","address":"東京都大田区大森東5丁目37-28","lat":35.56922547,"lon":139.74610619},{"name":"南前堀水門","province":"東京都","city":"大田区","address":"東京都大田区東糀谷6丁目10-18","lat":35.55664715,"lon":139.75146239},{"name":"大田都税事務所","province":"東京都","city":"大田区","address":"東京都大田区西蒲田7丁目11-1","lat":35.56412477,"lon":139.71108117},{"name":"城南職業能力開発センター大田校","province":"東京都","city":"大田区","address":"東京都大田区本羽田3丁目4-30","lat":35.54887804,"lon":139.73934127},{"name":"産業技術研究センター城南支所","province":"東京都","city":"大田区","address":"東京都大田区南蒲田1丁目20-20","lat":35.55879224,"lon":139.72416907},{"name":"大田桜台高等学校","province":"東京都","city":"大田区","address":"東京都大田区中馬込3丁目11-10","lat":35.59227921,"lon":139.70362198},{"name":"大森高等学校","province":"東京都","city":"大田区","address":"東京都大田区西蒲田2丁目2-1","lat":35.57117099,"lon":139.70945034},{"name":"蒲田高等学校","province":"東京都","city":"大田区","address":"東京都大田区蒲田本町1丁目1-30","lat":35.55773127,"lon":139.71513949},{"name":"田園調布高等学校","province":"東京都","city":"大田区","address":"東京都大田区田園調布南27-1","lat":35.5823113,"lon":139.67655891},{"name":"美原高等学校","province":"東京都","city":"大田区","address":"東京都大田区大森東1丁目33-1","lat":35.57802672,"lon":139.74070317},{"name":"雪谷高等学校","province":"東京都","city":"大田区","address":"東京都大田区久が原1丁目14-1","lat":35.58597717,"lon":139.68956818},{"name":"六郷工科高等学校","province":"東京都","city":"大田区","address":"東京都大田区東六郷2丁目18-2","lat":35.54798845,"lon":139.71575962},{"name":"つばさ総合高等学校","province":"東京都","city":"大田区","address":"東京都大田区本羽田3丁目11-5","lat":35.54750602,"lon":139.73922191},{"name":"荏原病院","province":"東京都","city":"大田区","address":"東京都大田区東雪谷4丁目5-10","lat":35.59460659,"lon":139.69367561},{"name":"大田区青少年交流センター（ゆいっつ）","province":"東京都","city":"大田区","address":"東京都大田区平和島4-2-15","lat":35.58352,"lon":139.743012},{"name":"大田図書館","province":"東京都","city":"大田区","address":"東京都大田区田園調布南25番1号","lat":35.581606,"lon":139.676125},{"name":"大森南図書館","province":"東京都","city":"大田区","address":"東京都大田区大森南一丁目17番7号","lat":35.563429,"lon":139.739788},{"name":"大森東図書館","province":"東京都","city":"大田区","address":"東京都大田区大森東一丁目31番3号-104","lat":35.57617,"lon":139.739109},{"name":"大森西図書館","province":"東京都","city":"大田区","address":"東京都大田区大森西五丁目2番13号","lat":35.571869,"lon":139.72604},{"name":"入新井図書館","province":"東京都","city":"大田区","address":"東京都大田区大森北一丁目10番14号(大森複合施設ビル(Luz大森)内)","lat":35.586349,"lon":139.72822},{"name":"馬込図書館","province":"東京都","city":"大田区","address":"東京都大田区中馬込二丁目26番10号","lat":35.595677,"lon":139.71042},{"name":"池上図書館","province":"東京都","city":"大田区","address":"東京都大田区池上六丁目3番10号エトモ池上4階","lat":35.574768,"lon":139.703243},{"name":"久が原図書館","province":"東京都","city":"大田区","address":"東京都大田区久が原二丁目28番4号","lat":35.579334,"lon":139.695276},{"name":"洗足池図書館","province":"東京都","city":"大田区","address":"東京都大田区南千束二丁目2番10号","lat":35.600792,"lon":139.69193},{"name":"浜竹図書館","province":"東京都","city":"大田区","address":"東京都大田区西糀谷三丁目32番7号","lat":35.553368,"lon":139.737368},{"name":"羽田図書館","province":"東京都","city":"大田区","address":"東京都大田区羽田一丁目11番1号","lat":35.55041,"lon":139.74348},{"name":"六郷図書館","province":"東京都","city":"大田区","address":"東京都大田区南六郷三丁目10番3号","lat":35.543921,"lon":139.71401},{"name":"下丸子図書館","province":"東京都","city":"大田区","address":"東京都大田区下丸子二丁目18番11号","lat":35.565849,"lon":139.688037},{"name":"多摩川図書館","province":"東京都","city":"大田区","address":"東京都大田区多摩川二丁目24番63号","lat":35.556123,"lon":139.702316},{"name":"蒲田図書館","province":"東京都","city":"大田区","address":"東京都大田区東蒲田一丁目19番22号","lat":35.563686,"lon":139.728443},{"name":"蒲田駅前図書館","province":"東京都","city":"大田区","address":"東京都大田区蒲田五丁目13番26-301号","lat":35.559837,"lon":139.715496},{"name":"田園調布せせらぎ館","province":"東京都","city":"大田区","address":"東京都大田区田園調布1-53-12","lat":35.5899036,"lon":139.669526},{"name":"大田区役所","province":"東京都","city":"大田区","address":"東京都大田区蒲田5-13-14","lat":35.561326,"lon":139.716082},{"name":"大森東特別出張所","province":"東京都","city":"大田区","address":"東京都大田区大森南四丁目9番1号","lat":35.566933,"lon":139.7459},{"name":"大森西特別出張所","province":"東京都","city":"大田区","address":"東京都大田区大森西二丁目16番2号区民活動支援施設大森(こらぼ大森)1階","lat":35.576557,"lon":139.730251},{"name":"入新井特別出張所","province":"東京都","city":"大田区","address":"東京都大田区大森北一丁目10番14号","lat":35.586449,"lon":139.728206},{"name":"馬込特別出張所","province":"東京都","city":"大田区","address":"東京都大田区中馬込三丁目25番5号","lat":35.593962,"lon":139.709813},{"name":"池上特別出張所","province":"東京都","city":"大田区","address":"東京都大田区池上一丁目29番6号","lat":35.575115,"lon":139.710296},{"name":"新井宿特別出張所","province":"東京都","city":"大田区","address":"東京都大田区中央一丁目21番6号","lat":35.579697,"lon":139.719709},{"name":"嶺町特別出張所","province":"東京都","city":"大田区","address":"東京都大田区田園調布本町7番1号","lat":35.587911,"lon":139.67735},{"name":"田園調布特別出張所","province":"東京都","city":"大田区","address":"東京都大田区田園調布一丁目30番1号","lat":35.588316,"lon":139.67094},{"name":"鵜の木特別出張所","province":"東京都","city":"大田区","address":"東京都大田区南久が原二丁目30番5号","lat":35.574934,"lon":139.685171},{"name":"久が原特別出張所","province":"東京都","city":"大田区","address":"東京都大田区久が原四丁目12番10号","lat":35.580307,"lon":139.693975},{"name":"雪谷特別出張所","province":"東京都","city":"大田区","address":"東京都大田区東雪谷三丁目6番2号","lat":35.594554,"lon":139.691156},{"name":"千束特別出張所","province":"東京都","city":"大田区","address":"東京都大田区南千束二丁目16番19号","lat":35.604988,"lon":139.689441},{"name":"六郷特別出張所","province":"東京都","city":"大田区","address":"東京都大田区仲六郷二丁目44番11号","lat":35.550903,"lon":139.716084},{"name":"矢口特別出張所","province":"東京都","city":"大田区","address":"東京都大田区矢口二丁目21番14号","lat":35.562124,"lon":139.690283},{"name":"蒲田西特別出張所","province":"東京都","city":"大田区","address":"東京都大田区西蒲田七丁目12番2号1階","lat":35.564472,"lon":139.710686},{"name":"蒲田東特別出張所","province":"東京都","city":"大田区","address":"東京都大田区蒲田本町二丁目1番1号","lat":35.558535,"lon":139.718592},{"name":"糀谷特別出張所","province":"東京都","city":"大田区","address":"東京都大田区西糀谷二丁目14番13号","lat":35.55873,"lon":139.73676},{"name":"羽田特別出張所","province":"東京都","city":"大田区","address":"東京都大田区羽田一丁目18番13号","lat":35.549143,"lon":139.741826},{"name":"おおた国際交流センター（Minto Ota）","province":"東京都","city":"大田区","address":"東京都大田区蒲田4-16-82階","lat":35.5613404,"lon":139.7223747},{"name":"消費者生活センター","province":"東京都","city":"大田区","address":"東京都大田区蒲田五丁目13番26-101号","lat":35.559839,"lon":139.715496},{"name":"池上会館","province":"東京都","city":"大田区","address":"東京都大田区池上一丁目32番8号","lat":35.576883,"lon":139.706363},{"name":"新蒲田一丁目複合施設（カムカム新蒲田）","province":"東京都","city":"大田区","address":"東京都大田区新蒲田一丁目18番16号","lat":35.5575665,"lon":139.7110827},{"name":"荏原病院","province":"東京都","city":"大田区","address":"東京都大田区東雪谷4丁目5-10","lat":35.59460659,"lon":139.69367561},{"name":"大田区青少年交流センター（ゆいっつ）","province":"東京都","city":"大田区","address":"東京都大田区平和島4-2-15","lat":35.58352,"lon":139.743012},{"name":"大田図書館","province":"東京都","city":"大田区","address":"東京都大田区田園調布南25番1号","lat":35.581606,"lon":139.676125},{"name":"大森南図書館","province":"東京都","city":"大田区","address":"東京都大田区大森南一丁目17番7号","lat":35.563429,"lon":139.739788},{"name":"大森東図書館","province":"東京都","city":"大田区","address":"東京都大田区大森東一丁目31番3号-104","lat":35.57617,"lon":139.739109},{"name":"大森西図書館","province":"東京都","city":"大田区","address":"東京都大田区大森西五丁目2番13号","lat":35.571869,"lon":139.72604},{"name":"入新井図書館","province":"東京都","city":"大田区","address":"東京都大田区大森北一丁目10番14号(大森複合施設ビル(Luz大森)内)","lat":35.586349,"lon":139.72822},{"name":"馬込図書館","province":"東京都","city":"大田区","address":"東京都大田区中馬込二丁目26番10号","lat":35.595677,"lon":139.71042},{"name":"池上図書館","province":"東京都","city":"大田区","address":"東京都大田区池上六丁目3番10号エトモ池上4階","lat":35.574768,"lon":139.703243},{"name":"久が原図書館","province":"東京都","city":"大田区","address":"東京都大田区久が原二丁目28番4号","lat":35.579334,"lon":139.695276},{"name":"洗足池図書館","province":"東京都","city":"大田区","address":"東京都大田区南千束二丁目2番10号","lat":35.600792,"lon":139.69193},{"name":"浜竹図書館","province":"東京都","city":"大田区","address":"東京都大田区西糀谷三丁目32番7号","lat":35.553368,"lon":139.737368},{"name":"羽田図書館","province":"東京都","city":"大田区","address":"東京都大田区羽田一丁目11番1号","lat":35.55041,"lon":139.74348},{"name":"六郷図書館","province":"東京都","city":"大田区","address":"東京都大田区南六郷三丁目10番3号","lat":35.543921,"lon":139.71401},{"name":"下丸子図書館","province":"東京都","city":"大田区","address":"東京都大田区下丸子二丁目18番11号","lat":35.565849,"lon":139.688037},{"name":"多摩川図書館","province":"東京都","city":"大田区","address":"東京都大田区多摩川二丁目24番63号","lat":35.556123,"lon":139.702316},{"name":"蒲田図書館","province":"東京都","city":"大田区","address":"東京都大田区東蒲田一丁目19番22号","lat":35.563686,"lon":139.728443},{"name":"蒲田駅前図書館","province":"東京都","city":"大田区","address":"東京都大田区蒲田五丁目13番26-301号","lat":35.559837,"lon":139.715496},{"name":"田園調布せせらぎ館","province":"東京都","city":"大田区","address":"東京都大田区田園調布1-53-12","lat":35.5899036,"lon":139.669526},{"name":"大田区役所","province":"東京都","city":"大田区","address":"東京都大田区蒲田5-13-14","lat":35.561326,"lon":139.716082},{"name":"大森東特別出張所","province":"東京都","city":"大田区","address":"東京都大田区大森南四丁目9番1号","lat":35.566933,"lon":139.7459},{"name":"大森西特別出張所","province":"東京都","city":"大田区","address":"東京都大田区大森西二丁目16番2号区民活動支援施設大森(こらぼ大森)1階","lat":35.576557,"lon":139.730251},{"name":"入新井特別出張所","province":"東京都","city":"大田区","address":"東京都大田区大森北一丁目10番14号","lat":35.586449,"lon":139.728206},{"name":"馬込特別出張所","province":"東京都","city":"大田区","address":"東京都大田区中馬込三丁目25番5号","lat":35.593962,"lon":139.709813},{"name":"池上特別出張所","province":"東京都","city":"大田区","address":"東京都大田区池上一丁目29番6号","lat":35.575115,"lon":139.710296},{"name":"新井宿特別出張所","province":"東京都","city":"大田区","address":"東京都大田区中央一丁目21番6号","lat":35.579697,"lon":139.719709},{"name":"嶺町特別出張所","province":"東京都","city":"大田区","address":"東京都大田区田園調布本町7番1号","lat":35.587911,"lon":139.67735},{"name":"田園調布特別出張所","province":"東京都","city":"大田区","address":"東京都大田区田園調布一丁目30番1号","lat":35.588316,"lon":139.67094},{"name":"鵜の木特別出張所","province":"東京都","city":"大田区","address":"東京都大田区南久が原二丁目30番5号","lat":35.574934,"lon":139.685171},{"name":"久が原特別出張所","province":"東京都","city":"大田区","address":"東京都大田区久が原四丁目12番10号","lat":35.580307,"lon":139.693975},{"name":"雪谷特別出張所","province":"東京都","city":"大田区","address":"東京都大田区東雪谷三丁目6番2号","lat":35.594554,"lon":139.691156},{"name":"千束特別出張所","province":"東京都","city":"大田区","address":"東京都大田区南千束二丁目16番19号","lat":35.604988,"lon":139.689441},{"name":"六郷特別出張所","province":"東京都","city":"大田区","address":"東京都大田区仲六郷二丁目44番11号","lat":35.550903,"lon":139.716084},{"name":"矢口特別出張所","province":"東京都","city":"大田区","address":"東京都大田区矢口二丁目21番14号","lat":35.562124,"lon":139.690283},{"name":"蒲田西特別出張所","province":"東京都","city":"大田区","address":"東京都大田区西蒲田七丁目12番2号1階","lat":35.564472,"lon":139.710686},{"name":"蒲田東特別出張所","province":"東京都","city":"大田区","address":"東京都大田区蒲田本町二丁目1番1号","lat":35.558535,"lon":139.718592},{"name":"糀谷特別出張所","province":"東京都","city":"大田区","address":"東京都大田区西糀谷二丁目14番13号","lat":35.55873,"lon":139.73676},{"name":"羽田特別出張所","province":"東京都","city":"大田区","address":"東京都大田区羽田一丁目18番13号","lat":35.549143,"lon":139.741826},{"name":"おおた国際交流センター（Minto Ota）","province":"東京都","city":"大田区","address":"東京都大田区蒲田4-16-82階","lat":35.5613404,"lon":139.7223747},{"name":"消費者生活センター","province":"東京都","city":"大田区","address":"東京都大田区蒲田五丁目13番26-101号","lat":35.559839,"lon":139.715496},{"name":"池上会館","province":"東京都","city":"大田区","address":"東京都大田区池上一丁目32番8号","lat":35.576883,"lon":139.706363},{"name":"新蒲田一丁目複合施設（カムカム新蒲田）","province":"東京都","city":"大田区","address":"東京都大田区新蒲田一丁目18番16号","lat":35.5575665,"lon":139.7110827},{"name":"大田区青少年交流センター（ゆいっつ）","province":"東京都","city":"大田区","address":"東京都大田区平和島4-2-15","lat":35.58352,"lon":139.743012},{"name":"大田図書館","province":"東京都","city":"大田区","address":"東京都大田区田園調布南25番1号","lat":35.581606,"lon":139.676125},{"name":"大森南図書館","province":"東京都","city":"大田区","address":"東京都大田区大森南一丁目17番7号","lat":35.563429,"lon":139.739788},{"name":"大森東図書館","province":"東京都","city":"大田区","address":"東京都大田区大森東一丁目31番3号-104","lat":35.57617,"lon":139.739109},{"name":"大森西図書館","province":"東京都","city":"大田区","address":"東京都大田区大森西五丁目2番13号","lat":35.571869,"lon":139.72604},{"name":"入新井図書館","province":"東京都","city":"大田区","address":"東京都大田区大森北一丁目10番14号(大森複合施設ビル(Luz大森)内)","lat":35.586349,"lon":139.72822},{"name":"馬込図書館","province":"東京都","city":"大田区","address":"東京都大田区中馬込二丁目26番10号","lat":35.595677,"lon":139.71042},{"name":"池上図書館","province":"東京都","city":"大田区","address":"東京都大田区池上六丁目3番10号エトモ池上4階","lat":35.574768,"lon":139.703243},{"name":"久が原図書館","province":"東京都","city":"大田区","address":"東京都大田区久が原二丁目28番4号","lat":35.579334,"lon":139.695276},{"name":"洗足池図書館","province":"東京都","city":"大田区","address":"東京都大田区南千束二丁目2番10号","lat":35.600792,"lon":139.69193},{"name":"浜竹図書館","province":"東京都","city":"大田区","address":"東京都大田区西糀谷三丁目32番7号","lat":35.553368,"lon":139.737368},{"name":"羽田図書館","province":"東京都","city":"大田区","address":"東京都大田区羽田一丁目11番1号","lat":35.55041,"lon":139.74348},{"name":"六郷図書館","province":"東京都","city":"大田区","address":"東京都大田区南六郷三丁目10番3号","lat":35.543921,"lon":139.71401},{"name":"下丸子図書館","province":"東京都","city":"大田区","address":"東京都大田区下丸子二丁目18番11号","lat":35.565849,"lon":139.688037},{"name":"多摩川図書館","province":"東京都","city":"大田区","address":"東京都大田区多摩川二丁目24番63号","lat":35.556123,"lon":139.702316},{"name":"蒲田図書館","province":"東京都","city":"大田区","address":"東京都大田区東蒲田一丁目19番22号","lat":35.563686,"lon":139.728443},{"name":"蒲田駅前図書館","province":"東京都","city":"大田区","address":"東京都大田区蒲田五丁目13番26-301号","lat":35.559837,"lon":139.715496},{"name":"田園調布せせらぎ館","province":"東京都","city":"大田区","address":"東京都大田区田園調布1-53-12","lat":35.5899036,"lon":139.669526},{"name":"大田区役所","province":"東京都","city":"大田区","address":"東京都大田区蒲田5-13-14","lat":35.561326,"lon":139.716082},{"name":"大森東特別出張所","province":"東京都","city":"大田区","address":"東京都大田区大森南四丁目9番1号","lat":35.566933,"lon":139.7459},{"name":"大森西特別出張所","province":"東京都","city":"大田区","address":"東京都大田区大森西二丁目16番2号区民活動支援施設大森(こらぼ大森)1階","lat":35.576557,"lon":139.730251},{"name":"入新井特別出張所","province":"東京都","city":"大田区","address":"東京都大田区大森北一丁目10番14号","lat":35.586449,"lon":139.728206},{"name":"馬込特別出張所","province":"東京都","city":"大田区","address":"東京都大田区中馬込三丁目25番5号","lat":35.593962,"lon":139.709813},{"name":"池上特別出張所","province":"東京都","city":"大田区","address":"東京都大田区池上一丁目29番6号","lat":35.575115,"lon":139.710296},{"name":"新井宿特別出張所","province":"東京都","city":"大田区","address":"東京都大田区中央一丁目21番6号","lat":35.579697,"lon":139.719709},{"name":"嶺町特別出張所","province":"東京都","city":"大田区","address":"東京都大田区田園調布本町7番1号","lat":35.587911,"lon":139.67735},{"name":"田園調布特別出張所","province":"東京都","city":"大田区","address":"東京都大田区田園調布一丁目30番1号","lat":35.588316,"lon":139.67094},{"name":"鵜の木特別出張所","province":"東京都","city":"大田区","address":"東京都大田区南久が原二丁目30番5号","lat":35.574934,"lon":139.685171},{"name":"久が原特別出張所","province":"東京都","city":"大田区","address":"東京都大田区久が原四丁目12番10号","lat":35.580307,"lon":139.693975},{"name":"雪谷特別出張所","province":"東京都","city":"大田区","address":"東京都大田区東雪谷三丁目6番2号","lat":35.594554,"lon":139.691156},{"name":"千束特別出張所","province":"東京都","city":"大田区","address":"東京都大田区南千束二丁目16番19号","lat":35.604988,"lon":139.689441},{"name":"六郷特別出張所","province":"東京都","city":"大田区","address":"東京都大田区仲六郷二丁目44番11号","lat":35.550903,"lon":139.716084},{"name":"矢口特別出張所","province":"東京都","city":"大田区","address":"東京都大田区矢口二丁目21番14号","lat":35.562124,"lon":139.690283},{"name":"蒲田西特別出張所","province":"東京都","city":"大田区","address":"東京都大田区西蒲田七丁目12番2号1階","lat":35.564472,"lon":139.710686},{"name":"蒲田東特別出張所","province":"東京都","city":"大田区","address":"東京都大田区蒲田本町二丁目1番1号","lat":35.558535,"lon":139.718592},{"name":"糀谷特別出張所","province":"東京都","city":"大田区","address":"東京都大田区西糀谷二丁目14番13号","lat":35.55873,"lon":139.73676},{"name":"羽田特別出張所","province":"東京都","city":"大田区","address":"東京都大田区羽田一丁目18番13号","lat":35.549143,"lon":139.741826},{"name":"おおた国際交流センター（Minto Ota）","province":"東京都","city":"大田区","address":"東京都大田区蒲田4-16-82階","lat":35.5613404,"lon":139.7223747},{"name":"消費者生活センター","province":"東京都","city":"大田区","address":"東京都大田区蒲田五丁目13番26-101号","lat":35.559839,"lon":139.715496},{"name":"池上会館","province":"東京都","city":"大田区","address":"東京都大田区池上一丁目32番8号","lat":35.576883,"lon":139.706363},{"name":"新蒲田一丁目複合施設（カムカム新蒲田）","province":"東京都","city":"大田区","address":"東京都大田区新蒲田一丁目18番16号","lat":35.5575665,"lon":139.7110827},{"name":"大田区青少年交流センター（ゆいっつ）","province":"東京都","city":"大田区","address":"東京都大田区平和島4-2-15","lat":35.58352,"lon":139.743012},{"name":"大田図書館","province":"東京都","city":"大田区","address":"東京都大田区田園調布南25番1号","lat":35.581606,"lon":139.676125},{"name":"大森南図書館","province":"東京都","city":"大田区","address":"東京都大田区大森南一丁目17番7号","lat":35.563429,"lon":139.739788},{"name":"大森東図書館","province":"東京都","city":"大田区","address":"東京都大田区大森東一丁目31番3号-104","lat":35.57617,"lon":139.739109},{"name":"大森西図書館","province":"東京都","city":"大田区","address":"東京都大田区大森西五丁目2番13号","lat":35.571869,"lon":139.72604},{"name":"入新井図書館","province":"東京都","city":"大田区","address":"東京都大田区大森北一丁目10番14号(大森複合施設ビル(Luz大森)内)","lat":35.586349,"lon":139.72822},{"name":"馬込図書館","province":"東京都","city":"大田区","address":"東京都大田区中馬込二丁目26番10号","lat":35.595677,"lon":139.71042},{"name":"池上図書館","province":"東京都","city":"大田区","address":"東京都大田区池上六丁目3番10号エトモ池上4階","lat":35.574768,"lon":139.703243},{"name":"久が原図書館","province":"東京都","city":"大田区","address":"東京都大田区久が原二丁目28番4号","lat":35.579334,"lon":139.695276},{"name":"洗足池図書館","province":"東京都","city":"大田区","address":"東京都大田区南千束二丁目2番10号","lat":35.600792,"lon":139.69193},{"name":"浜竹図書館","province":"東京都","city":"大田区","address":"東京都大田区西糀谷三丁目32番7号","lat":35.553368,"lon":139.737368},{"name":"羽田図書館","province":"東京都","city":"大田区","address":"東京都大田区羽田一丁目11番1号","lat":35.55041,"lon":139.74348},{"name":"六郷図書館","province":"東京都","city":"大田区","address":"東京都大田区南六郷三丁目10番3号","lat":35.543921,"lon":139.71401},{"name":"下丸子図書館","province":"東京都","city":"大田区","address":"東京都大田区下丸子二丁目18番11号","lat":35.565849,"lon":139.688037},{"name":"多摩川図書館","province":"東京都","city":"大田区","address":"東京都大田区多摩川二丁目24番63号","lat":35.556123,"lon":139.702316},{"name":"蒲田図書館","province":"東京都","city":"大田区","address":"東京都大田区東蒲田一丁目19番22号","lat":35.563686,"lon":139.728443},{"name":"蒲田駅前図書館","province":"東京都","city":"大田区","address":"東京都大田区蒲田五丁目13番26-301号","lat":35.559837,"lon":139.715496},{"name":"田園調布せせらぎ館","province":"東京都","city":"大田区","address":"東京都大田区田園調布1-53-12","lat":35.5899036,"lon":139.669526},{"name":"大田区役所","province":"東京都","city":"大田区","address":"東京都大田区蒲田5-13-14","lat":35.561326,"lon":139.716082},{"name":"大森東特別出張所","province":"東京都","city":"大田区","address":"東京都大田区大森南四丁目9番1号","lat":35.566933,"lon":139.7459},{"name":"大森西特別出張所","province":"東京都","city":"大田区","address":"東京都大田区大森西二丁目16番2号区民活動支援施設大森(こらぼ大森)1階","lat":35.576557,"lon":139.730251},{"name":"入新井特別出張所","province":"東京都","city":"大田区","address":"東京都大田区大森北一丁目10番14号","lat":35.586449,"lon":139.728206},{"name":"馬込特別出張所","province":"東京都","city":"大田区","address":"東京都大田区中馬込三丁目25番5号","lat":35.593962,"lon":139.709813},{"name":"池上特別出張所","province":"東京都","city":"大田区","address":"東京都大田区池上一丁目29番6号","lat":35.575115,"lon":139.710296},{"name":"新井宿特別出張所","province":"東京都","city":"大田区","address":"東京都大田区中央一丁目21番6号","lat":35.579697,"lon":139.719709},{"name":"嶺町特別出張所","province":"東京都","city":"大田区","address":"東京都大田区田園調布本町7番1号","lat":35.587911,"lon":139.67735},{"name":"田園調布特別出張所","province":"東京都","city":"大田区","address":"東京都大田区田園調布一丁目30番1号","lat":35.588316,"lon":139.67094},{"name":"鵜の木特別出張所","province":"東京都","city":"大田区","address":"東京都大田区南久が原二丁目30番5号","lat":35.574934,"lon":139.685171},{"name":"久が原特別出張所","province":"東京都","city":"大田区","address":"東京都大田区久が原四丁目12番10号","lat":35.580307,"lon":139.693975},{"name":"雪谷特別出張所","province":"東京都","city":"大田区","address":"東京都大田区東雪谷三丁目6番2号","lat":35.594554,"lon":139.691156},{"name":"千束特別出張所","province":"東京都","city":"大田区","address":"東京都大田区南千束二丁目16番19号","lat":35.604988,"lon":139.689441},{"name":"六郷特別出張所","province":"東京都","city":"大田区","address":"東京都大田区仲六郷二丁目44番11号","lat":35.550903,"lon":139.716084},{"name":"矢口特別出張所","province":"東京都","city":"大田区","address":"東京都大田区矢口二丁目21番14号","lat":35.562124,"lon":139.690283},{"name":"蒲田西特別出張所","province":"東京都","city":"大田区","address":"東京都大田区西蒲田七丁目12番2号1階","lat":35.564472,"lon":139.710686},{"name":"蒲田東特別出張所","province":"東京都","city":"大田区","address":"東京都大田区蒲田本町二丁目1番1号","lat":35.558535,"lon":139.718592},{"name":"糀谷特別出張所","province":"東京都","city":"大田区","address":"東京都大田区西糀谷二丁目14番13号","lat":35.55873,"lon":139.73676},{"name":"羽田特別出張所","province":"東京都","city":"大田区","address":"東京都大田区羽田一丁目18番13号","lat":35.549143,"lon":139.741826},{"name":"おおた国際交流センター（Minto Ota）","province":"東京都","city":"大田区","address":"東京都大田区蒲田4-16-82階","lat":35.5613404,"lon":139.7223747},{"name":"消費者生活センター","province":"東京都","city":"大田区","address":"東京都大田区蒲田五丁目13番26-101号","lat":35.559839,"lon":139.715496},{"name":"池上会館","province":"東京都","city":"大田区","address":"東京都大田区池上一丁目32番8号","lat":35.576883,"lon":139.706363},{"name":"新蒲田一丁目複合施設（カムカム新蒲田）","province":"東京都","city":"大田区","address":"東京都大田区新蒲田一丁目18番16号","lat":35.5575665,"lon":139.7110827}]}