{"keyword":"放課後","data":[{"name":"アインクラブ大森","province":"東京都","city":"大田区","address":"大田区大森本町2-26-15松尾ビル2階","lat":35.577854,"lon":139.736426},{"name":"児童デイパーチェ","province":"東京都","city":"大田区","address":"大田区大森東1-35コーシャハイム大森東4-108","lat":35.57646,"lon":139.740517},{"name":"こどもプラスほしのこ","province":"東京都","city":"大田区","address":"大田区大森南3-24-2","lat":35.56479,"lon":139.742532},{"name":"くれよんくらぶ","province":"東京都","city":"大田区","address":"大田区大森北1-11-3サカエビル5階A号室","lat":35.587122,"lon":139.728637},{"name":"このこのリーフ大森山王","province":"東京都","city":"大田区","address":"大田区山王1-31-2石ビル2階","lat":35.591619,"lon":139.725109},{"name":"ファミリールーム　りぼん","province":"東京都","city":"大田区","address":"大田区中央8-4-13KTY中央101","lat":35.574584,"lon":139.712205},{"name":"放課後デイ　レインボースター","province":"東京都","city":"大田区","address":"大田区南蒲田1-1-23","lat":35.560703,"lon":139.724611},{"name":"スキップランド南六郷","province":"東京都","city":"大田区","address":"大田区南六郷2-27-3","lat":35.5472,"lon":139.718723},{"name":"はるはうすｋｉｄｓ","province":"東京都","city":"大田区","address":"大田区東六郷2-9-16阿部ビル1階","lat":35.549866,"lon":139.71719},{"name":"テラコヤキッズ　蒲田教室","province":"東京都","city":"大田区","address":"大田区西蒲田7-1-3ステラビル7階","lat":35.563766,"lon":139.716272},{"name":"あかしろきいろ発達支援るーむ","province":"東京都","city":"大田区","address":"大田区西蒲田2-7-1-101","lat":35.569846,"lon":139.70634},{"name":"テラス児童デイサービス西蒲田","province":"東京都","city":"大田区","address":"大田区西蒲田8-7-14中野ビル1階","lat":35.560836,"lon":139.710601},{"name":"Ｋｉｄ’ｓ　Ｔｅｃｈ　蒲田","province":"東京都","city":"大田区","address":"大田区西蒲田7-18-6ロータスフラットII2階1号室","lat":35.563961,"lon":139.709012},{"name":"テラコヤキッズゆめ気球教室","province":"東京都","city":"大田区","address":"大田区蒲田一丁目25番7号グレードワン・ヒラタ1階","lat":35.564936,"lon":139.7186},{"name":"でらいとわーくジュニア　かまたアフタースクール","province":"東京都","city":"大田区","address":"大田区蒲田5-30-15第20下川ビル2階","lat":35.561878,"lon":139.719622},{"name":"スキップランド新蒲田","province":"東京都","city":"大田区","address":"大田区新蒲田1-13-7","lat":35.55942,"lon":139.710376},{"name":"放課後等デイサービス　ポジティブ","province":"東京都","city":"大田区","address":"大田区仲六郷2-39-7鈴木ビル1階","lat":35.549177,"lon":139.71291},{"name":"リトル　コールケア","province":"東京都","city":"大田区","address":"大田区南雪谷4-7-142階","lat":35.588957,"lon":139.681994},{"name":"みなそら多摩川園","province":"東京都","city":"大田区","address":"大田区田園調布1-6-3早川ビル2階","lat":35.58781,"lon":139.674556},{"name":"発達支援教室スマイル久が原","province":"東京都","city":"大田区","address":"大田区久が原三丁目37番1号NYビル2階","lat":35.580295,"lon":139.687088},{"name":"アインクラブ","province":"東京都","city":"大田区","address":"大田区池上5-28-1","lat":35.573496,"lon":139.711917},{"name":"かたつむりクラブ","province":"東京都","city":"大田区","address":"大田区池上三丁目31番14号ファミールクボタ1階","lat":35.57384,"lon":139.703054},{"name":"ゆめクラブ","province":"東京都","city":"大田区","address":"大田区池上六丁目13番11号不二美ビル1階","lat":35.570724,"lon":139.703954},{"name":"このこのリーフ池上","province":"東京都","city":"大田区","address":"大田区池上3-25-5グリーンパレス1階","lat":35.574851,"lon":139.700923},{"name":"あかしろきいろ発達支援るーむⅡ","province":"東京都","city":"大田区","address":"大田区池上4-30-9-201","lat":35.573232,"lon":139.705203},{"name":"こどもプラスほしのこジュニア","province":"東京都","city":"大田区","address":"大田区池上3-39-12常盤ビル2階","lat":35.572937,"lon":139.701459},{"name":"発達支援教室にじいろＬａｂｏ池上","province":"東京都","city":"大田区","address":"大田区池上5-14-4小宮ビル1階","lat":35.572285,"lon":139.70677},{"name":"このこのリーフ千鳥町駅前","province":"東京都","city":"大田区","address":"大田区千鳥1-19-5フラット千鳥1階","lat":35.572677,"lon":139.692702},{"name":"発達支援教室スマイル千鳥","province":"東京都","city":"大田区","address":"大田区千鳥1-3-19","lat":35.572954,"lon":139.691952},{"name":"テラス児童デイサービス千鳥","province":"東京都","city":"大田区","address":"大田区千鳥一丁目17番6号千鳥コラージュ1階","lat":35.572196,"lon":139.694272},{"name":"ハーティーパーチ久が原","province":"東京都","city":"大田区","address":"大田区南久が原二丁目19番29号植松ビル2階","lat":35.577556,"lon":139.68367},{"name":"発達支援教室スマイル久が原プラス","province":"東京都","city":"大田区","address":"大田区南久が原2-12-14三立ビル1階","lat":35.578215,"lon":139.685866},{"name":"ゆめクラブ２","province":"東京都","city":"大田区","address":"大田区下丸子1-19-23CSソレイユ1階","lat":35.566017,"lon":139.689103},{"name":"みなそら矢口園","province":"東京都","city":"大田区","address":"大田区東矢口3-30-12祥明ビル2F","lat":35.560575,"lon":139.707382}]}