{"keyword":"構築","data":[{"name":"平和島駅入口","province":"東京都","city":"大田区","address":"東京都大田区大森北6丁目28-1","lat":35.57832639,"lon":139.73504792},{"name":"大森第一小学校前","province":"東京都","city":"大田区","address":"東京都大田区大森中1丁目10-7","lat":35.57010797,"lon":139.73473729},{"name":"春日橋","province":"東京都","city":"大田区","address":"東京都大田区山王3丁目13-4","lat":35.58136716,"lon":139.72206254},{"name":"大田文化の森","province":"東京都","city":"大田区","address":"東京都大田区中央2丁目10-1","lat":35.57955621,"lon":139.7202711},{"name":"大森町駅入口","province":"東京都","city":"大田区","address":"東京都大田区大森中1丁目2-23","lat":35.57164102,"lon":139.73274287},{"name":"八幡中央通り","province":"東京都","city":"大田区","address":"東京都大田区大森北3丁目1-1","lat":35.58461988,"lon":139.730959},{"name":"大森東四丁目","province":"東京都","city":"大田区","address":"東京都大田区大森東4丁目19-31","lat":35.56830828,"lon":139.73574012},{"name":"山王","province":"東京都","city":"大田区","address":"東京都大田区山王2丁目1-8","lat":35.59048294,"lon":139.72853391},{"name":"山王二丁目","province":"東京都","city":"大田区","address":"東京都大田区山王2丁目3","lat":35.58694443,"lon":139.72633421},{"name":"大森赤十字病院入口","province":"東京都","city":"大田区","address":"東京都大田区中央3丁目1-3","lat":35.57884793,"lon":139.71882126},{"name":"大森本町二丁目","province":"東京都","city":"大田区","address":"東京都大田区大森本町2丁目1-19","lat":35.58116221,"lon":139.73656158},{"name":"入新井四小入口","province":"東京都","city":"大田区","address":"東京都大田区中央3丁目5-7","lat":35.57789523,"lon":139.71703814},{"name":"東邦大学病院前","province":"東京都","city":"大田区","address":"東京都大田区大森西6丁目11","lat":35.56913532,"lon":139.72386297},{"name":"入新井第一小学校前","province":"東京都","city":"大田区","address":"東京都大田区大森北4丁目6-7","lat":35.58365875,"lon":139.72740928},{"name":"臼田坂下","province":"東京都","city":"大田区","address":"東京都大田区中央4丁目31-1","lat":35.58022832,"lon":139.718524},{"name":"大森銀座入口","province":"東京都","city":"大田区","address":"東京都大田区大森北1丁目29-6","lat":35.5855669,"lon":139.72875077},{"name":"大森郵便局前","province":"東京都","city":"大田区","address":"東京都大田区山王3丁目9-13","lat":35.5826365,"lon":139.72315684},{"name":"環七美原通り","province":"東京都","city":"大田区","address":"東京都大田区大森本町2丁目33-5","lat":35.57772375,"lon":139.73632288},{"name":"大森青少年センター入口","province":"東京都","city":"大田区","address":"東京都大田区大森北1丁目15-1","lat":35.58616131,"lon":139.72953958},{"name":"八幡中央通り第二","province":"東京都","city":"大田区","address":"東京都大田区大森北1丁目19-12","lat":35.58593361,"lon":139.7312228},{"name":"大森駅西口第三","province":"東京都","city":"大田区","address":"東京都大田区山王2丁目8-26","lat":35.58931637,"lon":139.72727572},{"name":"大森東三丁目","province":"東京都","city":"大田区","address":"東京都大田区大森東2丁目23-11","lat":35.5715939,"lon":139.73493163},{"name":"中央一丁目","province":"東京都","city":"大田区","address":"東京都大田区中央2丁目7-3","lat":35.58038391,"lon":139.7211932},{"name":"入新井児童公園前","province":"東京都","city":"大田区","address":"東京都大田区大森北1丁目5-1","lat":35.587275,"lon":139.72784242},{"name":"大森駅西口第二","province":"東京都","city":"大田区","address":"東京都大田区山王2丁目8","lat":35.58883586,"lon":139.72641746},{"name":"入新井第一小学校東","province":"東京都","city":"大田区","address":"東京都大田区大森北4丁目7-4","lat":35.58450315,"lon":139.72859249},{"name":"洗足池駅前","province":"東京都","city":"大田区","address":"東京都大田区南千束2丁目1-5","lat":35.60029759,"lon":139.69135895},{"name":"長原駅入口","province":"東京都","city":"大田区","address":"東京都大田区上池台1丁目44-1","lat":35.60143924,"lon":139.6998109},{"name":"田園調布警察署前","province":"東京都","city":"大田区","address":"東京都大田区田園調布1丁目1-8","lat":35.58912681,"lon":139.67733048},{"name":"上池上稲荷坂","province":"東京都","city":"大田区","address":"東京都大田区上池台5丁目6-1","lat":35.59515661,"lon":139.70111376},{"name":"荏原病院前","province":"東京都","city":"大田区","address":"東京都大田区東雪谷4丁目5-10","lat":35.59460659,"lon":139.69367561},{"name":"貝塚","province":"東京都","city":"大田区","address":"東京都大田区中馬込1丁目1-17","lat":35.59840352,"lon":139.70376897},{"name":"御嶽神社入口","province":"東京都","city":"大田区","address":"東京都大田区田園調布本町56-5","lat":35.58554126,"lon":139.6796305},{"name":"大岡山駅前","province":"東京都","city":"大田区","address":"東京都大田区北千束3丁目27-1","lat":35.60763275,"lon":139.68575363},{"name":"大鳥居","province":"東京都","city":"大田区","address":"東京都大田区羽田1丁目1-1","lat":35.55213877,"lon":139.74081042},{"name":"蒲田郵便局前","province":"東京都","city":"大田区","address":"東京都大田区蒲田4丁目42-12","lat":35.558981,"lon":139.71870008},{"name":"蒲田消防署前","province":"東京都","city":"大田区","address":"東京都大田区蒲田本町2丁目29-12","lat":35.55599817,"lon":139.72014741},{"name":"蒲田四丁目北","province":"東京都","city":"大田区","address":"東京都大田区蒲田4丁目20-1","lat":35.56164436,"lon":139.72123287},{"name":"大田区役所入口","province":"東京都","city":"大田区","address":"東京都大田区蒲田本町1丁目1-3","lat":35.55855055,"lon":139.7163976},{"name":"夫婦橋","province":"東京都","city":"大田区","address":"東京都大田区南蒲田1丁目1-25","lat":35.56087802,"lon":139.7247883},{"name":"あやめ橋","province":"東京都","city":"大田区","address":"東京都大田区蒲田1丁目31-1","lat":35.56263314,"lon":139.7211023},{"name":"西蒲田八丁目第二","province":"東京都","city":"大田区","address":"東京都大田区新蒲田1丁目13-5","lat":35.55957269,"lon":139.710351},{"name":"蒲田駅東口南","province":"東京都","city":"大田区","address":"東京都大田区蒲田5丁目39-2","lat":35.56176389,"lon":139.71664453},{"name":"蒲田駅東口中央","province":"東京都","city":"大田区","address":"東京都大田区蒲田5丁目16-1","lat":35.56237491,"lon":139.71734442},{"name":"蒲田交差西口","province":"東京都","city":"大田区","address":"東京都大田区西蒲田5丁目27-10","lat":35.56435526,"lon":139.71442522},{"name":"蒲田五丁目","province":"東京都","city":"大田区","address":"東京都大田区蒲田5丁目24-2","lat":35.56264984,"lon":139.71930806},{"name":"糀谷駅入口","province":"東京都","city":"大田区","address":"東京都大田区萩中2丁目1-24","lat":35.55337958,"lon":139.72995532},{"name":"西蒲田七丁目","province":"東京都","city":"大田区","address":"東京都大田区西蒲田7丁目9-5","lat":35.56416085,"lon":139.71311427},{"name":"蒲田四丁目南","province":"東京都","city":"大田区","address":"東京都大田区蒲田4丁目29-1","lat":35.56092507,"lon":139.71998865},{"name":"御園神社前","province":"東京都","city":"大田区","address":"東京都大田区西蒲田7丁目39-5","lat":35.56295551,"lon":139.71024522},{"name":"蒲田警察署前","province":"東京都","city":"大田区","address":"東京都大田区蒲田本町2丁目3-3","lat":35.55811168,"lon":139.72037497},{"name":"大田区役所前","province":"東京都","city":"大田区","address":"東京都大田区蒲田5丁目40-10","lat":35.56058352,"lon":139.71651687},{"name":"御園神社前第二","province":"東京都","city":"大田区","address":"東京都大田区西蒲田7丁目51-5","lat":35.56261942,"lon":139.711334},{"name":"蒲田駅西口","province":"東京都","city":"大田区","address":"東京都大田区西蒲田7丁目47-3","lat":35.56256937,"lon":139.71468639},{"name":"御園神社前第三","province":"東京都","city":"大田区","address":"東京都大田区西蒲田7丁目48-1","lat":35.56252218,"lon":139.71328656},{"name":"蒲田五丁目第二","province":"東京都","city":"大田区","address":"東京都大田区蒲田5丁目17-2","lat":35.56259988,"lon":139.71745551},{"name":"蒲田駅西口第二","province":"東京都","city":"大田区","address":"東京都大田区西蒲田7丁目29-5","lat":35.56316374,"lon":139.71499188},{"name":"西蒲田七丁目第二","province":"東京都","city":"大田区","address":"東京都大田区西蒲田7丁目31-1","lat":35.56327764,"lon":139.71341706},{"name":"西蒲田七丁目第三","province":"東京都","city":"大田区","address":"東京都大田区西蒲田7丁目33-1","lat":35.56335265,"lon":139.71178114},{"name":"萩中小学校前","province":"東京都","city":"大田区","address":"東京都大田区萩中3丁目25","lat":35.55005288,"lon":139.73951895},{"name":"京急蒲田駅西口","province":"東京都","city":"大田区","address":"東京都大田区蒲田3丁目20-4","lat":35.5625083,"lon":139.72407434},{"name":"仲蒲田公園入口","province":"東京都","city":"大田区","address":"東京都大田区蒲田4丁目41-1","lat":35.55978918,"lon":139.71899442},{"name":"蒲田八幡神社前","province":"東京都","city":"大田区","address":"東京都大田区蒲田4丁目18-17","lat":35.56006968,"lon":139.72259958},{"name":"蒲田四丁目南第二","province":"東京都","city":"大田区","address":"東京都大田区蒲田5丁目36","lat":35.56134169,"lon":139.71861932},{"name":"蒲田二丁目","province":"東京都","city":"大田区","address":"東京都大田区蒲田2丁目18-24","lat":35.56626057,"lon":139.72262983},{"name":"蒲田東口公園前","province":"東京都","city":"大田区","address":"東京都大田区蒲田5丁目38-3","lat":35.56151391,"lon":139.71739445},{"name":"蒲田社会保険所前","province":"東京都","city":"大田区","address":"東京都大田区蒲田4丁目23-15","lat":35.56055844,"lon":139.72129407},{"name":"下丸子三丁目","province":"東京都","city":"大田区","address":"東京都大田区下丸子3丁目28-11","lat":35.56688332,"lon":139.68427323},{"name":"大田都税前","province":"東京都","city":"大田区","address":"東京都大田区西蒲田6丁目33-1","lat":35.56485524,"lon":139.71051452},{"name":"矢口二丁目南","province":"東京都","city":"大田区","address":"東京都大田区矢口2丁目10-6","lat":35.56323654,"lon":139.69113654},{"name":"谷中通り","province":"東京都","city":"大田区","address":"東京都大田区南馬込2丁目28-1","lat":35.59024374,"lon":139.71862356},{"name":"池上橋南","province":"東京都","city":"大田区","address":"東京都大田区池上3丁目2-1","lat":35.57769507,"lon":139.70037035},{"name":"千鳥二丁目西","province":"東京都","city":"大田区","address":"東京都大田区千鳥2丁目15-16","lat":35.57031304,"lon":139.69352176},{"name":"多摩川一丁目第二","province":"東京都","city":"大田区","address":"東京都大田区多摩川1丁目7-6","lat":35.56336683,"lon":139.69925215},{"name":"池上特別出張所前","province":"東京都","city":"大田区","address":"東京都大田区中央8丁目2-20","lat":35.5746011,"lon":139.71090832},{"name":"西蒲田六丁目第二","province":"東京都","city":"大田区","address":"東京都大田区西蒲田7丁目11-4","lat":35.56437195,"lon":139.71151166},{"name":"池上六丁目第二","province":"東京都","city":"大田区","address":"東京都大田区東矢口1丁目4-18","lat":35.56642735,"lon":139.7038569},{"name":"池上六丁目第三","province":"東京都","city":"大田区","address":"東京都大田区池上6丁目32-11","lat":35.56822984,"lon":139.70440114},{"name":"武蔵新田駅前第二","province":"東京都","city":"大田区","address":"東京都大田区矢口1丁目5-8","lat":35.56745795,"lon":139.69415525},{"name":"武蔵新田駅前","province":"東京都","city":"大田区","address":"東京都大田区矢口1丁目7-14","lat":35.56838562,"lon":139.69222764},{"name":"池上福祉事務所前","province":"東京都","city":"大田区","address":"東京都大田区池上6丁目40-3","lat":35.56784099,"lon":139.70555659},{"name":"第２ターミナル","province":"東京都","city":"大田区","address":"東京都大田区羽田空港3丁目4","lat":35.54998808,"lon":139.7900261},{"name":"馬込給水所","province":"東京都","city":"大田区","address":"東京都大田区西馬込2丁目15-6","lat":35.58832131,"lon":139.70213893},{"name":"上池台給水所","province":"東京都","city":"大田区","address":"東京都大田区上池台1丁目48-25","lat":35.6004699,"lon":139.69973594},{"name":"区立西六郷三丁目公園","province":"東京都","city":"大田区","address":"東京都大田区西六郷3丁目16-16","lat":35.54629163,"lon":139.7059358},{"name":"区立萩中公園","province":"東京都","city":"大田区","address":"東京都大田区萩中3丁目25-26","lat":35.54972234,"lon":139.73905511},{"name":"区立都堀公園","province":"東京都","city":"大田区","address":"東京都大田区大森東1丁目30","lat":35.57738779,"lon":139.73836722},{"name":"区立下丸子公園","province":"東京都","city":"大田区","address":"東京都大田区下丸子4丁目21","lat":35.56920527,"lon":139.67906532},{"name":"区立女塚なかよし公園","province":"東京都","city":"大田区","address":"東京都大田区池上5丁目24","lat":35.57274857,"lon":139.71105287},{"name":"東海給水所","province":"東京都","city":"大田区","address":"東京都大田区東海1丁目3-12","lat":35.585493,"lon":139.7537297},{"name":"大田区保健所（保健衛生課）","province":"東京都","city":"大田区","address":"東京都大田区蒲田5丁目13-14","lat":35.56143339,"lon":139.71606685},{"name":"多摩川二丁目緊急用船着場","province":"東京都","city":"大田区","address":"東京都大田区多摩川2丁目","lat":35.55788986,"lon":139.70234382},{"name":"東京都漁連水産物流通センター","province":"東京都","city":"大田区","address":"東京都大田区京浜島3丁目","lat":35.57325911,"lon":139.76385757},{"name":"大森ふるさとの浜辺公園","province":"東京都","city":"大田区","address":"東京都大田区平和の森公園2-2","lat":35.57713528,"lon":139.74270588},{"name":"羽田２、３丁目","province":"東京都","city":"大田区","address":"東京都大田区羽田5丁目23","lat":35.54810939,"lon":139.74881591},{"name":"東糀谷六丁目","province":"東京都","city":"大田区","address":"東京都大田区東糀谷6丁目","lat":35.55887451,"lon":139.75037338},{"name":"羽田空港天空橋","province":"東京都","city":"大田区","address":"東京都大田区羽田空港1丁目","lat":35.55478658,"lon":139.75528179},{"name":"第一自動車警ら隊蒲田分駐所","province":"東京都","city":"大田区","address":"大田区蒲田本町2-29-12","lat":35.556,"lon":139.7201},{"name":"第二方面交通機動隊","province":"東京都","city":"大田区","address":"大田区大森北6-24-20","lat":35.57914,"lon":139.7302},{"name":"池上警察署","province":"東京都","city":"大田区","address":"大田区池上3-20-10","lat":35.57434,"lon":139.6986},{"name":"大森警察署","province":"東京都","city":"大田区","address":"大田区大森中1-1-16","lat":35.57255,"lon":139.7338},{"name":"蒲田警察署","province":"東京都","city":"大田区","address":"大田区蒲田本町2-3-3","lat":35.55811,"lon":139.7204},{"name":"田園調布警察署","province":"東京都","city":"大田区","address":"大田区田園調布1-1-8","lat":35.589128,"lon":139.677331},{"name":"東京空港警察署","province":"東京都","city":"大田区","address":"大田区羽田空港3-4-1","lat":35.55513,"lon":139.7842},{"name":"第二消防方面本部","province":"東京都","city":"大田区","address":"大田区大森東1-32-8","lat":35.5788,"lon":139.7393},{"name":"第二方面訓練場","province":"東京都","city":"大田区","address":"大田区京浜島1-1","lat":35.57302,"lon":139.7576},{"name":"大森消防署","province":"東京都","city":"大田区","address":"大田区大森東1-32-8","lat":35.5788,"lon":139.7393},{"name":"蒲田消防署","province":"東京都","city":"大田区","address":"大田区蒲田本町2-28-1","lat":35.55572,"lon":139.7198},{"name":"田園調布消防署","province":"東京都","city":"大田区","address":"大田区雪谷大塚町13-22","lat":35.5898,"lon":139.6776},{"name":"矢口消防署","province":"東京都","city":"大田区","address":"大田区多摩川2-5-20","lat":35.55952,"lon":139.6992},{"name":"大田区田園調布南倉庫","province":"東京都","city":"大田区","address":"大田区田園調布南3-8区立田園調布南公園内","lat":35.57919,"lon":139.6752},{"name":"大田区南六郷倉庫","province":"東京都","city":"大田区","address":"大田区南六郷1-29-2-101都市再生機構南六郷一丁目団地内","lat":35.5462,"lon":139.7254},{"name":"東邦薬品（株）ＷＩＬＬ平和島","province":"東京都","city":"大田区","address":"大田区平和島6-1-1(株)東京流通センター内AE4-2","lat":35.57911,"lon":139.7477},{"name":"相互産業（株）","province":"東京都","city":"大田区","address":"大田区中央3-19-5","lat":35.57492,"lon":139.7186},{"name":"ガス橋緑地少年野球場","province":"東京都","city":"大田区","address":"大田区下丸子2丁目地先","lat":35.5664,"lon":139.6868},{"name":"大田清掃工場","province":"東京都","city":"大田区","address":"大田区京浜島3-6-1","lat":35.57381,"lon":139.7678},{"name":"多摩川清掃工場","province":"東京都","city":"大田区","address":"大田区下丸子2-33-1","lat":35.56146,"lon":139.6871},{"name":"東京都保健医療公社荏原病院ヘリポート","province":"東京都","city":"大田区","address":"大田区東雪谷4-5-10","lat":35.594608,"lon":139.693676},{"name":"大田区立平和島公園運動場","province":"東京都","city":"大田区","address":"大田区平和島4-2-2","lat":35.58176,"lon":139.7424},{"name":"東京ガスグラウンド","province":"東京都","city":"大田区","address":"大田区大森東3-28-1","lat":35.57249,"lon":139.7399},{"name":"夫婦橋","province":"東京都","city":"大田区","address":"大田区南蒲田1","lat":35.55902,"lon":139.7263},{"name":"大森ふるさとの浜辺公園","province":"東京都","city":"大田区","address":"東京都大田区平和の森公園2-2","lat":35.57713528,"lon":139.74270588},{"name":"平和島駅入口","province":"東京都","city":"大田区","address":"東京都大田区大森北6丁目28-1","lat":35.57832639,"lon":139.73504792},{"name":"大森第一小学校前","province":"東京都","city":"大田区","address":"東京都大田区大森中1丁目10-7","lat":35.57010797,"lon":139.73473729},{"name":"春日橋","province":"東京都","city":"大田区","address":"東京都大田区山王3丁目13-4","lat":35.58136716,"lon":139.72206254},{"name":"大田文化の森","province":"東京都","city":"大田区","address":"東京都大田区中央2丁目10-1","lat":35.57955621,"lon":139.7202711},{"name":"大森町駅入口","province":"東京都","city":"大田区","address":"東京都大田区大森中1丁目2-23","lat":35.57164102,"lon":139.73274287},{"name":"八幡中央通り","province":"東京都","city":"大田区","address":"東京都大田区大森北3丁目1-1","lat":35.58461988,"lon":139.730959},{"name":"大森東四丁目","province":"東京都","city":"大田区","address":"東京都大田区大森東4丁目19-31","lat":35.56830828,"lon":139.73574012},{"name":"山王","province":"東京都","city":"大田区","address":"東京都大田区山王2丁目1-8","lat":35.59048294,"lon":139.72853391},{"name":"山王二丁目","province":"東京都","city":"大田区","address":"東京都大田区山王2丁目3","lat":35.58694443,"lon":139.72633421},{"name":"大森赤十字病院入口","province":"東京都","city":"大田区","address":"東京都大田区中央3丁目1-3","lat":35.57884793,"lon":139.71882126},{"name":"大森本町二丁目","province":"東京都","city":"大田区","address":"東京都大田区大森本町2丁目1-19","lat":35.58116221,"lon":139.73656158},{"name":"入新井四小入口","province":"東京都","city":"大田区","address":"東京都大田区中央3丁目5-7","lat":35.57789523,"lon":139.71703814},{"name":"東邦大学病院前","province":"東京都","city":"大田区","address":"東京都大田区大森西6丁目11","lat":35.56913532,"lon":139.72386297},{"name":"入新井第一小学校前","province":"東京都","city":"大田区","address":"東京都大田区大森北4丁目6-7","lat":35.58365875,"lon":139.72740928},{"name":"臼田坂下","province":"東京都","city":"大田区","address":"東京都大田区中央4丁目31-1","lat":35.58022832,"lon":139.718524},{"name":"大森銀座入口","province":"東京都","city":"大田区","address":"東京都大田区大森北1丁目29-6","lat":35.5855669,"lon":139.72875077},{"name":"大森郵便局前","province":"東京都","city":"大田区","address":"東京都大田区山王3丁目9-13","lat":35.5826365,"lon":139.72315684},{"name":"環七美原通り","province":"東京都","city":"大田区","address":"東京都大田区大森本町2丁目33-5","lat":35.57772375,"lon":139.73632288},{"name":"大森青少年センター入口","province":"東京都","city":"大田区","address":"東京都大田区大森北1丁目15-1","lat":35.58616131,"lon":139.72953958},{"name":"八幡中央通り第二","province":"東京都","city":"大田区","address":"東京都大田区大森北1丁目19-12","lat":35.58593361,"lon":139.7312228},{"name":"大森駅西口第三","province":"東京都","city":"大田区","address":"東京都大田区山王2丁目8-26","lat":35.58931637,"lon":139.72727572},{"name":"大森東三丁目","province":"東京都","city":"大田区","address":"東京都大田区大森東2丁目23-11","lat":35.5715939,"lon":139.73493163},{"name":"中央一丁目","province":"東京都","city":"大田区","address":"東京都大田区中央2丁目7-3","lat":35.58038391,"lon":139.7211932},{"name":"入新井児童公園前","province":"東京都","city":"大田区","address":"東京都大田区大森北1丁目5-1","lat":35.587275,"lon":139.72784242},{"name":"大森駅西口第二","province":"東京都","city":"大田区","address":"東京都大田区山王2丁目8","lat":35.58883586,"lon":139.72641746},{"name":"入新井第一小学校東","province":"東京都","city":"大田区","address":"東京都大田区大森北4丁目7-4","lat":35.58450315,"lon":139.72859249},{"name":"洗足池駅前","province":"東京都","city":"大田区","address":"東京都大田区南千束2丁目1-5","lat":35.60029759,"lon":139.69135895},{"name":"長原駅入口","province":"東京都","city":"大田区","address":"東京都大田区上池台1丁目44-1","lat":35.60143924,"lon":139.6998109},{"name":"田園調布警察署前","province":"東京都","city":"大田区","address":"東京都大田区田園調布1丁目1-8","lat":35.58912681,"lon":139.67733048},{"name":"上池上稲荷坂","province":"東京都","city":"大田区","address":"東京都大田区上池台5丁目6-1","lat":35.59515661,"lon":139.70111376},{"name":"荏原病院前","province":"東京都","city":"大田区","address":"東京都大田区東雪谷4丁目5-10","lat":35.59460659,"lon":139.69367561},{"name":"貝塚","province":"東京都","city":"大田区","address":"東京都大田区中馬込1丁目1-17","lat":35.59840352,"lon":139.70376897},{"name":"御嶽神社入口","province":"東京都","city":"大田区","address":"東京都大田区田園調布本町56-5","lat":35.58554126,"lon":139.6796305},{"name":"大岡山駅前","province":"東京都","city":"大田区","address":"東京都大田区北千束3丁目27-1","lat":35.60763275,"lon":139.68575363},{"name":"大鳥居","province":"東京都","city":"大田区","address":"東京都大田区羽田1丁目1-1","lat":35.55213877,"lon":139.74081042},{"name":"蒲田郵便局前","province":"東京都","city":"大田区","address":"東京都大田区蒲田4丁目42-12","lat":35.558981,"lon":139.71870008},{"name":"蒲田消防署前","province":"東京都","city":"大田区","address":"東京都大田区蒲田本町2丁目29-12","lat":35.55599817,"lon":139.72014741},{"name":"蒲田四丁目北","province":"東京都","city":"大田区","address":"東京都大田区蒲田4丁目20-1","lat":35.56164436,"lon":139.72123287},{"name":"大田区役所入口","province":"東京都","city":"大田区","address":"東京都大田区蒲田本町1丁目1-3","lat":35.55855055,"lon":139.7163976},{"name":"夫婦橋","province":"東京都","city":"大田区","address":"東京都大田区南蒲田1丁目1-25","lat":35.56087802,"lon":139.7247883},{"name":"あやめ橋","province":"東京都","city":"大田区","address":"東京都大田区蒲田1丁目31-1","lat":35.56263314,"lon":139.7211023},{"name":"西蒲田八丁目第二","province":"東京都","city":"大田区","address":"東京都大田区新蒲田1丁目13-5","lat":35.55957269,"lon":139.710351},{"name":"蒲田駅東口南","province":"東京都","city":"大田区","address":"東京都大田区蒲田5丁目39-2","lat":35.56176389,"lon":139.71664453},{"name":"蒲田駅東口中央","province":"東京都","city":"大田区","address":"東京都大田区蒲田5丁目16-1","lat":35.56237491,"lon":139.71734442},{"name":"蒲田交差西口","province":"東京都","city":"大田区","address":"東京都大田区西蒲田5丁目27-10","lat":35.56435526,"lon":139.71442522},{"name":"蒲田五丁目","province":"東京都","city":"大田区","address":"東京都大田区蒲田5丁目24-2","lat":35.56264984,"lon":139.71930806},{"name":"糀谷駅入口","province":"東京都","city":"大田区","address":"東京都大田区萩中2丁目1-24","lat":35.55337958,"lon":139.72995532},{"name":"西蒲田七丁目","province":"東京都","city":"大田区","address":"東京都大田区西蒲田7丁目9-5","lat":35.56416085,"lon":139.71311427},{"name":"蒲田四丁目南","province":"東京都","city":"大田区","address":"東京都大田区蒲田4丁目29-1","lat":35.56092507,"lon":139.71998865},{"name":"御園神社前","province":"東京都","city":"大田区","address":"東京都大田区西蒲田7丁目39-5","lat":35.56295551,"lon":139.71024522},{"name":"蒲田警察署前","province":"東京都","city":"大田区","address":"東京都大田区蒲田本町2丁目3-3","lat":35.55811168,"lon":139.72037497},{"name":"大田区役所前","province":"東京都","city":"大田区","address":"東京都大田区蒲田5丁目40-10","lat":35.56058352,"lon":139.71651687},{"name":"御園神社前第二","province":"東京都","city":"大田区","address":"東京都大田区西蒲田7丁目51-5","lat":35.56261942,"lon":139.711334},{"name":"蒲田駅西口","province":"東京都","city":"大田区","address":"東京都大田区西蒲田7丁目47-3","lat":35.56256937,"lon":139.71468639},{"name":"御園神社前第三","province":"東京都","city":"大田区","address":"東京都大田区西蒲田7丁目48-1","lat":35.56252218,"lon":139.71328656},{"name":"蒲田五丁目第二","province":"東京都","city":"大田区","address":"東京都大田区蒲田5丁目17-2","lat":35.56259988,"lon":139.71745551},{"name":"蒲田駅西口第二","province":"東京都","city":"大田区","address":"東京都大田区西蒲田7丁目29-5","lat":35.56316374,"lon":139.71499188},{"name":"西蒲田七丁目第二","province":"東京都","city":"大田区","address":"東京都大田区西蒲田7丁目31-1","lat":35.56327764,"lon":139.71341706},{"name":"西蒲田七丁目第三","province":"東京都","city":"大田区","address":"東京都大田区西蒲田7丁目33-1","lat":35.56335265,"lon":139.71178114},{"name":"萩中小学校前","province":"東京都","city":"大田区","address":"東京都大田区萩中3丁目25","lat":35.55005288,"lon":139.73951895},{"name":"京急蒲田駅西口","province":"東京都","city":"大田区","address":"東京都大田区蒲田3丁目20-4","lat":35.5625083,"lon":139.72407434},{"name":"仲蒲田公園入口","province":"東京都","city":"大田区","address":"東京都大田区蒲田4丁目41-1","lat":35.55978918,"lon":139.71899442},{"name":"蒲田八幡神社前","province":"東京都","city":"大田区","address":"東京都大田区蒲田4丁目18-17","lat":35.56006968,"lon":139.72259958},{"name":"蒲田四丁目南第二","province":"東京都","city":"大田区","address":"東京都大田区蒲田5丁目36","lat":35.56134169,"lon":139.71861932},{"name":"蒲田二丁目","province":"東京都","city":"大田区","address":"東京都大田区蒲田2丁目18-24","lat":35.56626057,"lon":139.72262983},{"name":"蒲田東口公園前","province":"東京都","city":"大田区","address":"東京都大田区蒲田5丁目38-3","lat":35.56151391,"lon":139.71739445},{"name":"蒲田社会保険所前","province":"東京都","city":"大田区","address":"東京都大田区蒲田4丁目23-15","lat":35.56055844,"lon":139.72129407},{"name":"下丸子三丁目","province":"東京都","city":"大田区","address":"東京都大田区下丸子3丁目28-11","lat":35.56688332,"lon":139.68427323},{"name":"大田都税前","province":"東京都","city":"大田区","address":"東京都大田区西蒲田6丁目33-1","lat":35.56485524,"lon":139.71051452},{"name":"矢口二丁目南","province":"東京都","city":"大田区","address":"東京都大田区矢口2丁目10-6","lat":35.56323654,"lon":139.69113654},{"name":"谷中通り","province":"東京都","city":"大田区","address":"東京都大田区南馬込2丁目28-1","lat":35.59024374,"lon":139.71862356},{"name":"池上橋南","province":"東京都","city":"大田区","address":"東京都大田区池上3丁目2-1","lat":35.57769507,"lon":139.70037035},{"name":"千鳥二丁目西","province":"東京都","city":"大田区","address":"東京都大田区千鳥2丁目15-16","lat":35.57031304,"lon":139.69352176},{"name":"多摩川一丁目第二","province":"東京都","city":"大田区","address":"東京都大田区多摩川1丁目7-6","lat":35.56336683,"lon":139.69925215},{"name":"池上特別出張所前","province":"東京都","city":"大田区","address":"東京都大田区中央8丁目2-20","lat":35.5746011,"lon":139.71090832},{"name":"西蒲田六丁目第二","province":"東京都","city":"大田区","address":"東京都大田区西蒲田7丁目11-4","lat":35.56437195,"lon":139.71151166},{"name":"池上六丁目第二","province":"東京都","city":"大田区","address":"東京都大田区東矢口1丁目4-18","lat":35.56642735,"lon":139.7038569},{"name":"池上六丁目第三","province":"東京都","city":"大田区","address":"東京都大田区池上6丁目32-11","lat":35.56822984,"lon":139.70440114},{"name":"武蔵新田駅前第二","province":"東京都","city":"大田区","address":"東京都大田区矢口1丁目5-8","lat":35.56745795,"lon":139.69415525},{"name":"武蔵新田駅前","province":"東京都","city":"大田区","address":"東京都大田区矢口1丁目7-14","lat":35.56838562,"lon":139.69222764},{"name":"池上福祉事務所前","province":"東京都","city":"大田区","address":"東京都大田区池上6丁目40-3","lat":35.56784099,"lon":139.70555659},{"name":"第２ターミナル","province":"東京都","city":"大田区","address":"東京都大田区羽田空港3丁目4","lat":35.54998808,"lon":139.7900261},{"name":"馬込給水所","province":"東京都","city":"大田区","address":"東京都大田区西馬込2丁目15-6","lat":35.58832131,"lon":139.70213893},{"name":"上池台給水所","province":"東京都","city":"大田区","address":"東京都大田区上池台1丁目48-25","lat":35.6004699,"lon":139.69973594},{"name":"区立西六郷三丁目公園","province":"東京都","city":"大田区","address":"東京都大田区西六郷3丁目16-16","lat":35.54629163,"lon":139.7059358},{"name":"区立萩中公園","province":"東京都","city":"大田区","address":"東京都大田区萩中3丁目25-26","lat":35.54972234,"lon":139.73905511},{"name":"区立都堀公園","province":"東京都","city":"大田区","address":"東京都大田区大森東1丁目30","lat":35.57738779,"lon":139.73836722},{"name":"区立下丸子公園","province":"東京都","city":"大田区","address":"東京都大田区下丸子4丁目21","lat":35.56920527,"lon":139.67906532},{"name":"区立女塚なかよし公園","province":"東京都","city":"大田区","address":"東京都大田区池上5丁目24","lat":35.57274857,"lon":139.71105287},{"name":"東海給水所","province":"東京都","city":"大田区","address":"東京都大田区東海1丁目3-12","lat":35.585493,"lon":139.7537297},{"name":"大田区保健所（保健衛生課）","province":"東京都","city":"大田区","address":"東京都大田区蒲田5丁目13-14","lat":35.56143339,"lon":139.71606685},{"name":"多摩川二丁目緊急用船着場","province":"東京都","city":"大田区","address":"東京都大田区多摩川2丁目","lat":35.55788986,"lon":139.70234382},{"name":"東京都漁連水産物流通センター","province":"東京都","city":"大田区","address":"東京都大田区京浜島3丁目","lat":35.57325911,"lon":139.76385757},{"name":"大森ふるさとの浜辺公園","province":"東京都","city":"大田区","address":"東京都大田区平和の森公園2-2","lat":35.57713528,"lon":139.74270588},{"name":"羽田２、３丁目","province":"東京都","city":"大田区","address":"東京都大田区羽田5丁目23","lat":35.54810939,"lon":139.74881591},{"name":"東糀谷六丁目","province":"東京都","city":"大田区","address":"東京都大田区東糀谷6丁目","lat":35.55887451,"lon":139.75037338},{"name":"羽田空港天空橋","province":"東京都","city":"大田区","address":"東京都大田区羽田空港1丁目","lat":35.55478658,"lon":139.75528179},{"name":"第一自動車警ら隊蒲田分駐所","province":"東京都","city":"大田区","address":"大田区蒲田本町2-29-12","lat":35.556,"lon":139.7201},{"name":"第二方面交通機動隊","province":"東京都","city":"大田区","address":"大田区大森北6-24-20","lat":35.57914,"lon":139.7302},{"name":"池上警察署","province":"東京都","city":"大田区","address":"大田区池上3-20-10","lat":35.57434,"lon":139.6986},{"name":"大森警察署","province":"東京都","city":"大田区","address":"大田区大森中1-1-16","lat":35.57255,"lon":139.7338},{"name":"蒲田警察署","province":"東京都","city":"大田区","address":"大田区蒲田本町2-3-3","lat":35.55811,"lon":139.7204},{"name":"田園調布警察署","province":"東京都","city":"大田区","address":"大田区田園調布1-1-8","lat":35.589128,"lon":139.677331},{"name":"東京空港警察署","province":"東京都","city":"大田区","address":"大田区羽田空港3-4-1","lat":35.55513,"lon":139.7842},{"name":"第二消防方面本部","province":"東京都","city":"大田区","address":"大田区大森東1-32-8","lat":35.5788,"lon":139.7393},{"name":"第二方面訓練場","province":"東京都","city":"大田区","address":"大田区京浜島1-1","lat":35.57302,"lon":139.7576},{"name":"大森消防署","province":"東京都","city":"大田区","address":"大田区大森東1-32-8","lat":35.5788,"lon":139.7393},{"name":"蒲田消防署","province":"東京都","city":"大田区","address":"大田区蒲田本町2-28-1","lat":35.55572,"lon":139.7198},{"name":"田園調布消防署","province":"東京都","city":"大田区","address":"大田区雪谷大塚町13-22","lat":35.5898,"lon":139.6776},{"name":"矢口消防署","province":"東京都","city":"大田区","address":"大田区多摩川2-5-20","lat":35.55952,"lon":139.6992},{"name":"大田区田園調布南倉庫","province":"東京都","city":"大田区","address":"大田区田園調布南3-8区立田園調布南公園内","lat":35.57919,"lon":139.6752},{"name":"大田区南六郷倉庫","province":"東京都","city":"大田区","address":"大田区南六郷1-29-2-101都市再生機構南六郷一丁目団地内","lat":35.5462,"lon":139.7254},{"name":"東邦薬品（株）ＷＩＬＬ平和島","province":"東京都","city":"大田区","address":"大田区平和島6-1-1(株)東京流通センター内AE4-2","lat":35.57911,"lon":139.7477},{"name":"相互産業（株）","province":"東京都","city":"大田区","address":"大田区中央3-19-5","lat":35.57492,"lon":139.7186},{"name":"大森ふるさとの浜辺公園","province":"東京都","city":"大田区","address":"東京都大田区平和の森公園2-2","lat":35.57713528,"lon":139.74270588},{"name":"平和島駅入口","province":"東京都","city":"大田区","address":"東京都大田区大森北6丁目28-1","lat":35.57832639,"lon":139.73504792},{"name":"大森第一小学校前","province":"東京都","city":"大田区","address":"東京都大田区大森中1丁目10-7","lat":35.57010797,"lon":139.73473729},{"name":"春日橋","province":"東京都","city":"大田区","address":"東京都大田区山王3丁目13-4","lat":35.58136716,"lon":139.72206254},{"name":"大田文化の森","province":"東京都","city":"大田区","address":"東京都大田区中央2丁目10-1","lat":35.57955621,"lon":139.7202711},{"name":"大森町駅入口","province":"東京都","city":"大田区","address":"東京都大田区大森中1丁目2-23","lat":35.57164102,"lon":139.73274287},{"name":"八幡中央通り","province":"東京都","city":"大田区","address":"東京都大田区大森北3丁目1-1","lat":35.58461988,"lon":139.730959},{"name":"大森東四丁目","province":"東京都","city":"大田区","address":"東京都大田区大森東4丁目19-31","lat":35.56830828,"lon":139.73574012},{"name":"山王","province":"東京都","city":"大田区","address":"東京都大田区山王2丁目1-8","lat":35.59048294,"lon":139.72853391},{"name":"山王二丁目","province":"東京都","city":"大田区","address":"東京都大田区山王2丁目3","lat":35.58694443,"lon":139.72633421},{"name":"大森赤十字病院入口","province":"東京都","city":"大田区","address":"東京都大田区中央3丁目1-3","lat":35.57884793,"lon":139.71882126},{"name":"大森本町二丁目","province":"東京都","city":"大田区","address":"東京都大田区大森本町2丁目1-19","lat":35.58116221,"lon":139.73656158},{"name":"入新井四小入口","province":"東京都","city":"大田区","address":"東京都大田区中央3丁目5-7","lat":35.57789523,"lon":139.71703814},{"name":"東邦大学病院前","province":"東京都","city":"大田区","address":"東京都大田区大森西6丁目11","lat":35.56913532,"lon":139.72386297},{"name":"入新井第一小学校前","province":"東京都","city":"大田区","address":"東京都大田区大森北4丁目6-7","lat":35.58365875,"lon":139.72740928},{"name":"臼田坂下","province":"東京都","city":"大田区","address":"東京都大田区中央4丁目31-1","lat":35.58022832,"lon":139.718524},{"name":"大森銀座入口","province":"東京都","city":"大田区","address":"東京都大田区大森北1丁目29-6","lat":35.5855669,"lon":139.72875077},{"name":"大森郵便局前","province":"東京都","city":"大田区","address":"東京都大田区山王3丁目9-13","lat":35.5826365,"lon":139.72315684},{"name":"環七美原通り","province":"東京都","city":"大田区","address":"東京都大田区大森本町2丁目33-5","lat":35.57772375,"lon":139.73632288},{"name":"大森青少年センター入口","province":"東京都","city":"大田区","address":"東京都大田区大森北1丁目15-1","lat":35.58616131,"lon":139.72953958},{"name":"八幡中央通り第二","province":"東京都","city":"大田区","address":"東京都大田区大森北1丁目19-12","lat":35.58593361,"lon":139.7312228},{"name":"大森駅西口第三","province":"東京都","city":"大田区","address":"東京都大田区山王2丁目8-26","lat":35.58931637,"lon":139.72727572},{"name":"大森東三丁目","province":"東京都","city":"大田区","address":"東京都大田区大森東2丁目23-11","lat":35.5715939,"lon":139.73493163},{"name":"中央一丁目","province":"東京都","city":"大田区","address":"東京都大田区中央2丁目7-3","lat":35.58038391,"lon":139.7211932},{"name":"入新井児童公園前","province":"東京都","city":"大田区","address":"東京都大田区大森北1丁目5-1","lat":35.587275,"lon":139.72784242},{"name":"大森駅西口第二","province":"東京都","city":"大田区","address":"東京都大田区山王2丁目8","lat":35.58883586,"lon":139.72641746},{"name":"入新井第一小学校東","province":"東京都","city":"大田区","address":"東京都大田区大森北4丁目7-4","lat":35.58450315,"lon":139.72859249},{"name":"洗足池駅前","province":"東京都","city":"大田区","address":"東京都大田区南千束2丁目1-5","lat":35.60029759,"lon":139.69135895},{"name":"長原駅入口","province":"東京都","city":"大田区","address":"東京都大田区上池台1丁目44-1","lat":35.60143924,"lon":139.6998109},{"name":"田園調布警察署前","province":"東京都","city":"大田区","address":"東京都大田区田園調布1丁目1-8","lat":35.58912681,"lon":139.67733048},{"name":"上池上稲荷坂","province":"東京都","city":"大田区","address":"東京都大田区上池台5丁目6-1","lat":35.59515661,"lon":139.70111376},{"name":"荏原病院前","province":"東京都","city":"大田区","address":"東京都大田区東雪谷4丁目5-10","lat":35.59460659,"lon":139.69367561},{"name":"貝塚","province":"東京都","city":"大田区","address":"東京都大田区中馬込1丁目1-17","lat":35.59840352,"lon":139.70376897},{"name":"御嶽神社入口","province":"東京都","city":"大田区","address":"東京都大田区田園調布本町56-5","lat":35.58554126,"lon":139.6796305},{"name":"大岡山駅前","province":"東京都","city":"大田区","address":"東京都大田区北千束3丁目27-1","lat":35.60763275,"lon":139.68575363},{"name":"大鳥居","province":"東京都","city":"大田区","address":"東京都大田区羽田1丁目1-1","lat":35.55213877,"lon":139.74081042},{"name":"蒲田郵便局前","province":"東京都","city":"大田区","address":"東京都大田区蒲田4丁目42-12","lat":35.558981,"lon":139.71870008},{"name":"蒲田消防署前","province":"東京都","city":"大田区","address":"東京都大田区蒲田本町2丁目29-12","lat":35.55599817,"lon":139.72014741},{"name":"蒲田四丁目北","province":"東京都","city":"大田区","address":"東京都大田区蒲田4丁目20-1","lat":35.56164436,"lon":139.72123287},{"name":"大田区役所入口","province":"東京都","city":"大田区","address":"東京都大田区蒲田本町1丁目1-3","lat":35.55855055,"lon":139.7163976},{"name":"夫婦橋","province":"東京都","city":"大田区","address":"東京都大田区南蒲田1丁目1-25","lat":35.56087802,"lon":139.7247883},{"name":"あやめ橋","province":"東京都","city":"大田区","address":"東京都大田区蒲田1丁目31-1","lat":35.56263314,"lon":139.7211023},{"name":"西蒲田八丁目第二","province":"東京都","city":"大田区","address":"東京都大田区新蒲田1丁目13-5","lat":35.55957269,"lon":139.710351},{"name":"蒲田駅東口南","province":"東京都","city":"大田区","address":"東京都大田区蒲田5丁目39-2","lat":35.56176389,"lon":139.71664453},{"name":"蒲田駅東口中央","province":"東京都","city":"大田区","address":"東京都大田区蒲田5丁目16-1","lat":35.56237491,"lon":139.71734442},{"name":"蒲田交差西口","province":"東京都","city":"大田区","address":"東京都大田区西蒲田5丁目27-10","lat":35.56435526,"lon":139.71442522},{"name":"蒲田五丁目","province":"東京都","city":"大田区","address":"東京都大田区蒲田5丁目24-2","lat":35.56264984,"lon":139.71930806},{"name":"糀谷駅入口","province":"東京都","city":"大田区","address":"東京都大田区萩中2丁目1-24","lat":35.55337958,"lon":139.72995532},{"name":"西蒲田七丁目","province":"東京都","city":"大田区","address":"東京都大田区西蒲田7丁目9-5","lat":35.56416085,"lon":139.71311427},{"name":"蒲田四丁目南","province":"東京都","city":"大田区","address":"東京都大田区蒲田4丁目29-1","lat":35.56092507,"lon":139.71998865},{"name":"御園神社前","province":"東京都","city":"大田区","address":"東京都大田区西蒲田7丁目39-5","lat":35.56295551,"lon":139.71024522},{"name":"蒲田警察署前","province":"東京都","city":"大田区","address":"東京都大田区蒲田本町2丁目3-3","lat":35.55811168,"lon":139.72037497},{"name":"大田区役所前","province":"東京都","city":"大田区","address":"東京都大田区蒲田5丁目40-10","lat":35.56058352,"lon":139.71651687},{"name":"御園神社前第二","province":"東京都","city":"大田区","address":"東京都大田区西蒲田7丁目51-5","lat":35.56261942,"lon":139.711334},{"name":"蒲田駅西口","province":"東京都","city":"大田区","address":"東京都大田区西蒲田7丁目47-3","lat":35.56256937,"lon":139.71468639},{"name":"御園神社前第三","province":"東京都","city":"大田区","address":"東京都大田区西蒲田7丁目48-1","lat":35.56252218,"lon":139.71328656},{"name":"蒲田五丁目第二","province":"東京都","city":"大田区","address":"東京都大田区蒲田5丁目17-2","lat":35.56259988,"lon":139.71745551},{"name":"蒲田駅西口第二","province":"東京都","city":"大田区","address":"東京都大田区西蒲田7丁目29-5","lat":35.56316374,"lon":139.71499188},{"name":"西蒲田七丁目第二","province":"東京都","city":"大田区","address":"東京都大田区西蒲田7丁目31-1","lat":35.56327764,"lon":139.71341706},{"name":"西蒲田七丁目第三","province":"東京都","city":"大田区","address":"東京都大田区西蒲田7丁目33-1","lat":35.56335265,"lon":139.71178114},{"name":"萩中小学校前","province":"東京都","city":"大田区","address":"東京都大田区萩中3丁目25","lat":35.55005288,"lon":139.73951895},{"name":"京急蒲田駅西口","province":"東京都","city":"大田区","address":"東京都大田区蒲田3丁目20-4","lat":35.5625083,"lon":139.72407434},{"name":"仲蒲田公園入口","province":"東京都","city":"大田区","address":"東京都大田区蒲田4丁目41-1","lat":35.55978918,"lon":139.71899442},{"name":"蒲田八幡神社前","province":"東京都","city":"大田区","address":"東京都大田区蒲田4丁目18-17","lat":35.56006968,"lon":139.72259958},{"name":"蒲田四丁目南第二","province":"東京都","city":"大田区","address":"東京都大田区蒲田5丁目36","lat":35.56134169,"lon":139.71861932},{"name":"蒲田二丁目","province":"東京都","city":"大田区","address":"東京都大田区蒲田2丁目18-24","lat":35.56626057,"lon":139.72262983},{"name":"蒲田東口公園前","province":"東京都","city":"大田区","address":"東京都大田区蒲田5丁目38-3","lat":35.56151391,"lon":139.71739445},{"name":"蒲田社会保険所前","province":"東京都","city":"大田区","address":"東京都大田区蒲田4丁目23-15","lat":35.56055844,"lon":139.72129407},{"name":"下丸子三丁目","province":"東京都","city":"大田区","address":"東京都大田区下丸子3丁目28-11","lat":35.56688332,"lon":139.68427323},{"name":"大田都税前","province":"東京都","city":"大田区","address":"東京都大田区西蒲田6丁目33-1","lat":35.56485524,"lon":139.71051452},{"name":"矢口二丁目南","province":"東京都","city":"大田区","address":"東京都大田区矢口2丁目10-6","lat":35.56323654,"lon":139.69113654},{"name":"谷中通り","province":"東京都","city":"大田区","address":"東京都大田区南馬込2丁目28-1","lat":35.59024374,"lon":139.71862356},{"name":"池上橋南","province":"東京都","city":"大田区","address":"東京都大田区池上3丁目2-1","lat":35.57769507,"lon":139.70037035},{"name":"千鳥二丁目西","province":"東京都","city":"大田区","address":"東京都大田区千鳥2丁目15-16","lat":35.57031304,"lon":139.69352176},{"name":"多摩川一丁目第二","province":"東京都","city":"大田区","address":"東京都大田区多摩川1丁目7-6","lat":35.56336683,"lon":139.69925215},{"name":"池上特別出張所前","province":"東京都","city":"大田区","address":"東京都大田区中央8丁目2-20","lat":35.5746011,"lon":139.71090832},{"name":"西蒲田六丁目第二","province":"東京都","city":"大田区","address":"東京都大田区西蒲田7丁目11-4","lat":35.56437195,"lon":139.71151166},{"name":"池上六丁目第二","province":"東京都","city":"大田区","address":"東京都大田区東矢口1丁目4-18","lat":35.56642735,"lon":139.7038569},{"name":"池上六丁目第三","province":"東京都","city":"大田区","address":"東京都大田区池上6丁目32-11","lat":35.56822984,"lon":139.70440114},{"name":"武蔵新田駅前第二","province":"東京都","city":"大田区","address":"東京都大田区矢口1丁目5-8","lat":35.56745795,"lon":139.69415525},{"name":"武蔵新田駅前","province":"東京都","city":"大田区","address":"東京都大田区矢口1丁目7-14","lat":35.56838562,"lon":139.69222764},{"name":"池上福祉事務所前","province":"東京都","city":"大田区","address":"東京都大田区池上6丁目40-3","lat":35.56784099,"lon":139.70555659},{"name":"第２ターミナル","province":"東京都","city":"大田区","address":"東京都大田区羽田空港3丁目4","lat":35.54998808,"lon":139.7900261},{"name":"馬込給水所","province":"東京都","city":"大田区","address":"東京都大田区西馬込2丁目15-6","lat":35.58832131,"lon":139.70213893},{"name":"上池台給水所","province":"東京都","city":"大田区","address":"東京都大田区上池台1丁目48-25","lat":35.6004699,"lon":139.69973594},{"name":"区立西六郷三丁目公園","province":"東京都","city":"大田区","address":"東京都大田区西六郷3丁目16-16","lat":35.54629163,"lon":139.7059358},{"name":"区立萩中公園","province":"東京都","city":"大田区","address":"東京都大田区萩中3丁目25-26","lat":35.54972234,"lon":139.73905511},{"name":"区立都堀公園","province":"東京都","city":"大田区","address":"東京都大田区大森東1丁目30","lat":35.57738779,"lon":139.73836722},{"name":"区立下丸子公園","province":"東京都","city":"大田区","address":"東京都大田区下丸子4丁目21","lat":35.56920527,"lon":139.67906532},{"name":"区立女塚なかよし公園","province":"東京都","city":"大田区","address":"東京都大田区池上5丁目24","lat":35.57274857,"lon":139.71105287},{"name":"東海給水所","province":"東京都","city":"大田区","address":"東京都大田区東海1丁目3-12","lat":35.585493,"lon":139.7537297},{"name":"大田区保健所（保健衛生課）","province":"東京都","city":"大田区","address":"東京都大田区蒲田5丁目13-14","lat":35.56143339,"lon":139.71606685},{"name":"多摩川二丁目緊急用船着場","province":"東京都","city":"大田区","address":"東京都大田区多摩川2丁目","lat":35.55788986,"lon":139.70234382},{"name":"東京都漁連水産物流通センター","province":"東京都","city":"大田区","address":"東京都大田区京浜島3丁目","lat":35.57325911,"lon":139.76385757},{"name":"大森ふるさとの浜辺公園","province":"東京都","city":"大田区","address":"東京都大田区平和の森公園2-2","lat":35.57713528,"lon":139.74270588},{"name":"羽田２、３丁目","province":"東京都","city":"大田区","address":"東京都大田区羽田5丁目23","lat":35.54810939,"lon":139.74881591},{"name":"東糀谷六丁目","province":"東京都","city":"大田区","address":"東京都大田区東糀谷6丁目","lat":35.55887451,"lon":139.75037338},{"name":"羽田空港天空橋","province":"東京都","city":"大田区","address":"東京都大田区羽田空港1丁目","lat":35.55478658,"lon":139.75528179},{"name":"第一自動車警ら隊蒲田分駐所","province":"東京都","city":"大田区","address":"大田区蒲田本町2-29-12","lat":35.556,"lon":139.7201},{"name":"第二方面交通機動隊","province":"東京都","city":"大田区","address":"大田区大森北6-24-20","lat":35.57914,"lon":139.7302},{"name":"池上警察署","province":"東京都","city":"大田区","address":"大田区池上3-20-10","lat":35.57434,"lon":139.6986},{"name":"大森警察署","province":"東京都","city":"大田区","address":"大田区大森中1-1-16","lat":35.57255,"lon":139.7338},{"name":"蒲田警察署","province":"東京都","city":"大田区","address":"大田区蒲田本町2-3-3","lat":35.55811,"lon":139.7204},{"name":"田園調布警察署","province":"東京都","city":"大田区","address":"大田区田園調布1-1-8","lat":35.589128,"lon":139.677331},{"name":"東京空港警察署","province":"東京都","city":"大田区","address":"大田区羽田空港3-4-1","lat":35.55513,"lon":139.7842},{"name":"第二消防方面本部","province":"東京都","city":"大田区","address":"大田区大森東1-32-8","lat":35.5788,"lon":139.7393},{"name":"第二方面訓練場","province":"東京都","city":"大田区","address":"大田区京浜島1-1","lat":35.57302,"lon":139.7576},{"name":"大森消防署","province":"東京都","city":"大田区","address":"大田区大森東1-32-8","lat":35.5788,"lon":139.7393},{"name":"蒲田消防署","province":"東京都","city":"大田区","address":"大田区蒲田本町2-28-1","lat":35.55572,"lon":139.7198},{"name":"田園調布消防署","province":"東京都","city":"大田区","address":"大田区雪谷大塚町13-22","lat":35.5898,"lon":139.6776},{"name":"矢口消防署","province":"東京都","city":"大田区","address":"大田区多摩川2-5-20","lat":35.55952,"lon":139.6992},{"name":"大田区田園調布南倉庫","province":"東京都","city":"大田区","address":"大田区田園調布南3-8区立田園調布南公園内","lat":35.57919,"lon":139.6752},{"name":"大田区南六郷倉庫","province":"東京都","city":"大田区","address":"大田区南六郷1-29-2-101都市再生機構南六郷一丁目団地内","lat":35.5462,"lon":139.7254},{"name":"東邦薬品（株）ＷＩＬＬ平和島","province":"東京都","city":"大田区","address":"大田区平和島6-1-1(株)東京流通センター内AE4-2","lat":35.57911,"lon":139.7477},{"name":"相互産業（株）","province":"東京都","city":"大田区","address":"大田区中央3-19-5","lat":35.57492,"lon":139.7186},{"name":"大森ふるさとの浜辺公園","province":"東京都","city":"大田区","address":"東京都大田区平和の森公園2-2","lat":35.57713528,"lon":139.74270588},{"name":"平和島駅入口","province":"東京都","city":"大田区","address":"東京都大田区大森北6丁目28-1","lat":35.57832639,"lon":139.73504792},{"name":"大森第一小学校前","province":"東京都","city":"大田区","address":"東京都大田区大森中1丁目10-7","lat":35.57010797,"lon":139.73473729},{"name":"春日橋","province":"東京都","city":"大田区","address":"東京都大田区山王3丁目13-4","lat":35.58136716,"lon":139.72206254},{"name":"大田文化の森","province":"東京都","city":"大田区","address":"東京都大田区中央2丁目10-1","lat":35.57955621,"lon":139.7202711},{"name":"大森町駅入口","province":"東京都","city":"大田区","address":"東京都大田区大森中1丁目2-23","lat":35.57164102,"lon":139.73274287},{"name":"八幡中央通り","province":"東京都","city":"大田区","address":"東京都大田区大森北3丁目1-1","lat":35.58461988,"lon":139.730959},{"name":"大森東四丁目","province":"東京都","city":"大田区","address":"東京都大田区大森東4丁目19-31","lat":35.56830828,"lon":139.73574012},{"name":"山王","province":"東京都","city":"大田区","address":"東京都大田区山王2丁目1-8","lat":35.59048294,"lon":139.72853391},{"name":"山王二丁目","province":"東京都","city":"大田区","address":"東京都大田区山王2丁目3","lat":35.58694443,"lon":139.72633421},{"name":"大森赤十字病院入口","province":"東京都","city":"大田区","address":"東京都大田区中央3丁目1-3","lat":35.57884793,"lon":139.71882126},{"name":"大森本町二丁目","province":"東京都","city":"大田区","address":"東京都大田区大森本町2丁目1-19","lat":35.58116221,"lon":139.73656158},{"name":"入新井四小入口","province":"東京都","city":"大田区","address":"東京都大田区中央3丁目5-7","lat":35.57789523,"lon":139.71703814},{"name":"東邦大学病院前","province":"東京都","city":"大田区","address":"東京都大田区大森西6丁目11","lat":35.56913532,"lon":139.72386297},{"name":"入新井第一小学校前","province":"東京都","city":"大田区","address":"東京都大田区大森北4丁目6-7","lat":35.58365875,"lon":139.72740928},{"name":"臼田坂下","province":"東京都","city":"大田区","address":"東京都大田区中央4丁目31-1","lat":35.58022832,"lon":139.718524},{"name":"大森銀座入口","province":"東京都","city":"大田区","address":"東京都大田区大森北1丁目29-6","lat":35.5855669,"lon":139.72875077},{"name":"大森郵便局前","province":"東京都","city":"大田区","address":"東京都大田区山王3丁目9-13","lat":35.5826365,"lon":139.72315684},{"name":"環七美原通り","province":"東京都","city":"大田区","address":"東京都大田区大森本町2丁目33-5","lat":35.57772375,"lon":139.73632288},{"name":"大森青少年センター入口","province":"東京都","city":"大田区","address":"東京都大田区大森北1丁目15-1","lat":35.58616131,"lon":139.72953958},{"name":"八幡中央通り第二","province":"東京都","city":"大田区","address":"東京都大田区大森北1丁目19-12","lat":35.58593361,"lon":139.7312228},{"name":"大森駅西口第三","province":"東京都","city":"大田区","address":"東京都大田区山王2丁目8-26","lat":35.58931637,"lon":139.72727572},{"name":"大森東三丁目","province":"東京都","city":"大田区","address":"東京都大田区大森東2丁目23-11","lat":35.5715939,"lon":139.73493163},{"name":"中央一丁目","province":"東京都","city":"大田区","address":"東京都大田区中央2丁目7-3","lat":35.58038391,"lon":139.7211932},{"name":"入新井児童公園前","province":"東京都","city":"大田区","address":"東京都大田区大森北1丁目5-1","lat":35.587275,"lon":139.72784242},{"name":"大森駅西口第二","province":"東京都","city":"大田区","address":"東京都大田区山王2丁目8","lat":35.58883586,"lon":139.72641746},{"name":"入新井第一小学校東","province":"東京都","city":"大田区","address":"東京都大田区大森北4丁目7-4","lat":35.58450315,"lon":139.72859249},{"name":"洗足池駅前","province":"東京都","city":"大田区","address":"東京都大田区南千束2丁目1-5","lat":35.60029759,"lon":139.69135895},{"name":"長原駅入口","province":"東京都","city":"大田区","address":"東京都大田区上池台1丁目44-1","lat":35.60143924,"lon":139.6998109},{"name":"田園調布警察署前","province":"東京都","city":"大田区","address":"東京都大田区田園調布1丁目1-8","lat":35.58912681,"lon":139.67733048},{"name":"上池上稲荷坂","province":"東京都","city":"大田区","address":"東京都大田区上池台5丁目6-1","lat":35.59515661,"lon":139.70111376},{"name":"荏原病院前","province":"東京都","city":"大田区","address":"東京都大田区東雪谷4丁目5-10","lat":35.59460659,"lon":139.69367561},{"name":"貝塚","province":"東京都","city":"大田区","address":"東京都大田区中馬込1丁目1-17","lat":35.59840352,"lon":139.70376897},{"name":"御嶽神社入口","province":"東京都","city":"大田区","address":"東京都大田区田園調布本町56-5","lat":35.58554126,"lon":139.6796305},{"name":"大岡山駅前","province":"東京都","city":"大田区","address":"東京都大田区北千束3丁目27-1","lat":35.60763275,"lon":139.68575363},{"name":"大鳥居","province":"東京都","city":"大田区","address":"東京都大田区羽田1丁目1-1","lat":35.55213877,"lon":139.74081042},{"name":"蒲田郵便局前","province":"東京都","city":"大田区","address":"東京都大田区蒲田4丁目42-12","lat":35.558981,"lon":139.71870008},{"name":"蒲田消防署前","province":"東京都","city":"大田区","address":"東京都大田区蒲田本町2丁目29-12","lat":35.55599817,"lon":139.72014741},{"name":"蒲田四丁目北","province":"東京都","city":"大田区","address":"東京都大田区蒲田4丁目20-1","lat":35.56164436,"lon":139.72123287},{"name":"大田区役所入口","province":"東京都","city":"大田区","address":"東京都大田区蒲田本町1丁目1-3","lat":35.55855055,"lon":139.7163976},{"name":"夫婦橋","province":"東京都","city":"大田区","address":"東京都大田区南蒲田1丁目1-25","lat":35.56087802,"lon":139.7247883},{"name":"あやめ橋","province":"東京都","city":"大田区","address":"東京都大田区蒲田1丁目31-1","lat":35.56263314,"lon":139.7211023},{"name":"西蒲田八丁目第二","province":"東京都","city":"大田区","address":"東京都大田区新蒲田1丁目13-5","lat":35.55957269,"lon":139.710351},{"name":"蒲田駅東口南","province":"東京都","city":"大田区","address":"東京都大田区蒲田5丁目39-2","lat":35.56176389,"lon":139.71664453},{"name":"蒲田駅東口中央","province":"東京都","city":"大田区","address":"東京都大田区蒲田5丁目16-1","lat":35.56237491,"lon":139.71734442},{"name":"蒲田交差西口","province":"東京都","city":"大田区","address":"東京都大田区西蒲田5丁目27-10","lat":35.56435526,"lon":139.71442522},{"name":"蒲田五丁目","province":"東京都","city":"大田区","address":"東京都大田区蒲田5丁目24-2","lat":35.56264984,"lon":139.71930806},{"name":"糀谷駅入口","province":"東京都","city":"大田区","address":"東京都大田区萩中2丁目1-24","lat":35.55337958,"lon":139.72995532},{"name":"西蒲田七丁目","province":"東京都","city":"大田区","address":"東京都大田区西蒲田7丁目9-5","lat":35.56416085,"lon":139.71311427},{"name":"蒲田四丁目南","province":"東京都","city":"大田区","address":"東京都大田区蒲田4丁目29-1","lat":35.56092507,"lon":139.71998865},{"name":"御園神社前","province":"東京都","city":"大田区","address":"東京都大田区西蒲田7丁目39-5","lat":35.56295551,"lon":139.71024522},{"name":"蒲田警察署前","province":"東京都","city":"大田区","address":"東京都大田区蒲田本町2丁目3-3","lat":35.55811168,"lon":139.72037497},{"name":"大田区役所前","province":"東京都","city":"大田区","address":"東京都大田区蒲田5丁目40-10","lat":35.56058352,"lon":139.71651687},{"name":"御園神社前第二","province":"東京都","city":"大田区","address":"東京都大田区西蒲田7丁目51-5","lat":35.56261942,"lon":139.711334},{"name":"蒲田駅西口","province":"東京都","city":"大田区","address":"東京都大田区西蒲田7丁目47-3","lat":35.56256937,"lon":139.71468639},{"name":"御園神社前第三","province":"東京都","city":"大田区","address":"東京都大田区西蒲田7丁目48-1","lat":35.56252218,"lon":139.71328656},{"name":"蒲田五丁目第二","province":"東京都","city":"大田区","address":"東京都大田区蒲田5丁目17-2","lat":35.56259988,"lon":139.71745551},{"name":"蒲田駅西口第二","province":"東京都","city":"大田区","address":"東京都大田区西蒲田7丁目29-5","lat":35.56316374,"lon":139.71499188},{"name":"西蒲田七丁目第二","province":"東京都","city":"大田区","address":"東京都大田区西蒲田7丁目31-1","lat":35.56327764,"lon":139.71341706},{"name":"西蒲田七丁目第三","province":"東京都","city":"大田区","address":"東京都大田区西蒲田7丁目33-1","lat":35.56335265,"lon":139.71178114},{"name":"萩中小学校前","province":"東京都","city":"大田区","address":"東京都大田区萩中3丁目25","lat":35.55005288,"lon":139.73951895},{"name":"京急蒲田駅西口","province":"東京都","city":"大田区","address":"東京都大田区蒲田3丁目20-4","lat":35.5625083,"lon":139.72407434},{"name":"仲蒲田公園入口","province":"東京都","city":"大田区","address":"東京都大田区蒲田4丁目41-1","lat":35.55978918,"lon":139.71899442},{"name":"蒲田八幡神社前","province":"東京都","city":"大田区","address":"東京都大田区蒲田4丁目18-17","lat":35.56006968,"lon":139.72259958},{"name":"蒲田四丁目南第二","province":"東京都","city":"大田区","address":"東京都大田区蒲田5丁目36","lat":35.56134169,"lon":139.71861932},{"name":"蒲田二丁目","province":"東京都","city":"大田区","address":"東京都大田区蒲田2丁目18-24","lat":35.56626057,"lon":139.72262983},{"name":"蒲田東口公園前","province":"東京都","city":"大田区","address":"東京都大田区蒲田5丁目38-3","lat":35.56151391,"lon":139.71739445},{"name":"蒲田社会保険所前","province":"東京都","city":"大田区","address":"東京都大田区蒲田4丁目23-15","lat":35.56055844,"lon":139.72129407},{"name":"下丸子三丁目","province":"東京都","city":"大田区","address":"東京都大田区下丸子3丁目28-11","lat":35.56688332,"lon":139.68427323},{"name":"大田都税前","province":"東京都","city":"大田区","address":"東京都大田区西蒲田6丁目33-1","lat":35.56485524,"lon":139.71051452},{"name":"矢口二丁目南","province":"東京都","city":"大田区","address":"東京都大田区矢口2丁目10-6","lat":35.56323654,"lon":139.69113654},{"name":"谷中通り","province":"東京都","city":"大田区","address":"東京都大田区南馬込2丁目28-1","lat":35.59024374,"lon":139.71862356},{"name":"池上橋南","province":"東京都","city":"大田区","address":"東京都大田区池上3丁目2-1","lat":35.57769507,"lon":139.70037035},{"name":"千鳥二丁目西","province":"東京都","city":"大田区","address":"東京都大田区千鳥2丁目15-16","lat":35.57031304,"lon":139.69352176},{"name":"多摩川一丁目第二","province":"東京都","city":"大田区","address":"東京都大田区多摩川1丁目7-6","lat":35.56336683,"lon":139.69925215},{"name":"池上特別出張所前","province":"東京都","city":"大田区","address":"東京都大田区中央8丁目2-20","lat":35.5746011,"lon":139.71090832},{"name":"西蒲田六丁目第二","province":"東京都","city":"大田区","address":"東京都大田区西蒲田7丁目11-4","lat":35.56437195,"lon":139.71151166},{"name":"池上六丁目第二","province":"東京都","city":"大田区","address":"東京都大田区東矢口1丁目4-18","lat":35.56642735,"lon":139.7038569},{"name":"池上六丁目第三","province":"東京都","city":"大田区","address":"東京都大田区池上6丁目32-11","lat":35.56822984,"lon":139.70440114},{"name":"武蔵新田駅前第二","province":"東京都","city":"大田区","address":"東京都大田区矢口1丁目5-8","lat":35.56745795,"lon":139.69415525},{"name":"武蔵新田駅前","province":"東京都","city":"大田区","address":"東京都大田区矢口1丁目7-14","lat":35.56838562,"lon":139.69222764},{"name":"池上福祉事務所前","province":"東京都","city":"大田区","address":"東京都大田区池上6丁目40-3","lat":35.56784099,"lon":139.70555659},{"name":"第２ターミナル","province":"東京都","city":"大田区","address":"東京都大田区羽田空港3丁目4","lat":35.54998808,"lon":139.7900261},{"name":"馬込給水所","province":"東京都","city":"大田区","address":"東京都大田区西馬込2丁目15-6","lat":35.58832131,"lon":139.70213893},{"name":"上池台給水所","province":"東京都","city":"大田区","address":"東京都大田区上池台1丁目48-25","lat":35.6004699,"lon":139.69973594},{"name":"区立西六郷三丁目公園","province":"東京都","city":"大田区","address":"東京都大田区西六郷3丁目16-16","lat":35.54629163,"lon":139.7059358},{"name":"区立萩中公園","province":"東京都","city":"大田区","address":"東京都大田区萩中3丁目25-26","lat":35.54972234,"lon":139.73905511},{"name":"区立都堀公園","province":"東京都","city":"大田区","address":"東京都大田区大森東1丁目30","lat":35.57738779,"lon":139.73836722},{"name":"区立下丸子公園","province":"東京都","city":"大田区","address":"東京都大田区下丸子4丁目21","lat":35.56920527,"lon":139.67906532},{"name":"区立女塚なかよし公園","province":"東京都","city":"大田区","address":"東京都大田区池上5丁目24","lat":35.57274857,"lon":139.71105287},{"name":"東海給水所","province":"東京都","city":"大田区","address":"東京都大田区東海1丁目3-12","lat":35.585493,"lon":139.7537297},{"name":"大田区保健所（保健衛生課）","province":"東京都","city":"大田区","address":"東京都大田区蒲田5丁目13-14","lat":35.56143339,"lon":139.71606685},{"name":"多摩川二丁目緊急用船着場","province":"東京都","city":"大田区","address":"東京都大田区多摩川2丁目","lat":35.55788986,"lon":139.70234382},{"name":"東京都漁連水産物流通センター","province":"東京都","city":"大田区","address":"東京都大田区京浜島3丁目","lat":35.57325911,"lon":139.76385757},{"name":"大森ふるさとの浜辺公園","province":"東京都","city":"大田区","address":"東京都大田区平和の森公園2-2","lat":35.57713528,"lon":139.74270588},{"name":"羽田２、３丁目","province":"東京都","city":"大田区","address":"東京都大田区羽田5丁目23","lat":35.54810939,"lon":139.74881591},{"name":"東糀谷六丁目","province":"東京都","city":"大田区","address":"東京都大田区東糀谷6丁目","lat":35.55887451,"lon":139.75037338},{"name":"羽田空港天空橋","province":"東京都","city":"大田区","address":"東京都大田区羽田空港1丁目","lat":35.55478658,"lon":139.75528179},{"name":"第一自動車警ら隊蒲田分駐所","province":"東京都","city":"大田区","address":"大田区蒲田本町2-29-12","lat":35.556,"lon":139.7201},{"name":"第二方面交通機動隊","province":"東京都","city":"大田区","address":"大田区大森北6-24-20","lat":35.57914,"lon":139.7302},{"name":"池上警察署","province":"東京都","city":"大田区","address":"大田区池上3-20-10","lat":35.57434,"lon":139.6986},{"name":"大森警察署","province":"東京都","city":"大田区","address":"大田区大森中1-1-16","lat":35.57255,"lon":139.7338},{"name":"蒲田警察署","province":"東京都","city":"大田区","address":"大田区蒲田本町2-3-3","lat":35.55811,"lon":139.7204},{"name":"田園調布警察署","province":"東京都","city":"大田区","address":"大田区田園調布1-1-8","lat":35.589128,"lon":139.677331},{"name":"東京空港警察署","province":"東京都","city":"大田区","address":"大田区羽田空港3-4-1","lat":35.55513,"lon":139.7842},{"name":"第二消防方面本部","province":"東京都","city":"大田区","address":"大田区大森東1-32-8","lat":35.5788,"lon":139.7393},{"name":"第二方面訓練場","province":"東京都","city":"大田区","address":"大田区京浜島1-1","lat":35.57302,"lon":139.7576},{"name":"大森消防署","province":"東京都","city":"大田区","address":"大田区大森東1-32-8","lat":35.5788,"lon":139.7393},{"name":"蒲田消防署","province":"東京都","city":"大田区","address":"大田区蒲田本町2-28-1","lat":35.55572,"lon":139.7198},{"name":"田園調布消防署","province":"東京都","city":"大田区","address":"大田区雪谷大塚町13-22","lat":35.5898,"lon":139.6776},{"name":"矢口消防署","province":"東京都","city":"大田区","address":"大田区多摩川2-5-20","lat":35.55952,"lon":139.6992},{"name":"大田区田園調布南倉庫","province":"東京都","city":"大田区","address":"大田区田園調布南3-8区立田園調布南公園内","lat":35.57919,"lon":139.6752},{"name":"大田区南六郷倉庫","province":"東京都","city":"大田区","address":"大田区南六郷1-29-2-101都市再生機構南六郷一丁目団地内","lat":35.5462,"lon":139.7254},{"name":"東邦薬品（株）ＷＩＬＬ平和島","province":"東京都","city":"大田区","address":"大田区平和島6-1-1(株)東京流通センター内AE4-2","lat":35.57911,"lon":139.7477},{"name":"相互産業（株）","province":"東京都","city":"大田区","address":"大田区中央3-19-5","lat":35.57492,"lon":139.7186},{"name":"大森ふるさとの浜辺公園","province":"東京都","city":"大田区","address":"東京都大田区平和の森公園2-2","lat":35.57713528,"lon":139.74270588},{"name":"平和島駅入口","province":"東京都","city":"大田区","address":"東京都大田区大森北6丁目28-1","lat":35.57832639,"lon":139.73504792},{"name":"大森第一小学校前","province":"東京都","city":"大田区","address":"東京都大田区大森中1丁目10-7","lat":35.57010797,"lon":139.73473729},{"name":"春日橋","province":"東京都","city":"大田区","address":"東京都大田区山王3丁目13-4","lat":35.58136716,"lon":139.72206254},{"name":"大田文化の森","province":"東京都","city":"大田区","address":"東京都大田区中央2丁目10-1","lat":35.57955621,"lon":139.7202711},{"name":"大森町駅入口","province":"東京都","city":"大田区","address":"東京都大田区大森中1丁目2-23","lat":35.57164102,"lon":139.73274287},{"name":"八幡中央通り","province":"東京都","city":"大田区","address":"東京都大田区大森北3丁目1-1","lat":35.58461988,"lon":139.730959},{"name":"大森東四丁目","province":"東京都","city":"大田区","address":"東京都大田区大森東4丁目19-31","lat":35.56830828,"lon":139.73574012},{"name":"山王","province":"東京都","city":"大田区","address":"東京都大田区山王2丁目1-8","lat":35.59048294,"lon":139.72853391},{"name":"山王二丁目","province":"東京都","city":"大田区","address":"東京都大田区山王2丁目3","lat":35.58694443,"lon":139.72633421},{"name":"大森赤十字病院入口","province":"東京都","city":"大田区","address":"東京都大田区中央3丁目1-3","lat":35.57884793,"lon":139.71882126},{"name":"大森本町二丁目","province":"東京都","city":"大田区","address":"東京都大田区大森本町2丁目1-19","lat":35.58116221,"lon":139.73656158},{"name":"入新井四小入口","province":"東京都","city":"大田区","address":"東京都大田区中央3丁目5-7","lat":35.57789523,"lon":139.71703814},{"name":"東邦大学病院前","province":"東京都","city":"大田区","address":"東京都大田区大森西6丁目11","lat":35.56913532,"lon":139.72386297},{"name":"入新井第一小学校前","province":"東京都","city":"大田区","address":"東京都大田区大森北4丁目6-7","lat":35.58365875,"lon":139.72740928},{"name":"臼田坂下","province":"東京都","city":"大田区","address":"東京都大田区中央4丁目31-1","lat":35.58022832,"lon":139.718524},{"name":"大森銀座入口","province":"東京都","city":"大田区","address":"東京都大田区大森北1丁目29-6","lat":35.5855669,"lon":139.72875077},{"name":"大森郵便局前","province":"東京都","city":"大田区","address":"東京都大田区山王3丁目9-13","lat":35.5826365,"lon":139.72315684},{"name":"環七美原通り","province":"東京都","city":"大田区","address":"東京都大田区大森本町2丁目33-5","lat":35.57772375,"lon":139.73632288},{"name":"大森青少年センター入口","province":"東京都","city":"大田区","address":"東京都大田区大森北1丁目15-1","lat":35.58616131,"lon":139.72953958},{"name":"八幡中央通り第二","province":"東京都","city":"大田区","address":"東京都大田区大森北1丁目19-12","lat":35.58593361,"lon":139.7312228},{"name":"大森駅西口第三","province":"東京都","city":"大田区","address":"東京都大田区山王2丁目8-26","lat":35.58931637,"lon":139.72727572},{"name":"大森東三丁目","province":"東京都","city":"大田区","address":"東京都大田区大森東2丁目23-11","lat":35.5715939,"lon":139.73493163},{"name":"中央一丁目","province":"東京都","city":"大田区","address":"東京都大田区中央2丁目7-3","lat":35.58038391,"lon":139.7211932},{"name":"入新井児童公園前","province":"東京都","city":"大田区","address":"東京都大田区大森北1丁目5-1","lat":35.587275,"lon":139.72784242},{"name":"大森駅西口第二","province":"東京都","city":"大田区","address":"東京都大田区山王2丁目8","lat":35.58883586,"lon":139.72641746},{"name":"入新井第一小学校東","province":"東京都","city":"大田区","address":"東京都大田区大森北4丁目7-4","lat":35.58450315,"lon":139.72859249},{"name":"洗足池駅前","province":"東京都","city":"大田区","address":"東京都大田区南千束2丁目1-5","lat":35.60029759,"lon":139.69135895},{"name":"長原駅入口","province":"東京都","city":"大田区","address":"東京都大田区上池台1丁目44-1","lat":35.60143924,"lon":139.6998109},{"name":"田園調布警察署前","province":"東京都","city":"大田区","address":"東京都大田区田園調布1丁目1-8","lat":35.58912681,"lon":139.67733048},{"name":"上池上稲荷坂","province":"東京都","city":"大田区","address":"東京都大田区上池台5丁目6-1","lat":35.59515661,"lon":139.70111376},{"name":"荏原病院前","province":"東京都","city":"大田区","address":"東京都大田区東雪谷4丁目5-10","lat":35.59460659,"lon":139.69367561},{"name":"貝塚","province":"東京都","city":"大田区","address":"東京都大田区中馬込1丁目1-17","lat":35.59840352,"lon":139.70376897},{"name":"御嶽神社入口","province":"東京都","city":"大田区","address":"東京都大田区田園調布本町56-5","lat":35.58554126,"lon":139.6796305},{"name":"大岡山駅前","province":"東京都","city":"大田区","address":"東京都大田区北千束3丁目27-1","lat":35.60763275,"lon":139.68575363},{"name":"大鳥居","province":"東京都","city":"大田区","address":"東京都大田区羽田1丁目1-1","lat":35.55213877,"lon":139.74081042},{"name":"蒲田郵便局前","province":"東京都","city":"大田区","address":"東京都大田区蒲田4丁目42-12","lat":35.558981,"lon":139.71870008},{"name":"蒲田消防署前","province":"東京都","city":"大田区","address":"東京都大田区蒲田本町2丁目29-12","lat":35.55599817,"lon":139.72014741},{"name":"蒲田四丁目北","province":"東京都","city":"大田区","address":"東京都大田区蒲田4丁目20-1","lat":35.56164436,"lon":139.72123287},{"name":"大田区役所入口","province":"東京都","city":"大田区","address":"東京都大田区蒲田本町1丁目1-3","lat":35.55855055,"lon":139.7163976},{"name":"夫婦橋","province":"東京都","city":"大田区","address":"東京都大田区南蒲田1丁目1-25","lat":35.56087802,"lon":139.7247883},{"name":"あやめ橋","province":"東京都","city":"大田区","address":"東京都大田区蒲田1丁目31-1","lat":35.56263314,"lon":139.7211023},{"name":"西蒲田八丁目第二","province":"東京都","city":"大田区","address":"東京都大田区新蒲田1丁目13-5","lat":35.55957269,"lon":139.710351},{"name":"蒲田駅東口南","province":"東京都","city":"大田区","address":"東京都大田区蒲田5丁目39-2","lat":35.56176389,"lon":139.71664453},{"name":"蒲田駅東口中央","province":"東京都","city":"大田区","address":"東京都大田区蒲田5丁目16-1","lat":35.56237491,"lon":139.71734442},{"name":"蒲田交差西口","province":"東京都","city":"大田区","address":"東京都大田区西蒲田5丁目27-10","lat":35.56435526,"lon":139.71442522},{"name":"蒲田五丁目","province":"東京都","city":"大田区","address":"東京都大田区蒲田5丁目24-2","lat":35.56264984,"lon":139.71930806},{"name":"糀谷駅入口","province":"東京都","city":"大田区","address":"東京都大田区萩中2丁目1-24","lat":35.55337958,"lon":139.72995532},{"name":"西蒲田七丁目","province":"東京都","city":"大田区","address":"東京都大田区西蒲田7丁目9-5","lat":35.56416085,"lon":139.71311427},{"name":"蒲田四丁目南","province":"東京都","city":"大田区","address":"東京都大田区蒲田4丁目29-1","lat":35.56092507,"lon":139.71998865},{"name":"御園神社前","province":"東京都","city":"大田区","address":"東京都大田区西蒲田7丁目39-5","lat":35.56295551,"lon":139.71024522},{"name":"蒲田警察署前","province":"東京都","city":"大田区","address":"東京都大田区蒲田本町2丁目3-3","lat":35.55811168,"lon":139.72037497},{"name":"大田区役所前","province":"東京都","city":"大田区","address":"東京都大田区蒲田5丁目40-10","lat":35.56058352,"lon":139.71651687},{"name":"御園神社前第二","province":"東京都","city":"大田区","address":"東京都大田区西蒲田7丁目51-5","lat":35.56261942,"lon":139.711334},{"name":"蒲田駅西口","province":"東京都","city":"大田区","address":"東京都大田区西蒲田7丁目47-3","lat":35.56256937,"lon":139.71468639},{"name":"御園神社前第三","province":"東京都","city":"大田区","address":"東京都大田区西蒲田7丁目48-1","lat":35.56252218,"lon":139.71328656},{"name":"蒲田五丁目第二","province":"東京都","city":"大田区","address":"東京都大田区蒲田5丁目17-2","lat":35.56259988,"lon":139.71745551},{"name":"蒲田駅西口第二","province":"東京都","city":"大田区","address":"東京都大田区西蒲田7丁目29-5","lat":35.56316374,"lon":139.71499188},{"name":"西蒲田七丁目第二","province":"東京都","city":"大田区","address":"東京都大田区西蒲田7丁目31-1","lat":35.56327764,"lon":139.71341706},{"name":"西蒲田七丁目第三","province":"東京都","city":"大田区","address":"東京都大田区西蒲田7丁目33-1","lat":35.56335265,"lon":139.71178114},{"name":"萩中小学校前","province":"東京都","city":"大田区","address":"東京都大田区萩中3丁目25","lat":35.55005288,"lon":139.73951895},{"name":"京急蒲田駅西口","province":"東京都","city":"大田区","address":"東京都大田区蒲田3丁目20-4","lat":35.5625083,"lon":139.72407434},{"name":"仲蒲田公園入口","province":"東京都","city":"大田区","address":"東京都大田区蒲田4丁目41-1","lat":35.55978918,"lon":139.71899442},{"name":"蒲田八幡神社前","province":"東京都","city":"大田区","address":"東京都大田区蒲田4丁目18-17","lat":35.56006968,"lon":139.72259958},{"name":"蒲田四丁目南第二","province":"東京都","city":"大田区","address":"東京都大田区蒲田5丁目36","lat":35.56134169,"lon":139.71861932},{"name":"蒲田二丁目","province":"東京都","city":"大田区","address":"東京都大田区蒲田2丁目18-24","lat":35.56626057,"lon":139.72262983},{"name":"蒲田東口公園前","province":"東京都","city":"大田区","address":"東京都大田区蒲田5丁目38-3","lat":35.56151391,"lon":139.71739445},{"name":"蒲田社会保険所前","province":"東京都","city":"大田区","address":"東京都大田区蒲田4丁目23-15","lat":35.56055844,"lon":139.72129407},{"name":"下丸子三丁目","province":"東京都","city":"大田区","address":"東京都大田区下丸子3丁目28-11","lat":35.56688332,"lon":139.68427323},{"name":"大田都税前","province":"東京都","city":"大田区","address":"東京都大田区西蒲田6丁目33-1","lat":35.56485524,"lon":139.71051452},{"name":"矢口二丁目南","province":"東京都","city":"大田区","address":"東京都大田区矢口2丁目10-6","lat":35.56323654,"lon":139.69113654},{"name":"谷中通り","province":"東京都","city":"大田区","address":"東京都大田区南馬込2丁目28-1","lat":35.59024374,"lon":139.71862356},{"name":"池上橋南","province":"東京都","city":"大田区","address":"東京都大田区池上3丁目2-1","lat":35.57769507,"lon":139.70037035},{"name":"千鳥二丁目西","province":"東京都","city":"大田区","address":"東京都大田区千鳥2丁目15-16","lat":35.57031304,"lon":139.69352176},{"name":"多摩川一丁目第二","province":"東京都","city":"大田区","address":"東京都大田区多摩川1丁目7-6","lat":35.56336683,"lon":139.69925215},{"name":"池上特別出張所前","province":"東京都","city":"大田区","address":"東京都大田区中央8丁目2-20","lat":35.5746011,"lon":139.71090832},{"name":"西蒲田六丁目第二","province":"東京都","city":"大田区","address":"東京都大田区西蒲田7丁目11-4","lat":35.56437195,"lon":139.71151166},{"name":"池上六丁目第二","province":"東京都","city":"大田区","address":"東京都大田区東矢口1丁目4-18","lat":35.56642735,"lon":139.7038569},{"name":"池上六丁目第三","province":"東京都","city":"大田区","address":"東京都大田区池上6丁目32-11","lat":35.56822984,"lon":139.70440114},{"name":"武蔵新田駅前第二","province":"東京都","city":"大田区","address":"東京都大田区矢口1丁目5-8","lat":35.56745795,"lon":139.69415525},{"name":"武蔵新田駅前","province":"東京都","city":"大田区","address":"東京都大田区矢口1丁目7-14","lat":35.56838562,"lon":139.69222764},{"name":"池上福祉事務所前","province":"東京都","city":"大田区","address":"東京都大田区池上6丁目40-3","lat":35.56784099,"lon":139.70555659},{"name":"第２ターミナル","province":"東京都","city":"大田区","address":"東京都大田区羽田空港3丁目4","lat":35.54998808,"lon":139.7900261},{"name":"馬込給水所","province":"東京都","city":"大田区","address":"東京都大田区西馬込2丁目15-6","lat":35.58832131,"lon":139.70213893},{"name":"上池台給水所","province":"東京都","city":"大田区","address":"東京都大田区上池台1丁目48-25","lat":35.6004699,"lon":139.69973594},{"name":"区立西六郷三丁目公園","province":"東京都","city":"大田区","address":"東京都大田区西六郷3丁目16-16","lat":35.54629163,"lon":139.7059358},{"name":"区立萩中公園","province":"東京都","city":"大田区","address":"東京都大田区萩中3丁目25-26","lat":35.54972234,"lon":139.73905511},{"name":"区立都堀公園","province":"東京都","city":"大田区","address":"東京都大田区大森東1丁目30","lat":35.57738779,"lon":139.73836722},{"name":"区立下丸子公園","province":"東京都","city":"大田区","address":"東京都大田区下丸子4丁目21","lat":35.56920527,"lon":139.67906532},{"name":"区立女塚なかよし公園","province":"東京都","city":"大田区","address":"東京都大田区池上5丁目24","lat":35.57274857,"lon":139.71105287},{"name":"東海給水所","province":"東京都","city":"大田区","address":"東京都大田区東海1丁目3-12","lat":35.585493,"lon":139.7537297},{"name":"大田区保健所（保健衛生課）","province":"東京都","city":"大田区","address":"東京都大田区蒲田5丁目13-14","lat":35.56143339,"lon":139.71606685},{"name":"多摩川二丁目緊急用船着場","province":"東京都","city":"大田区","address":"東京都大田区多摩川2丁目","lat":35.55788986,"lon":139.70234382},{"name":"東京都漁連水産物流通センター","province":"東京都","city":"大田区","address":"東京都大田区京浜島3丁目","lat":35.57325911,"lon":139.76385757},{"name":"大森ふるさとの浜辺公園","province":"東京都","city":"大田区","address":"東京都大田区平和の森公園2-2","lat":35.57713528,"lon":139.74270588},{"name":"羽田２、３丁目","province":"東京都","city":"大田区","address":"東京都大田区羽田5丁目23","lat":35.54810939,"lon":139.74881591},{"name":"東糀谷六丁目","province":"東京都","city":"大田区","address":"東京都大田区東糀谷6丁目","lat":35.55887451,"lon":139.75037338},{"name":"羽田空港天空橋","province":"東京都","city":"大田区","address":"東京都大田区羽田空港1丁目","lat":35.55478658,"lon":139.75528179},{"name":"第一自動車警ら隊蒲田分駐所","province":"東京都","city":"大田区","address":"大田区蒲田本町2-29-12","lat":35.556,"lon":139.7201},{"name":"第二方面交通機動隊","province":"東京都","city":"大田区","address":"大田区大森北6-24-20","lat":35.57914,"lon":139.7302},{"name":"池上警察署","province":"東京都","city":"大田区","address":"大田区池上3-20-10","lat":35.57434,"lon":139.6986},{"name":"大森警察署","province":"東京都","city":"大田区","address":"大田区大森中1-1-16","lat":35.57255,"lon":139.7338},{"name":"蒲田警察署","province":"東京都","city":"大田区","address":"大田区蒲田本町2-3-3","lat":35.55811,"lon":139.7204},{"name":"田園調布警察署","province":"東京都","city":"大田区","address":"大田区田園調布1-1-8","lat":35.589128,"lon":139.677331},{"name":"東京空港警察署","province":"東京都","city":"大田区","address":"大田区羽田空港3-4-1","lat":35.55513,"lon":139.7842},{"name":"第二消防方面本部","province":"東京都","city":"大田区","address":"大田区大森東1-32-8","lat":35.5788,"lon":139.7393},{"name":"第二方面訓練場","province":"東京都","city":"大田区","address":"大田区京浜島1-1","lat":35.57302,"lon":139.7576},{"name":"大森消防署","province":"東京都","city":"大田区","address":"大田区大森東1-32-8","lat":35.5788,"lon":139.7393},{"name":"蒲田消防署","province":"東京都","city":"大田区","address":"大田区蒲田本町2-28-1","lat":35.55572,"lon":139.7198},{"name":"田園調布消防署","province":"東京都","city":"大田区","address":"大田区雪谷大塚町13-22","lat":35.5898,"lon":139.6776},{"name":"矢口消防署","province":"東京都","city":"大田区","address":"大田区多摩川2-5-20","lat":35.55952,"lon":139.6992},{"name":"大田区田園調布南倉庫","province":"東京都","city":"大田区","address":"大田区田園調布南3-8区立田園調布南公園内","lat":35.57919,"lon":139.6752},{"name":"大田区南六郷倉庫","province":"東京都","city":"大田区","address":"大田区南六郷1-29-2-101都市再生機構南六郷一丁目団地内","lat":35.5462,"lon":139.7254},{"name":"東邦薬品（株）ＷＩＬＬ平和島","province":"東京都","city":"大田区","address":"大田区平和島6-1-1(株)東京流通センター内AE4-2","lat":35.57911,"lon":139.7477},{"name":"相互産業（株）","province":"東京都","city":"大田区","address":"大田区中央3-19-5","lat":35.57492,"lon":139.7186},{"name":"大森ふるさとの浜辺公園","province":"東京都","city":"大田区","address":"東京都大田区平和の森公園2-2","lat":35.57713528,"lon":139.74270588},{"name":"平和島駅入口","province":"東京都","city":"大田区","address":"東京都大田区大森北6丁目28-1","lat":35.57832639,"lon":139.73504792},{"name":"大森第一小学校前","province":"東京都","city":"大田区","address":"東京都大田区大森中1丁目10-7","lat":35.57010797,"lon":139.73473729},{"name":"春日橋","province":"東京都","city":"大田区","address":"東京都大田区山王3丁目13-4","lat":35.58136716,"lon":139.72206254},{"name":"大田文化の森","province":"東京都","city":"大田区","address":"東京都大田区中央2丁目10-1","lat":35.57955621,"lon":139.7202711},{"name":"大森町駅入口","province":"東京都","city":"大田区","address":"東京都大田区大森中1丁目2-23","lat":35.57164102,"lon":139.73274287},{"name":"八幡中央通り","province":"東京都","city":"大田区","address":"東京都大田区大森北3丁目1-1","lat":35.58461988,"lon":139.730959},{"name":"大森東四丁目","province":"東京都","city":"大田区","address":"東京都大田区大森東4丁目19-31","lat":35.56830828,"lon":139.73574012},{"name":"山王","province":"東京都","city":"大田区","address":"東京都大田区山王2丁目1-8","lat":35.59048294,"lon":139.72853391},{"name":"山王二丁目","province":"東京都","city":"大田区","address":"東京都大田区山王2丁目3","lat":35.58694443,"lon":139.72633421},{"name":"大森赤十字病院入口","province":"東京都","city":"大田区","address":"東京都大田区中央3丁目1-3","lat":35.57884793,"lon":139.71882126},{"name":"大森本町二丁目","province":"東京都","city":"大田区","address":"東京都大田区大森本町2丁目1-19","lat":35.58116221,"lon":139.73656158},{"name":"入新井四小入口","province":"東京都","city":"大田区","address":"東京都大田区中央3丁目5-7","lat":35.57789523,"lon":139.71703814},{"name":"東邦大学病院前","province":"東京都","city":"大田区","address":"東京都大田区大森西6丁目11","lat":35.56913532,"lon":139.72386297},{"name":"入新井第一小学校前","province":"東京都","city":"大田区","address":"東京都大田区大森北4丁目6-7","lat":35.58365875,"lon":139.72740928},{"name":"臼田坂下","province":"東京都","city":"大田区","address":"東京都大田区中央4丁目31-1","lat":35.58022832,"lon":139.718524},{"name":"大森銀座入口","province":"東京都","city":"大田区","address":"東京都大田区大森北1丁目29-6","lat":35.5855669,"lon":139.72875077},{"name":"大森郵便局前","province":"東京都","city":"大田区","address":"東京都大田区山王3丁目9-13","lat":35.5826365,"lon":139.72315684},{"name":"環七美原通り","province":"東京都","city":"大田区","address":"東京都大田区大森本町2丁目33-5","lat":35.57772375,"lon":139.73632288},{"name":"大森青少年センター入口","province":"東京都","city":"大田区","address":"東京都大田区大森北1丁目15-1","lat":35.58616131,"lon":139.72953958},{"name":"八幡中央通り第二","province":"東京都","city":"大田区","address":"東京都大田区大森北1丁目19-12","lat":35.58593361,"lon":139.7312228},{"name":"大森駅西口第三","province":"東京都","city":"大田区","address":"東京都大田区山王2丁目8-26","lat":35.58931637,"lon":139.72727572},{"name":"大森東三丁目","province":"東京都","city":"大田区","address":"東京都大田区大森東2丁目23-11","lat":35.5715939,"lon":139.73493163},{"name":"中央一丁目","province":"東京都","city":"大田区","address":"東京都大田区中央2丁目7-3","lat":35.58038391,"lon":139.7211932},{"name":"入新井児童公園前","province":"東京都","city":"大田区","address":"東京都大田区大森北1丁目5-1","lat":35.587275,"lon":139.72784242},{"name":"大森駅西口第二","province":"東京都","city":"大田区","address":"東京都大田区山王2丁目8","lat":35.58883586,"lon":139.72641746},{"name":"入新井第一小学校東","province":"東京都","city":"大田区","address":"東京都大田区大森北4丁目7-4","lat":35.58450315,"lon":139.72859249},{"name":"洗足池駅前","province":"東京都","city":"大田区","address":"東京都大田区南千束2丁目1-5","lat":35.60029759,"lon":139.69135895},{"name":"長原駅入口","province":"東京都","city":"大田区","address":"東京都大田区上池台1丁目44-1","lat":35.60143924,"lon":139.6998109},{"name":"田園調布警察署前","province":"東京都","city":"大田区","address":"東京都大田区田園調布1丁目1-8","lat":35.58912681,"lon":139.67733048},{"name":"上池上稲荷坂","province":"東京都","city":"大田区","address":"東京都大田区上池台5丁目6-1","lat":35.59515661,"lon":139.70111376},{"name":"荏原病院前","province":"東京都","city":"大田区","address":"東京都大田区東雪谷4丁目5-10","lat":35.59460659,"lon":139.69367561},{"name":"貝塚","province":"東京都","city":"大田区","address":"東京都大田区中馬込1丁目1-17","lat":35.59840352,"lon":139.70376897},{"name":"御嶽神社入口","province":"東京都","city":"大田区","address":"東京都大田区田園調布本町56-5","lat":35.58554126,"lon":139.6796305},{"name":"大岡山駅前","province":"東京都","city":"大田区","address":"東京都大田区北千束3丁目27-1","lat":35.60763275,"lon":139.68575363},{"name":"大鳥居","province":"東京都","city":"大田区","address":"東京都大田区羽田1丁目1-1","lat":35.55213877,"lon":139.74081042},{"name":"蒲田郵便局前","province":"東京都","city":"大田区","address":"東京都大田区蒲田4丁目42-12","lat":35.558981,"lon":139.71870008},{"name":"蒲田消防署前","province":"東京都","city":"大田区","address":"東京都大田区蒲田本町2丁目29-12","lat":35.55599817,"lon":139.72014741},{"name":"蒲田四丁目北","province":"東京都","city":"大田区","address":"東京都大田区蒲田4丁目20-1","lat":35.56164436,"lon":139.72123287},{"name":"大田区役所入口","province":"東京都","city":"大田区","address":"東京都大田区蒲田本町1丁目1-3","lat":35.55855055,"lon":139.7163976},{"name":"夫婦橋","province":"東京都","city":"大田区","address":"東京都大田区南蒲田1丁目1-25","lat":35.56087802,"lon":139.7247883},{"name":"あやめ橋","province":"東京都","city":"大田区","address":"東京都大田区蒲田1丁目31-1","lat":35.56263314,"lon":139.7211023},{"name":"西蒲田八丁目第二","province":"東京都","city":"大田区","address":"東京都大田区新蒲田1丁目13-5","lat":35.55957269,"lon":139.710351},{"name":"蒲田駅東口南","province":"東京都","city":"大田区","address":"東京都大田区蒲田5丁目39-2","lat":35.56176389,"lon":139.71664453},{"name":"蒲田駅東口中央","province":"東京都","city":"大田区","address":"東京都大田区蒲田5丁目16-1","lat":35.56237491,"lon":139.71734442},{"name":"蒲田交差西口","province":"東京都","city":"大田区","address":"東京都大田区西蒲田5丁目27-10","lat":35.56435526,"lon":139.71442522},{"name":"蒲田五丁目","province":"東京都","city":"大田区","address":"東京都大田区蒲田5丁目24-2","lat":35.56264984,"lon":139.71930806},{"name":"糀谷駅入口","province":"東京都","city":"大田区","address":"東京都大田区萩中2丁目1-24","lat":35.55337958,"lon":139.72995532},{"name":"西蒲田七丁目","province":"東京都","city":"大田区","address":"東京都大田区西蒲田7丁目9-5","lat":35.56416085,"lon":139.71311427},{"name":"蒲田四丁目南","province":"東京都","city":"大田区","address":"東京都大田区蒲田4丁目29-1","lat":35.56092507,"lon":139.71998865},{"name":"御園神社前","province":"東京都","city":"大田区","address":"東京都大田区西蒲田7丁目39-5","lat":35.56295551,"lon":139.71024522},{"name":"蒲田警察署前","province":"東京都","city":"大田区","address":"東京都大田区蒲田本町2丁目3-3","lat":35.55811168,"lon":139.72037497},{"name":"大田区役所前","province":"東京都","city":"大田区","address":"東京都大田区蒲田5丁目40-10","lat":35.56058352,"lon":139.71651687},{"name":"御園神社前第二","province":"東京都","city":"大田区","address":"東京都大田区西蒲田7丁目51-5","lat":35.56261942,"lon":139.711334},{"name":"蒲田駅西口","province":"東京都","city":"大田区","address":"東京都大田区西蒲田7丁目47-3","lat":35.56256937,"lon":139.71468639},{"name":"御園神社前第三","province":"東京都","city":"大田区","address":"東京都大田区西蒲田7丁目48-1","lat":35.56252218,"lon":139.71328656},{"name":"蒲田五丁目第二","province":"東京都","city":"大田区","address":"東京都大田区蒲田5丁目17-2","lat":35.56259988,"lon":139.71745551},{"name":"蒲田駅西口第二","province":"東京都","city":"大田区","address":"東京都大田区西蒲田7丁目29-5","lat":35.56316374,"lon":139.71499188},{"name":"西蒲田七丁目第二","province":"東京都","city":"大田区","address":"東京都大田区西蒲田7丁目31-1","lat":35.56327764,"lon":139.71341706},{"name":"西蒲田七丁目第三","province":"東京都","city":"大田区","address":"東京都大田区西蒲田7丁目33-1","lat":35.56335265,"lon":139.71178114},{"name":"萩中小学校前","province":"東京都","city":"大田区","address":"東京都大田区萩中3丁目25","lat":35.55005288,"lon":139.73951895},{"name":"京急蒲田駅西口","province":"東京都","city":"大田区","address":"東京都大田区蒲田3丁目20-4","lat":35.5625083,"lon":139.72407434},{"name":"仲蒲田公園入口","province":"東京都","city":"大田区","address":"東京都大田区蒲田4丁目41-1","lat":35.55978918,"lon":139.71899442},{"name":"蒲田八幡神社前","province":"東京都","city":"大田区","address":"東京都大田区蒲田4丁目18-17","lat":35.56006968,"lon":139.72259958},{"name":"蒲田四丁目南第二","province":"東京都","city":"大田区","address":"東京都大田区蒲田5丁目36","lat":35.56134169,"lon":139.71861932},{"name":"蒲田二丁目","province":"東京都","city":"大田区","address":"東京都大田区蒲田2丁目18-24","lat":35.56626057,"lon":139.72262983},{"name":"蒲田東口公園前","province":"東京都","city":"大田区","address":"東京都大田区蒲田5丁目38-3","lat":35.56151391,"lon":139.71739445},{"name":"蒲田社会保険所前","province":"東京都","city":"大田区","address":"東京都大田区蒲田4丁目23-15","lat":35.56055844,"lon":139.72129407},{"name":"下丸子三丁目","province":"東京都","city":"大田区","address":"東京都大田区下丸子3丁目28-11","lat":35.56688332,"lon":139.68427323},{"name":"大田都税前","province":"東京都","city":"大田区","address":"東京都大田区西蒲田6丁目33-1","lat":35.56485524,"lon":139.71051452},{"name":"矢口二丁目南","province":"東京都","city":"大田区","address":"東京都大田区矢口2丁目10-6","lat":35.56323654,"lon":139.69113654},{"name":"谷中通り","province":"東京都","city":"大田区","address":"東京都大田区南馬込2丁目28-1","lat":35.59024374,"lon":139.71862356},{"name":"池上橋南","province":"東京都","city":"大田区","address":"東京都大田区池上3丁目2-1","lat":35.57769507,"lon":139.70037035},{"name":"千鳥二丁目西","province":"東京都","city":"大田区","address":"東京都大田区千鳥2丁目15-16","lat":35.57031304,"lon":139.69352176},{"name":"多摩川一丁目第二","province":"東京都","city":"大田区","address":"東京都大田区多摩川1丁目7-6","lat":35.56336683,"lon":139.69925215},{"name":"池上特別出張所前","province":"東京都","city":"大田区","address":"東京都大田区中央8丁目2-20","lat":35.5746011,"lon":139.71090832},{"name":"西蒲田六丁目第二","province":"東京都","city":"大田区","address":"東京都大田区西蒲田7丁目11-4","lat":35.56437195,"lon":139.71151166},{"name":"池上六丁目第二","province":"東京都","city":"大田区","address":"東京都大田区東矢口1丁目4-18","lat":35.56642735,"lon":139.7038569},{"name":"池上六丁目第三","province":"東京都","city":"大田区","address":"東京都大田区池上6丁目32-11","lat":35.56822984,"lon":139.70440114},{"name":"武蔵新田駅前第二","province":"東京都","city":"大田区","address":"東京都大田区矢口1丁目5-8","lat":35.56745795,"lon":139.69415525},{"name":"武蔵新田駅前","province":"東京都","city":"大田区","address":"東京都大田区矢口1丁目7-14","lat":35.56838562,"lon":139.69222764},{"name":"池上福祉事務所前","province":"東京都","city":"大田区","address":"東京都大田区池上6丁目40-3","lat":35.56784099,"lon":139.70555659},{"name":"第２ターミナル","province":"東京都","city":"大田区","address":"東京都大田区羽田空港3丁目4","lat":35.54998808,"lon":139.7900261},{"name":"馬込給水所","province":"東京都","city":"大田区","address":"東京都大田区西馬込2丁目15-6","lat":35.58832131,"lon":139.70213893},{"name":"上池台給水所","province":"東京都","city":"大田区","address":"東京都大田区上池台1丁目48-25","lat":35.6004699,"lon":139.69973594},{"name":"区立西六郷三丁目公園","province":"東京都","city":"大田区","address":"東京都大田区西六郷3丁目16-16","lat":35.54629163,"lon":139.7059358},{"name":"区立萩中公園","province":"東京都","city":"大田区","address":"東京都大田区萩中3丁目25-26","lat":35.54972234,"lon":139.73905511},{"name":"区立都堀公園","province":"東京都","city":"大田区","address":"東京都大田区大森東1丁目30","lat":35.57738779,"lon":139.73836722},{"name":"区立下丸子公園","province":"東京都","city":"大田区","address":"東京都大田区下丸子4丁目21","lat":35.56920527,"lon":139.67906532},{"name":"区立女塚なかよし公園","province":"東京都","city":"大田区","address":"東京都大田区池上5丁目24","lat":35.57274857,"lon":139.71105287},{"name":"東海給水所","province":"東京都","city":"大田区","address":"東京都大田区東海1丁目3-12","lat":35.585493,"lon":139.7537297},{"name":"大田区保健所（保健衛生課）","province":"東京都","city":"大田区","address":"東京都大田区蒲田5丁目13-14","lat":35.56143339,"lon":139.71606685},{"name":"多摩川二丁目緊急用船着場","province":"東京都","city":"大田区","address":"東京都大田区多摩川2丁目","lat":35.55788986,"lon":139.70234382},{"name":"東京都漁連水産物流通センター","province":"東京都","city":"大田区","address":"東京都大田区京浜島3丁目","lat":35.57325911,"lon":139.76385757},{"name":"大森ふるさとの浜辺公園","province":"東京都","city":"大田区","address":"東京都大田区平和の森公園2-2","lat":35.57713528,"lon":139.74270588},{"name":"羽田２、３丁目","province":"東京都","city":"大田区","address":"東京都大田区羽田5丁目23","lat":35.54810939,"lon":139.74881591},{"name":"東糀谷六丁目","province":"東京都","city":"大田区","address":"東京都大田区東糀谷6丁目","lat":35.55887451,"lon":139.75037338},{"name":"羽田空港天空橋","province":"東京都","city":"大田区","address":"東京都大田区羽田空港1丁目","lat":35.55478658,"lon":139.75528179},{"name":"第一自動車警ら隊蒲田分駐所","province":"東京都","city":"大田区","address":"大田区蒲田本町2-29-12","lat":35.556,"lon":139.7201},{"name":"第二方面交通機動隊","province":"東京都","city":"大田区","address":"大田区大森北6-24-20","lat":35.57914,"lon":139.7302},{"name":"池上警察署","province":"東京都","city":"大田区","address":"大田区池上3-20-10","lat":35.57434,"lon":139.6986},{"name":"大森警察署","province":"東京都","city":"大田区","address":"大田区大森中1-1-16","lat":35.57255,"lon":139.7338},{"name":"蒲田警察署","province":"東京都","city":"大田区","address":"大田区蒲田本町2-3-3","lat":35.55811,"lon":139.7204},{"name":"田園調布警察署","province":"東京都","city":"大田区","address":"大田区田園調布1-1-8","lat":35.589128,"lon":139.677331},{"name":"東京空港警察署","province":"東京都","city":"大田区","address":"大田区羽田空港3-4-1","lat":35.55513,"lon":139.7842},{"name":"第二消防方面本部","province":"東京都","city":"大田区","address":"大田区大森東1-32-8","lat":35.5788,"lon":139.7393},{"name":"第二方面訓練場","province":"東京都","city":"大田区","address":"大田区京浜島1-1","lat":35.57302,"lon":139.7576},{"name":"大森消防署","province":"東京都","city":"大田区","address":"大田区大森東1-32-8","lat":35.5788,"lon":139.7393},{"name":"蒲田消防署","province":"東京都","city":"大田区","address":"大田区蒲田本町2-28-1","lat":35.55572,"lon":139.7198},{"name":"田園調布消防署","province":"東京都","city":"大田区","address":"大田区雪谷大塚町13-22","lat":35.5898,"lon":139.6776},{"name":"矢口消防署","province":"東京都","city":"大田区","address":"大田区多摩川2-5-20","lat":35.55952,"lon":139.6992},{"name":"大田区田園調布南倉庫","province":"東京都","city":"大田区","address":"大田区田園調布南3-8区立田園調布南公園内","lat":35.57919,"lon":139.6752},{"name":"大田区南六郷倉庫","province":"東京都","city":"大田区","address":"大田区南六郷1-29-2-101都市再生機構南六郷一丁目団地内","lat":35.5462,"lon":139.7254},{"name":"東邦薬品（株）ＷＩＬＬ平和島","province":"東京都","city":"大田区","address":"大田区平和島6-1-1(株)東京流通センター内AE4-2","lat":35.57911,"lon":139.7477},{"name":"相互産業（株）","province":"東京都","city":"大田区","address":"大田区中央3-19-5","lat":35.57492,"lon":139.7186},{"name":"大森ふるさとの浜辺公園","province":"東京都","city":"大田区","address":"東京都大田区平和の森公園2-2","lat":35.57713528,"lon":139.74270588},{"name":"平和島駅入口","province":"東京都","city":"大田区","address":"東京都大田区大森北6丁目28-1","lat":35.57832639,"lon":139.73504792},{"name":"大森第一小学校前","province":"東京都","city":"大田区","address":"東京都大田区大森中1丁目10-7","lat":35.57010797,"lon":139.73473729},{"name":"春日橋","province":"東京都","city":"大田区","address":"東京都大田区山王3丁目13-4","lat":35.58136716,"lon":139.72206254},{"name":"大田文化の森","province":"東京都","city":"大田区","address":"東京都大田区中央2丁目10-1","lat":35.57955621,"lon":139.7202711},{"name":"大森町駅入口","province":"東京都","city":"大田区","address":"東京都大田区大森中1丁目2-23","lat":35.57164102,"lon":139.73274287},{"name":"八幡中央通り","province":"東京都","city":"大田区","address":"東京都大田区大森北3丁目1-1","lat":35.58461988,"lon":139.730959},{"name":"大森東四丁目","province":"東京都","city":"大田区","address":"東京都大田区大森東4丁目19-31","lat":35.56830828,"lon":139.73574012},{"name":"山王","province":"東京都","city":"大田区","address":"東京都大田区山王2丁目1-8","lat":35.59048294,"lon":139.72853391},{"name":"山王二丁目","province":"東京都","city":"大田区","address":"東京都大田区山王2丁目3","lat":35.58694443,"lon":139.72633421},{"name":"大森赤十字病院入口","province":"東京都","city":"大田区","address":"東京都大田区中央3丁目1-3","lat":35.57884793,"lon":139.71882126},{"name":"大森本町二丁目","province":"東京都","city":"大田区","address":"東京都大田区大森本町2丁目1-19","lat":35.58116221,"lon":139.73656158},{"name":"入新井四小入口","province":"東京都","city":"大田区","address":"東京都大田区中央3丁目5-7","lat":35.57789523,"lon":139.71703814},{"name":"東邦大学病院前","province":"東京都","city":"大田区","address":"東京都大田区大森西6丁目11","lat":35.56913532,"lon":139.72386297},{"name":"入新井第一小学校前","province":"東京都","city":"大田区","address":"東京都大田区大森北4丁目6-7","lat":35.58365875,"lon":139.72740928},{"name":"臼田坂下","province":"東京都","city":"大田区","address":"東京都大田区中央4丁目31-1","lat":35.58022832,"lon":139.718524},{"name":"大森銀座入口","province":"東京都","city":"大田区","address":"東京都大田区大森北1丁目29-6","lat":35.5855669,"lon":139.72875077},{"name":"大森郵便局前","province":"東京都","city":"大田区","address":"東京都大田区山王3丁目9-13","lat":35.5826365,"lon":139.72315684},{"name":"環七美原通り","province":"東京都","city":"大田区","address":"東京都大田区大森本町2丁目33-5","lat":35.57772375,"lon":139.73632288},{"name":"大森青少年センター入口","province":"東京都","city":"大田区","address":"東京都大田区大森北1丁目15-1","lat":35.58616131,"lon":139.72953958},{"name":"八幡中央通り第二","province":"東京都","city":"大田区","address":"東京都大田区大森北1丁目19-12","lat":35.58593361,"lon":139.7312228},{"name":"大森駅西口第三","province":"東京都","city":"大田区","address":"東京都大田区山王2丁目8-26","lat":35.58931637,"lon":139.72727572},{"name":"大森東三丁目","province":"東京都","city":"大田区","address":"東京都大田区大森東2丁目23-11","lat":35.5715939,"lon":139.73493163},{"name":"中央一丁目","province":"東京都","city":"大田区","address":"東京都大田区中央2丁目7-3","lat":35.58038391,"lon":139.7211932},{"name":"入新井児童公園前","province":"東京都","city":"大田区","address":"東京都大田区大森北1丁目5-1","lat":35.587275,"lon":139.72784242},{"name":"大森駅西口第二","province":"東京都","city":"大田区","address":"東京都大田区山王2丁目8","lat":35.58883586,"lon":139.72641746},{"name":"入新井第一小学校東","province":"東京都","city":"大田区","address":"東京都大田区大森北4丁目7-4","lat":35.58450315,"lon":139.72859249},{"name":"洗足池駅前","province":"東京都","city":"大田区","address":"東京都大田区南千束2丁目1-5","lat":35.60029759,"lon":139.69135895},{"name":"長原駅入口","province":"東京都","city":"大田区","address":"東京都大田区上池台1丁目44-1","lat":35.60143924,"lon":139.6998109},{"name":"田園調布警察署前","province":"東京都","city":"大田区","address":"東京都大田区田園調布1丁目1-8","lat":35.58912681,"lon":139.67733048},{"name":"上池上稲荷坂","province":"東京都","city":"大田区","address":"東京都大田区上池台5丁目6-1","lat":35.59515661,"lon":139.70111376},{"name":"荏原病院前","province":"東京都","city":"大田区","address":"東京都大田区東雪谷4丁目5-10","lat":35.59460659,"lon":139.69367561},{"name":"貝塚","province":"東京都","city":"大田区","address":"東京都大田区中馬込1丁目1-17","lat":35.59840352,"lon":139.70376897},{"name":"御嶽神社入口","province":"東京都","city":"大田区","address":"東京都大田区田園調布本町56-5","lat":35.58554126,"lon":139.6796305},{"name":"大岡山駅前","province":"東京都","city":"大田区","address":"東京都大田区北千束3丁目27-1","lat":35.60763275,"lon":139.68575363},{"name":"大鳥居","province":"東京都","city":"大田区","address":"東京都大田区羽田1丁目1-1","lat":35.55213877,"lon":139.74081042},{"name":"蒲田郵便局前","province":"東京都","city":"大田区","address":"東京都大田区蒲田4丁目42-12","lat":35.558981,"lon":139.71870008},{"name":"蒲田消防署前","province":"東京都","city":"大田区","address":"東京都大田区蒲田本町2丁目29-12","lat":35.55599817,"lon":139.72014741},{"name":"蒲田四丁目北","province":"東京都","city":"大田区","address":"東京都大田区蒲田4丁目20-1","lat":35.56164436,"lon":139.72123287},{"name":"大田区役所入口","province":"東京都","city":"大田区","address":"東京都大田区蒲田本町1丁目1-3","lat":35.55855055,"lon":139.7163976},{"name":"夫婦橋","province":"東京都","city":"大田区","address":"東京都大田区南蒲田1丁目1-25","lat":35.56087802,"lon":139.7247883},{"name":"あやめ橋","province":"東京都","city":"大田区","address":"東京都大田区蒲田1丁目31-1","lat":35.56263314,"lon":139.7211023},{"name":"西蒲田八丁目第二","province":"東京都","city":"大田区","address":"東京都大田区新蒲田1丁目13-5","lat":35.55957269,"lon":139.710351},{"name":"蒲田駅東口南","province":"東京都","city":"大田区","address":"東京都大田区蒲田5丁目39-2","lat":35.56176389,"lon":139.71664453},{"name":"蒲田駅東口中央","province":"東京都","city":"大田区","address":"東京都大田区蒲田5丁目16-1","lat":35.56237491,"lon":139.71734442},{"name":"蒲田交差西口","province":"東京都","city":"大田区","address":"東京都大田区西蒲田5丁目27-10","lat":35.56435526,"lon":139.71442522},{"name":"蒲田五丁目","province":"東京都","city":"大田区","address":"東京都大田区蒲田5丁目24-2","lat":35.56264984,"lon":139.71930806},{"name":"糀谷駅入口","province":"東京都","city":"大田区","address":"東京都大田区萩中2丁目1-24","lat":35.55337958,"lon":139.72995532},{"name":"西蒲田七丁目","province":"東京都","city":"大田区","address":"東京都大田区西蒲田7丁目9-5","lat":35.56416085,"lon":139.71311427},{"name":"蒲田四丁目南","province":"東京都","city":"大田区","address":"東京都大田区蒲田4丁目29-1","lat":35.56092507,"lon":139.71998865},{"name":"御園神社前","province":"東京都","city":"大田区","address":"東京都大田区西蒲田7丁目39-5","lat":35.56295551,"lon":139.71024522},{"name":"蒲田警察署前","province":"東京都","city":"大田区","address":"東京都大田区蒲田本町2丁目3-3","lat":35.55811168,"lon":139.72037497},{"name":"大田区役所前","province":"東京都","city":"大田区","address":"東京都大田区蒲田5丁目40-10","lat":35.56058352,"lon":139.71651687},{"name":"御園神社前第二","province":"東京都","city":"大田区","address":"東京都大田区西蒲田7丁目51-5","lat":35.56261942,"lon":139.711334},{"name":"蒲田駅西口","province":"東京都","city":"大田区","address":"東京都大田区西蒲田7丁目47-3","lat":35.56256937,"lon":139.71468639},{"name":"御園神社前第三","province":"東京都","city":"大田区","address":"東京都大田区西蒲田7丁目48-1","lat":35.56252218,"lon":139.71328656},{"name":"蒲田五丁目第二","province":"東京都","city":"大田区","address":"東京都大田区蒲田5丁目17-2","lat":35.56259988,"lon":139.71745551},{"name":"蒲田駅西口第二","province":"東京都","city":"大田区","address":"東京都大田区西蒲田7丁目29-5","lat":35.56316374,"lon":139.71499188},{"name":"西蒲田七丁目第二","province":"東京都","city":"大田区","address":"東京都大田区西蒲田7丁目31-1","lat":35.56327764,"lon":139.71341706},{"name":"西蒲田七丁目第三","province":"東京都","city":"大田区","address":"東京都大田区西蒲田7丁目33-1","lat":35.56335265,"lon":139.71178114},{"name":"萩中小学校前","province":"東京都","city":"大田区","address":"東京都大田区萩中3丁目25","lat":35.55005288,"lon":139.73951895},{"name":"京急蒲田駅西口","province":"東京都","city":"大田区","address":"東京都大田区蒲田3丁目20-4","lat":35.5625083,"lon":139.72407434},{"name":"仲蒲田公園入口","province":"東京都","city":"大田区","address":"東京都大田区蒲田4丁目41-1","lat":35.55978918,"lon":139.71899442},{"name":"蒲田八幡神社前","province":"東京都","city":"大田区","address":"東京都大田区蒲田4丁目18-17","lat":35.56006968,"lon":139.72259958},{"name":"蒲田四丁目南第二","province":"東京都","city":"大田区","address":"東京都大田区蒲田5丁目36","lat":35.56134169,"lon":139.71861932},{"name":"蒲田二丁目","province":"東京都","city":"大田区","address":"東京都大田区蒲田2丁目18-24","lat":35.56626057,"lon":139.72262983},{"name":"蒲田東口公園前","province":"東京都","city":"大田区","address":"東京都大田区蒲田5丁目38-3","lat":35.56151391,"lon":139.71739445},{"name":"蒲田社会保険所前","province":"東京都","city":"大田区","address":"東京都大田区蒲田4丁目23-15","lat":35.56055844,"lon":139.72129407},{"name":"下丸子三丁目","province":"東京都","city":"大田区","address":"東京都大田区下丸子3丁目28-11","lat":35.56688332,"lon":139.68427323},{"name":"大田都税前","province":"東京都","city":"大田区","address":"東京都大田区西蒲田6丁目33-1","lat":35.56485524,"lon":139.71051452},{"name":"矢口二丁目南","province":"東京都","city":"大田区","address":"東京都大田区矢口2丁目10-6","lat":35.56323654,"lon":139.69113654},{"name":"谷中通り","province":"東京都","city":"大田区","address":"東京都大田区南馬込2丁目28-1","lat":35.59024374,"lon":139.71862356},{"name":"池上橋南","province":"東京都","city":"大田区","address":"東京都大田区池上3丁目2-1","lat":35.57769507,"lon":139.70037035},{"name":"千鳥二丁目西","province":"東京都","city":"大田区","address":"東京都大田区千鳥2丁目15-16","lat":35.57031304,"lon":139.69352176},{"name":"多摩川一丁目第二","province":"東京都","city":"大田区","address":"東京都大田区多摩川1丁目7-6","lat":35.56336683,"lon":139.69925215},{"name":"池上特別出張所前","province":"東京都","city":"大田区","address":"東京都大田区中央8丁目2-20","lat":35.5746011,"lon":139.71090832},{"name":"西蒲田六丁目第二","province":"東京都","city":"大田区","address":"東京都大田区西蒲田7丁目11-4","lat":35.56437195,"lon":139.71151166},{"name":"池上六丁目第二","province":"東京都","city":"大田区","address":"東京都大田区東矢口1丁目4-18","lat":35.56642735,"lon":139.7038569},{"name":"池上六丁目第三","province":"東京都","city":"大田区","address":"東京都大田区池上6丁目32-11","lat":35.56822984,"lon":139.70440114},{"name":"武蔵新田駅前第二","province":"東京都","city":"大田区","address":"東京都大田区矢口1丁目5-8","lat":35.56745795,"lon":139.69415525},{"name":"武蔵新田駅前","province":"東京都","city":"大田区","address":"東京都大田区矢口1丁目7-14","lat":35.56838562,"lon":139.69222764},{"name":"池上福祉事務所前","province":"東京都","city":"大田区","address":"東京都大田区池上6丁目40-3","lat":35.56784099,"lon":139.70555659},{"name":"第２ターミナル","province":"東京都","city":"大田区","address":"東京都大田区羽田空港3丁目4","lat":35.54998808,"lon":139.7900261},{"name":"馬込給水所","province":"東京都","city":"大田区","address":"東京都大田区西馬込2丁目15-6","lat":35.58832131,"lon":139.70213893},{"name":"上池台給水所","province":"東京都","city":"大田区","address":"東京都大田区上池台1丁目48-25","lat":35.6004699,"lon":139.69973594},{"name":"区立西六郷三丁目公園","province":"東京都","city":"大田区","address":"東京都大田区西六郷3丁目16-16","lat":35.54629163,"lon":139.7059358},{"name":"区立萩中公園","province":"東京都","city":"大田区","address":"東京都大田区萩中3丁目25-26","lat":35.54972234,"lon":139.73905511},{"name":"区立都堀公園","province":"東京都","city":"大田区","address":"東京都大田区大森東1丁目30","lat":35.57738779,"lon":139.73836722},{"name":"区立下丸子公園","province":"東京都","city":"大田区","address":"東京都大田区下丸子4丁目21","lat":35.56920527,"lon":139.67906532},{"name":"区立女塚なかよし公園","province":"東京都","city":"大田区","address":"東京都大田区池上5丁目24","lat":35.57274857,"lon":139.71105287},{"name":"東海給水所","province":"東京都","city":"大田区","address":"東京都大田区東海1丁目3-12","lat":35.585493,"lon":139.7537297},{"name":"大田区保健所（保健衛生課）","province":"東京都","city":"大田区","address":"東京都大田区蒲田5丁目13-14","lat":35.56143339,"lon":139.71606685},{"name":"多摩川二丁目緊急用船着場","province":"東京都","city":"大田区","address":"東京都大田区多摩川2丁目","lat":35.55788986,"lon":139.70234382},{"name":"東京都漁連水産物流通センター","province":"東京都","city":"大田区","address":"東京都大田区京浜島3丁目","lat":35.57325911,"lon":139.76385757},{"name":"大森ふるさとの浜辺公園","province":"東京都","city":"大田区","address":"東京都大田区平和の森公園2-2","lat":35.57713528,"lon":139.74270588},{"name":"羽田２、３丁目","province":"東京都","city":"大田区","address":"東京都大田区羽田5丁目23","lat":35.54810939,"lon":139.74881591},{"name":"東糀谷六丁目","province":"東京都","city":"大田区","address":"東京都大田区東糀谷6丁目","lat":35.55887451,"lon":139.75037338},{"name":"羽田空港天空橋","province":"東京都","city":"大田区","address":"東京都大田区羽田空港1丁目","lat":35.55478658,"lon":139.75528179},{"name":"第一自動車警ら隊蒲田分駐所","province":"東京都","city":"大田区","address":"大田区蒲田本町2-29-12","lat":35.556,"lon":139.7201},{"name":"第二方面交通機動隊","province":"東京都","city":"大田区","address":"大田区大森北6-24-20","lat":35.57914,"lon":139.7302},{"name":"池上警察署","province":"東京都","city":"大田区","address":"大田区池上3-20-10","lat":35.57434,"lon":139.6986},{"name":"大森警察署","province":"東京都","city":"大田区","address":"大田区大森中1-1-16","lat":35.57255,"lon":139.7338},{"name":"蒲田警察署","province":"東京都","city":"大田区","address":"大田区蒲田本町2-3-3","lat":35.55811,"lon":139.7204},{"name":"田園調布警察署","province":"東京都","city":"大田区","address":"大田区田園調布1-1-8","lat":35.589128,"lon":139.677331},{"name":"東京空港警察署","province":"東京都","city":"大田区","address":"大田区羽田空港3-4-1","lat":35.55513,"lon":139.7842},{"name":"第二消防方面本部","province":"東京都","city":"大田区","address":"大田区大森東1-32-8","lat":35.5788,"lon":139.7393},{"name":"第二方面訓練場","province":"東京都","city":"大田区","address":"大田区京浜島1-1","lat":35.57302,"lon":139.7576},{"name":"大森消防署","province":"東京都","city":"大田区","address":"大田区大森東1-32-8","lat":35.5788,"lon":139.7393},{"name":"蒲田消防署","province":"東京都","city":"大田区","address":"大田区蒲田本町2-28-1","lat":35.55572,"lon":139.7198},{"name":"田園調布消防署","province":"東京都","city":"大田区","address":"大田区雪谷大塚町13-22","lat":35.5898,"lon":139.6776},{"name":"矢口消防署","province":"東京都","city":"大田区","address":"大田区多摩川2-5-20","lat":35.55952,"lon":139.6992},{"name":"大田区田園調布南倉庫","province":"東京都","city":"大田区","address":"大田区田園調布南3-8区立田園調布南公園内","lat":35.57919,"lon":139.6752},{"name":"大田区南六郷倉庫","province":"東京都","city":"大田区","address":"大田区南六郷1-29-2-101都市再生機構南六郷一丁目団地内","lat":35.5462,"lon":139.7254},{"name":"東邦薬品（株）ＷＩＬＬ平和島","province":"東京都","city":"大田区","address":"大田区平和島6-1-1(株)東京流通センター内AE4-2","lat":35.57911,"lon":139.7477},{"name":"相互産業（株）","province":"東京都","city":"大田区","address":"大田区中央3-19-5","lat":35.57492,"lon":139.7186},{"name":"大森ふるさとの浜辺公園","province":"東京都","city":"大田区","address":"東京都大田区平和の森公園2-2","lat":35.57713528,"lon":139.74270588},{"name":"平和島駅入口","province":"東京都","city":"大田区","address":"東京都大田区大森北6丁目28-1","lat":35.57832639,"lon":139.73504792},{"name":"大森第一小学校前","province":"東京都","city":"大田区","address":"東京都大田区大森中1丁目10-7","lat":35.57010797,"lon":139.73473729},{"name":"春日橋","province":"東京都","city":"大田区","address":"東京都大田区山王3丁目13-4","lat":35.58136716,"lon":139.72206254},{"name":"大田文化の森","province":"東京都","city":"大田区","address":"東京都大田区中央2丁目10-1","lat":35.57955621,"lon":139.7202711},{"name":"大森町駅入口","province":"東京都","city":"大田区","address":"東京都大田区大森中1丁目2-23","lat":35.57164102,"lon":139.73274287},{"name":"八幡中央通り","province":"東京都","city":"大田区","address":"東京都大田区大森北3丁目1-1","lat":35.58461988,"lon":139.730959},{"name":"大森東四丁目","province":"東京都","city":"大田区","address":"東京都大田区大森東4丁目19-31","lat":35.56830828,"lon":139.73574012},{"name":"山王","province":"東京都","city":"大田区","address":"東京都大田区山王2丁目1-8","lat":35.59048294,"lon":139.72853391},{"name":"山王二丁目","province":"東京都","city":"大田区","address":"東京都大田区山王2丁目3","lat":35.58694443,"lon":139.72633421},{"name":"大森赤十字病院入口","province":"東京都","city":"大田区","address":"東京都大田区中央3丁目1-3","lat":35.57884793,"lon":139.71882126},{"name":"大森本町二丁目","province":"東京都","city":"大田区","address":"東京都大田区大森本町2丁目1-19","lat":35.58116221,"lon":139.73656158},{"name":"入新井四小入口","province":"東京都","city":"大田区","address":"東京都大田区中央3丁目5-7","lat":35.57789523,"lon":139.71703814},{"name":"東邦大学病院前","province":"東京都","city":"大田区","address":"東京都大田区大森西6丁目11","lat":35.56913532,"lon":139.72386297},{"name":"入新井第一小学校前","province":"東京都","city":"大田区","address":"東京都大田区大森北4丁目6-7","lat":35.58365875,"lon":139.72740928},{"name":"臼田坂下","province":"東京都","city":"大田区","address":"東京都大田区中央4丁目31-1","lat":35.58022832,"lon":139.718524},{"name":"大森銀座入口","province":"東京都","city":"大田区","address":"東京都大田区大森北1丁目29-6","lat":35.5855669,"lon":139.72875077},{"name":"大森郵便局前","province":"東京都","city":"大田区","address":"東京都大田区山王3丁目9-13","lat":35.5826365,"lon":139.72315684},{"name":"環七美原通り","province":"東京都","city":"大田区","address":"東京都大田区大森本町2丁目33-5","lat":35.57772375,"lon":139.73632288},{"name":"大森青少年センター入口","province":"東京都","city":"大田区","address":"東京都大田区大森北1丁目15-1","lat":35.58616131,"lon":139.72953958},{"name":"八幡中央通り第二","province":"東京都","city":"大田区","address":"東京都大田区大森北1丁目19-12","lat":35.58593361,"lon":139.7312228},{"name":"大森駅西口第三","province":"東京都","city":"大田区","address":"東京都大田区山王2丁目8-26","lat":35.58931637,"lon":139.72727572},{"name":"大森東三丁目","province":"東京都","city":"大田区","address":"東京都大田区大森東2丁目23-11","lat":35.5715939,"lon":139.73493163},{"name":"中央一丁目","province":"東京都","city":"大田区","address":"東京都大田区中央2丁目7-3","lat":35.58038391,"lon":139.7211932},{"name":"入新井児童公園前","province":"東京都","city":"大田区","address":"東京都大田区大森北1丁目5-1","lat":35.587275,"lon":139.72784242},{"name":"大森駅西口第二","province":"東京都","city":"大田区","address":"東京都大田区山王2丁目8","lat":35.58883586,"lon":139.72641746},{"name":"入新井第一小学校東","province":"東京都","city":"大田区","address":"東京都大田区大森北4丁目7-4","lat":35.58450315,"lon":139.72859249},{"name":"洗足池駅前","province":"東京都","city":"大田区","address":"東京都大田区南千束2丁目1-5","lat":35.60029759,"lon":139.69135895},{"name":"長原駅入口","province":"東京都","city":"大田区","address":"東京都大田区上池台1丁目44-1","lat":35.60143924,"lon":139.6998109},{"name":"田園調布警察署前","province":"東京都","city":"大田区","address":"東京都大田区田園調布1丁目1-8","lat":35.58912681,"lon":139.67733048},{"name":"上池上稲荷坂","province":"東京都","city":"大田区","address":"東京都大田区上池台5丁目6-1","lat":35.59515661,"lon":139.70111376},{"name":"荏原病院前","province":"東京都","city":"大田区","address":"東京都大田区東雪谷4丁目5-10","lat":35.59460659,"lon":139.69367561},{"name":"貝塚","province":"東京都","city":"大田区","address":"東京都大田区中馬込1丁目1-17","lat":35.59840352,"lon":139.70376897},{"name":"御嶽神社入口","province":"東京都","city":"大田区","address":"東京都大田区田園調布本町56-5","lat":35.58554126,"lon":139.6796305},{"name":"大岡山駅前","province":"東京都","city":"大田区","address":"東京都大田区北千束3丁目27-1","lat":35.60763275,"lon":139.68575363},{"name":"大鳥居","province":"東京都","city":"大田区","address":"東京都大田区羽田1丁目1-1","lat":35.55213877,"lon":139.74081042},{"name":"蒲田郵便局前","province":"東京都","city":"大田区","address":"東京都大田区蒲田4丁目42-12","lat":35.558981,"lon":139.71870008},{"name":"蒲田消防署前","province":"東京都","city":"大田区","address":"東京都大田区蒲田本町2丁目29-12","lat":35.55599817,"lon":139.72014741},{"name":"蒲田四丁目北","province":"東京都","city":"大田区","address":"東京都大田区蒲田4丁目20-1","lat":35.56164436,"lon":139.72123287},{"name":"大田区役所入口","province":"東京都","city":"大田区","address":"東京都大田区蒲田本町1丁目1-3","lat":35.55855055,"lon":139.7163976},{"name":"夫婦橋","province":"東京都","city":"大田区","address":"東京都大田区南蒲田1丁目1-25","lat":35.56087802,"lon":139.7247883},{"name":"あやめ橋","province":"東京都","city":"大田区","address":"東京都大田区蒲田1丁目31-1","lat":35.56263314,"lon":139.7211023},{"name":"西蒲田八丁目第二","province":"東京都","city":"大田区","address":"東京都大田区新蒲田1丁目13-5","lat":35.55957269,"lon":139.710351},{"name":"蒲田駅東口南","province":"東京都","city":"大田区","address":"東京都大田区蒲田5丁目39-2","lat":35.56176389,"lon":139.71664453},{"name":"蒲田駅東口中央","province":"東京都","city":"大田区","address":"東京都大田区蒲田5丁目16-1","lat":35.56237491,"lon":139.71734442},{"name":"蒲田交差西口","province":"東京都","city":"大田区","address":"東京都大田区西蒲田5丁目27-10","lat":35.56435526,"lon":139.71442522},{"name":"蒲田五丁目","province":"東京都","city":"大田区","address":"東京都大田区蒲田5丁目24-2","lat":35.56264984,"lon":139.71930806},{"name":"糀谷駅入口","province":"東京都","city":"大田区","address":"東京都大田区萩中2丁目1-24","lat":35.55337958,"lon":139.72995532},{"name":"西蒲田七丁目","province":"東京都","city":"大田区","address":"東京都大田区西蒲田7丁目9-5","lat":35.56416085,"lon":139.71311427},{"name":"蒲田四丁目南","province":"東京都","city":"大田区","address":"東京都大田区蒲田4丁目29-1","lat":35.56092507,"lon":139.71998865},{"name":"御園神社前","province":"東京都","city":"大田区","address":"東京都大田区西蒲田7丁目39-5","lat":35.56295551,"lon":139.71024522},{"name":"蒲田警察署前","province":"東京都","city":"大田区","address":"東京都大田区蒲田本町2丁目3-3","lat":35.55811168,"lon":139.72037497},{"name":"大田区役所前","province":"東京都","city":"大田区","address":"東京都大田区蒲田5丁目40-10","lat":35.56058352,"lon":139.71651687},{"name":"御園神社前第二","province":"東京都","city":"大田区","address":"東京都大田区西蒲田7丁目51-5","lat":35.56261942,"lon":139.711334},{"name":"蒲田駅西口","province":"東京都","city":"大田区","address":"東京都大田区西蒲田7丁目47-3","lat":35.56256937,"lon":139.71468639},{"name":"御園神社前第三","province":"東京都","city":"大田区","address":"東京都大田区西蒲田7丁目48-1","lat":35.56252218,"lon":139.71328656},{"name":"蒲田五丁目第二","province":"東京都","city":"大田区","address":"東京都大田区蒲田5丁目17-2","lat":35.56259988,"lon":139.71745551},{"name":"蒲田駅西口第二","province":"東京都","city":"大田区","address":"東京都大田区西蒲田7丁目29-5","lat":35.56316374,"lon":139.71499188},{"name":"西蒲田七丁目第二","province":"東京都","city":"大田区","address":"東京都大田区西蒲田7丁目31-1","lat":35.56327764,"lon":139.71341706},{"name":"西蒲田七丁目第三","province":"東京都","city":"大田区","address":"東京都大田区西蒲田7丁目33-1","lat":35.56335265,"lon":139.71178114},{"name":"萩中小学校前","province":"東京都","city":"大田区","address":"東京都大田区萩中3丁目25","lat":35.55005288,"lon":139.73951895},{"name":"京急蒲田駅西口","province":"東京都","city":"大田区","address":"東京都大田区蒲田3丁目20-4","lat":35.5625083,"lon":139.72407434},{"name":"仲蒲田公園入口","province":"東京都","city":"大田区","address":"東京都大田区蒲田4丁目41-1","lat":35.55978918,"lon":139.71899442},{"name":"蒲田八幡神社前","province":"東京都","city":"大田区","address":"東京都大田区蒲田4丁目18-17","lat":35.56006968,"lon":139.72259958},{"name":"蒲田四丁目南第二","province":"東京都","city":"大田区","address":"東京都大田区蒲田5丁目36","lat":35.56134169,"lon":139.71861932},{"name":"蒲田二丁目","province":"東京都","city":"大田区","address":"東京都大田区蒲田2丁目18-24","lat":35.56626057,"lon":139.72262983},{"name":"蒲田東口公園前","province":"東京都","city":"大田区","address":"東京都大田区蒲田5丁目38-3","lat":35.56151391,"lon":139.71739445},{"name":"蒲田社会保険所前","province":"東京都","city":"大田区","address":"東京都大田区蒲田4丁目23-15","lat":35.56055844,"lon":139.72129407},{"name":"下丸子三丁目","province":"東京都","city":"大田区","address":"東京都大田区下丸子3丁目28-11","lat":35.56688332,"lon":139.68427323},{"name":"大田都税前","province":"東京都","city":"大田区","address":"東京都大田区西蒲田6丁目33-1","lat":35.56485524,"lon":139.71051452},{"name":"矢口二丁目南","province":"東京都","city":"大田区","address":"東京都大田区矢口2丁目10-6","lat":35.56323654,"lon":139.69113654},{"name":"谷中通り","province":"東京都","city":"大田区","address":"東京都大田区南馬込2丁目28-1","lat":35.59024374,"lon":139.71862356},{"name":"池上橋南","province":"東京都","city":"大田区","address":"東京都大田区池上3丁目2-1","lat":35.57769507,"lon":139.70037035},{"name":"千鳥二丁目西","province":"東京都","city":"大田区","address":"東京都大田区千鳥2丁目15-16","lat":35.57031304,"lon":139.69352176},{"name":"多摩川一丁目第二","province":"東京都","city":"大田区","address":"東京都大田区多摩川1丁目7-6","lat":35.56336683,"lon":139.69925215},{"name":"池上特別出張所前","province":"東京都","city":"大田区","address":"東京都大田区中央8丁目2-20","lat":35.5746011,"lon":139.71090832},{"name":"西蒲田六丁目第二","province":"東京都","city":"大田区","address":"東京都大田区西蒲田7丁目11-4","lat":35.56437195,"lon":139.71151166},{"name":"池上六丁目第二","province":"東京都","city":"大田区","address":"東京都大田区東矢口1丁目4-18","lat":35.56642735,"lon":139.7038569},{"name":"池上六丁目第三","province":"東京都","city":"大田区","address":"東京都大田区池上6丁目32-11","lat":35.56822984,"lon":139.70440114},{"name":"武蔵新田駅前第二","province":"東京都","city":"大田区","address":"東京都大田区矢口1丁目5-8","lat":35.56745795,"lon":139.69415525},{"name":"武蔵新田駅前","province":"東京都","city":"大田区","address":"東京都大田区矢口1丁目7-14","lat":35.56838562,"lon":139.69222764},{"name":"池上福祉事務所前","province":"東京都","city":"大田区","address":"東京都大田区池上6丁目40-3","lat":35.56784099,"lon":139.70555659},{"name":"第２ターミナル","province":"東京都","city":"大田区","address":"東京都大田区羽田空港3丁目4","lat":35.54998808,"lon":139.7900261},{"name":"馬込給水所","province":"東京都","city":"大田区","address":"東京都大田区西馬込2丁目15-6","lat":35.58832131,"lon":139.70213893},{"name":"上池台給水所","province":"東京都","city":"大田区","address":"東京都大田区上池台1丁目48-25","lat":35.6004699,"lon":139.69973594},{"name":"区立西六郷三丁目公園","province":"東京都","city":"大田区","address":"東京都大田区西六郷3丁目16-16","lat":35.54629163,"lon":139.7059358},{"name":"区立萩中公園","province":"東京都","city":"大田区","address":"東京都大田区萩中3丁目25-26","lat":35.54972234,"lon":139.73905511},{"name":"区立都堀公園","province":"東京都","city":"大田区","address":"東京都大田区大森東1丁目30","lat":35.57738779,"lon":139.73836722},{"name":"区立下丸子公園","province":"東京都","city":"大田区","address":"東京都大田区下丸子4丁目21","lat":35.56920527,"lon":139.67906532},{"name":"区立女塚なかよし公園","province":"東京都","city":"大田区","address":"東京都大田区池上5丁目24","lat":35.57274857,"lon":139.71105287},{"name":"東海給水所","province":"東京都","city":"大田区","address":"東京都大田区東海1丁目3-12","lat":35.585493,"lon":139.7537297},{"name":"大田区保健所（保健衛生課）","province":"東京都","city":"大田区","address":"東京都大田区蒲田5丁目13-14","lat":35.56143339,"lon":139.71606685},{"name":"多摩川二丁目緊急用船着場","province":"東京都","city":"大田区","address":"東京都大田区多摩川2丁目","lat":35.55788986,"lon":139.70234382},{"name":"東京都漁連水産物流通センター","province":"東京都","city":"大田区","address":"東京都大田区京浜島3丁目","lat":35.57325911,"lon":139.76385757},{"name":"大森ふるさとの浜辺公園","province":"東京都","city":"大田区","address":"東京都大田区平和の森公園2-2","lat":35.57713528,"lon":139.74270588},{"name":"羽田２、３丁目","province":"東京都","city":"大田区","address":"東京都大田区羽田5丁目23","lat":35.54810939,"lon":139.74881591},{"name":"東糀谷六丁目","province":"東京都","city":"大田区","address":"東京都大田区東糀谷6丁目","lat":35.55887451,"lon":139.75037338},{"name":"羽田空港天空橋","province":"東京都","city":"大田区","address":"東京都大田区羽田空港1丁目","lat":35.55478658,"lon":139.75528179},{"name":"第一自動車警ら隊蒲田分駐所","province":"東京都","city":"大田区","address":"大田区蒲田本町2-29-12","lat":35.556,"lon":139.7201},{"name":"第二方面交通機動隊","province":"東京都","city":"大田区","address":"大田区大森北6-24-20","lat":35.57914,"lon":139.7302},{"name":"池上警察署","province":"東京都","city":"大田区","address":"大田区池上3-20-10","lat":35.57434,"lon":139.6986},{"name":"大森警察署","province":"東京都","city":"大田区","address":"大田区大森中1-1-16","lat":35.57255,"lon":139.7338},{"name":"蒲田警察署","province":"東京都","city":"大田区","address":"大田区蒲田本町2-3-3","lat":35.55811,"lon":139.7204},{"name":"田園調布警察署","province":"東京都","city":"大田区","address":"大田区田園調布1-1-8","lat":35.589128,"lon":139.677331},{"name":"東京空港警察署","province":"東京都","city":"大田区","address":"大田区羽田空港3-4-1","lat":35.55513,"lon":139.7842},{"name":"第二消防方面本部","province":"東京都","city":"大田区","address":"大田区大森東1-32-8","lat":35.5788,"lon":139.7393},{"name":"第二方面訓練場","province":"東京都","city":"大田区","address":"大田区京浜島1-1","lat":35.57302,"lon":139.7576},{"name":"大森消防署","province":"東京都","city":"大田区","address":"大田区大森東1-32-8","lat":35.5788,"lon":139.7393},{"name":"蒲田消防署","province":"東京都","city":"大田区","address":"大田区蒲田本町2-28-1","lat":35.55572,"lon":139.7198},{"name":"田園調布消防署","province":"東京都","city":"大田区","address":"大田区雪谷大塚町13-22","lat":35.5898,"lon":139.6776},{"name":"矢口消防署","province":"東京都","city":"大田区","address":"大田区多摩川2-5-20","lat":35.55952,"lon":139.6992},{"name":"大田区田園調布南倉庫","province":"東京都","city":"大田区","address":"大田区田園調布南3-8区立田園調布南公園内","lat":35.57919,"lon":139.6752},{"name":"大田区南六郷倉庫","province":"東京都","city":"大田区","address":"大田区南六郷1-29-2-101都市再生機構南六郷一丁目団地内","lat":35.5462,"lon":139.7254},{"name":"東邦薬品（株）ＷＩＬＬ平和島","province":"東京都","city":"大田区","address":"大田区平和島6-1-1(株)東京流通センター内AE4-2","lat":35.57911,"lon":139.7477},{"name":"相互産業（株）","province":"東京都","city":"大田区","address":"大田区中央3-19-5","lat":35.57492,"lon":139.7186},{"name":"大森ふるさとの浜辺公園","province":"東京都","city":"大田区","address":"東京都大田区平和の森公園2-2","lat":35.57713528,"lon":139.74270588},{"name":"平和島駅入口","province":"東京都","city":"大田区","address":"東京都大田区大森北6丁目28-1","lat":35.57832639,"lon":139.73504792},{"name":"大森第一小学校前","province":"東京都","city":"大田区","address":"東京都大田区大森中1丁目10-7","lat":35.57010797,"lon":139.73473729},{"name":"春日橋","province":"東京都","city":"大田区","address":"東京都大田区山王3丁目13-4","lat":35.58136716,"lon":139.72206254},{"name":"大田文化の森","province":"東京都","city":"大田区","address":"東京都大田区中央2丁目10-1","lat":35.57955621,"lon":139.7202711},{"name":"大森町駅入口","province":"東京都","city":"大田区","address":"東京都大田区大森中1丁目2-23","lat":35.57164102,"lon":139.73274287},{"name":"八幡中央通り","province":"東京都","city":"大田区","address":"東京都大田区大森北3丁目1-1","lat":35.58461988,"lon":139.730959},{"name":"大森東四丁目","province":"東京都","city":"大田区","address":"東京都大田区大森東4丁目19-31","lat":35.56830828,"lon":139.73574012},{"name":"山王","province":"東京都","city":"大田区","address":"東京都大田区山王2丁目1-8","lat":35.59048294,"lon":139.72853391},{"name":"山王二丁目","province":"東京都","city":"大田区","address":"東京都大田区山王2丁目3","lat":35.58694443,"lon":139.72633421},{"name":"大森赤十字病院入口","province":"東京都","city":"大田区","address":"東京都大田区中央3丁目1-3","lat":35.57884793,"lon":139.71882126},{"name":"大森本町二丁目","province":"東京都","city":"大田区","address":"東京都大田区大森本町2丁目1-19","lat":35.58116221,"lon":139.73656158},{"name":"入新井四小入口","province":"東京都","city":"大田区","address":"東京都大田区中央3丁目5-7","lat":35.57789523,"lon":139.71703814},{"name":"東邦大学病院前","province":"東京都","city":"大田区","address":"東京都大田区大森西6丁目11","lat":35.56913532,"lon":139.72386297},{"name":"入新井第一小学校前","province":"東京都","city":"大田区","address":"東京都大田区大森北4丁目6-7","lat":35.58365875,"lon":139.72740928},{"name":"臼田坂下","province":"東京都","city":"大田区","address":"東京都大田区中央4丁目31-1","lat":35.58022832,"lon":139.718524},{"name":"大森銀座入口","province":"東京都","city":"大田区","address":"東京都大田区大森北1丁目29-6","lat":35.5855669,"lon":139.72875077},{"name":"大森郵便局前","province":"東京都","city":"大田区","address":"東京都大田区山王3丁目9-13","lat":35.5826365,"lon":139.72315684},{"name":"環七美原通り","province":"東京都","city":"大田区","address":"東京都大田区大森本町2丁目33-5","lat":35.57772375,"lon":139.73632288},{"name":"大森青少年センター入口","province":"東京都","city":"大田区","address":"東京都大田区大森北1丁目15-1","lat":35.58616131,"lon":139.72953958},{"name":"八幡中央通り第二","province":"東京都","city":"大田区","address":"東京都大田区大森北1丁目19-12","lat":35.58593361,"lon":139.7312228},{"name":"大森駅西口第三","province":"東京都","city":"大田区","address":"東京都大田区山王2丁目8-26","lat":35.58931637,"lon":139.72727572},{"name":"大森東三丁目","province":"東京都","city":"大田区","address":"東京都大田区大森東2丁目23-11","lat":35.5715939,"lon":139.73493163},{"name":"中央一丁目","province":"東京都","city":"大田区","address":"東京都大田区中央2丁目7-3","lat":35.58038391,"lon":139.7211932},{"name":"入新井児童公園前","province":"東京都","city":"大田区","address":"東京都大田区大森北1丁目5-1","lat":35.587275,"lon":139.72784242},{"name":"大森駅西口第二","province":"東京都","city":"大田区","address":"東京都大田区山王2丁目8","lat":35.58883586,"lon":139.72641746},{"name":"入新井第一小学校東","province":"東京都","city":"大田区","address":"東京都大田区大森北4丁目7-4","lat":35.58450315,"lon":139.72859249},{"name":"洗足池駅前","province":"東京都","city":"大田区","address":"東京都大田区南千束2丁目1-5","lat":35.60029759,"lon":139.69135895},{"name":"長原駅入口","province":"東京都","city":"大田区","address":"東京都大田区上池台1丁目44-1","lat":35.60143924,"lon":139.6998109},{"name":"田園調布警察署前","province":"東京都","city":"大田区","address":"東京都大田区田園調布1丁目1-8","lat":35.58912681,"lon":139.67733048},{"name":"上池上稲荷坂","province":"東京都","city":"大田区","address":"東京都大田区上池台5丁目6-1","lat":35.59515661,"lon":139.70111376},{"name":"荏原病院前","province":"東京都","city":"大田区","address":"東京都大田区東雪谷4丁目5-10","lat":35.59460659,"lon":139.69367561},{"name":"貝塚","province":"東京都","city":"大田区","address":"東京都大田区中馬込1丁目1-17","lat":35.59840352,"lon":139.70376897},{"name":"御嶽神社入口","province":"東京都","city":"大田区","address":"東京都大田区田園調布本町56-5","lat":35.58554126,"lon":139.6796305},{"name":"大岡山駅前","province":"東京都","city":"大田区","address":"東京都大田区北千束3丁目27-1","lat":35.60763275,"lon":139.68575363},{"name":"大鳥居","province":"東京都","city":"大田区","address":"東京都大田区羽田1丁目1-1","lat":35.55213877,"lon":139.74081042},{"name":"蒲田郵便局前","province":"東京都","city":"大田区","address":"東京都大田区蒲田4丁目42-12","lat":35.558981,"lon":139.71870008},{"name":"蒲田消防署前","province":"東京都","city":"大田区","address":"東京都大田区蒲田本町2丁目29-12","lat":35.55599817,"lon":139.72014741},{"name":"蒲田四丁目北","province":"東京都","city":"大田区","address":"東京都大田区蒲田4丁目20-1","lat":35.56164436,"lon":139.72123287},{"name":"大田区役所入口","province":"東京都","city":"大田区","address":"東京都大田区蒲田本町1丁目1-3","lat":35.55855055,"lon":139.7163976},{"name":"夫婦橋","province":"東京都","city":"大田区","address":"東京都大田区南蒲田1丁目1-25","lat":35.56087802,"lon":139.7247883},{"name":"あやめ橋","province":"東京都","city":"大田区","address":"東京都大田区蒲田1丁目31-1","lat":35.56263314,"lon":139.7211023},{"name":"西蒲田八丁目第二","province":"東京都","city":"大田区","address":"東京都大田区新蒲田1丁目13-5","lat":35.55957269,"lon":139.710351},{"name":"蒲田駅東口南","province":"東京都","city":"大田区","address":"東京都大田区蒲田5丁目39-2","lat":35.56176389,"lon":139.71664453},{"name":"蒲田駅東口中央","province":"東京都","city":"大田区","address":"東京都大田区蒲田5丁目16-1","lat":35.56237491,"lon":139.71734442},{"name":"蒲田交差西口","province":"東京都","city":"大田区","address":"東京都大田区西蒲田5丁目27-10","lat":35.56435526,"lon":139.71442522},{"name":"蒲田五丁目","province":"東京都","city":"大田区","address":"東京都大田区蒲田5丁目24-2","lat":35.56264984,"lon":139.71930806},{"name":"糀谷駅入口","province":"東京都","city":"大田区","address":"東京都大田区萩中2丁目1-24","lat":35.55337958,"lon":139.72995532},{"name":"西蒲田七丁目","province":"東京都","city":"大田区","address":"東京都大田区西蒲田7丁目9-5","lat":35.56416085,"lon":139.71311427},{"name":"蒲田四丁目南","province":"東京都","city":"大田区","address":"東京都大田区蒲田4丁目29-1","lat":35.56092507,"lon":139.71998865},{"name":"御園神社前","province":"東京都","city":"大田区","address":"東京都大田区西蒲田7丁目39-5","lat":35.56295551,"lon":139.71024522},{"name":"蒲田警察署前","province":"東京都","city":"大田区","address":"東京都大田区蒲田本町2丁目3-3","lat":35.55811168,"lon":139.72037497},{"name":"大田区役所前","province":"東京都","city":"大田区","address":"東京都大田区蒲田5丁目40-10","lat":35.56058352,"lon":139.71651687},{"name":"御園神社前第二","province":"東京都","city":"大田区","address":"東京都大田区西蒲田7丁目51-5","lat":35.56261942,"lon":139.711334},{"name":"蒲田駅西口","province":"東京都","city":"大田区","address":"東京都大田区西蒲田7丁目47-3","lat":35.56256937,"lon":139.71468639},{"name":"御園神社前第三","province":"東京都","city":"大田区","address":"東京都大田区西蒲田7丁目48-1","lat":35.56252218,"lon":139.71328656},{"name":"蒲田五丁目第二","province":"東京都","city":"大田区","address":"東京都大田区蒲田5丁目17-2","lat":35.56259988,"lon":139.71745551},{"name":"蒲田駅西口第二","province":"東京都","city":"大田区","address":"東京都大田区西蒲田7丁目29-5","lat":35.56316374,"lon":139.71499188},{"name":"西蒲田七丁目第二","province":"東京都","city":"大田区","address":"東京都大田区西蒲田7丁目31-1","lat":35.56327764,"lon":139.71341706},{"name":"西蒲田七丁目第三","province":"東京都","city":"大田区","address":"東京都大田区西蒲田7丁目33-1","lat":35.56335265,"lon":139.71178114},{"name":"萩中小学校前","province":"東京都","city":"大田区","address":"東京都大田区萩中3丁目25","lat":35.55005288,"lon":139.73951895},{"name":"京急蒲田駅西口","province":"東京都","city":"大田区","address":"東京都大田区蒲田3丁目20-4","lat":35.5625083,"lon":139.72407434},{"name":"仲蒲田公園入口","province":"東京都","city":"大田区","address":"東京都大田区蒲田4丁目41-1","lat":35.55978918,"lon":139.71899442},{"name":"蒲田八幡神社前","province":"東京都","city":"大田区","address":"東京都大田区蒲田4丁目18-17","lat":35.56006968,"lon":139.72259958},{"name":"蒲田四丁目南第二","province":"東京都","city":"大田区","address":"東京都大田区蒲田5丁目36","lat":35.56134169,"lon":139.71861932},{"name":"蒲田二丁目","province":"東京都","city":"大田区","address":"東京都大田区蒲田2丁目18-24","lat":35.56626057,"lon":139.72262983},{"name":"蒲田東口公園前","province":"東京都","city":"大田区","address":"東京都大田区蒲田5丁目38-3","lat":35.56151391,"lon":139.71739445},{"name":"蒲田社会保険所前","province":"東京都","city":"大田区","address":"東京都大田区蒲田4丁目23-15","lat":35.56055844,"lon":139.72129407},{"name":"下丸子三丁目","province":"東京都","city":"大田区","address":"東京都大田区下丸子3丁目28-11","lat":35.56688332,"lon":139.68427323},{"name":"大田都税前","province":"東京都","city":"大田区","address":"東京都大田区西蒲田6丁目33-1","lat":35.56485524,"lon":139.71051452},{"name":"矢口二丁目南","province":"東京都","city":"大田区","address":"東京都大田区矢口2丁目10-6","lat":35.56323654,"lon":139.69113654},{"name":"谷中通り","province":"東京都","city":"大田区","address":"東京都大田区南馬込2丁目28-1","lat":35.59024374,"lon":139.71862356},{"name":"池上橋南","province":"東京都","city":"大田区","address":"東京都大田区池上3丁目2-1","lat":35.57769507,"lon":139.70037035},{"name":"千鳥二丁目西","province":"東京都","city":"大田区","address":"東京都大田区千鳥2丁目15-16","lat":35.57031304,"lon":139.69352176},{"name":"多摩川一丁目第二","province":"東京都","city":"大田区","address":"東京都大田区多摩川1丁目7-6","lat":35.56336683,"lon":139.69925215},{"name":"池上特別出張所前","province":"東京都","city":"大田区","address":"東京都大田区中央8丁目2-20","lat":35.5746011,"lon":139.71090832},{"name":"西蒲田六丁目第二","province":"東京都","city":"大田区","address":"東京都大田区西蒲田7丁目11-4","lat":35.56437195,"lon":139.71151166},{"name":"池上六丁目第二","province":"東京都","city":"大田区","address":"東京都大田区東矢口1丁目4-18","lat":35.56642735,"lon":139.7038569},{"name":"池上六丁目第三","province":"東京都","city":"大田区","address":"東京都大田区池上6丁目32-11","lat":35.56822984,"lon":139.70440114},{"name":"武蔵新田駅前第二","province":"東京都","city":"大田区","address":"東京都大田区矢口1丁目5-8","lat":35.56745795,"lon":139.69415525},{"name":"武蔵新田駅前","province":"東京都","city":"大田区","address":"東京都大田区矢口1丁目7-14","lat":35.56838562,"lon":139.69222764},{"name":"池上福祉事務所前","province":"東京都","city":"大田区","address":"東京都大田区池上6丁目40-3","lat":35.56784099,"lon":139.70555659},{"name":"第２ターミナル","province":"東京都","city":"大田区","address":"東京都大田区羽田空港3丁目4","lat":35.54998808,"lon":139.7900261},{"name":"馬込給水所","province":"東京都","city":"大田区","address":"東京都大田区西馬込2丁目15-6","lat":35.58832131,"lon":139.70213893},{"name":"上池台給水所","province":"東京都","city":"大田区","address":"東京都大田区上池台1丁目48-25","lat":35.6004699,"lon":139.69973594},{"name":"区立西六郷三丁目公園","province":"東京都","city":"大田区","address":"東京都大田区西六郷3丁目16-16","lat":35.54629163,"lon":139.7059358},{"name":"区立萩中公園","province":"東京都","city":"大田区","address":"東京都大田区萩中3丁目25-26","lat":35.54972234,"lon":139.73905511},{"name":"区立都堀公園","province":"東京都","city":"大田区","address":"東京都大田区大森東1丁目30","lat":35.57738779,"lon":139.73836722},{"name":"区立下丸子公園","province":"東京都","city":"大田区","address":"東京都大田区下丸子4丁目21","lat":35.56920527,"lon":139.67906532},{"name":"区立女塚なかよし公園","province":"東京都","city":"大田区","address":"東京都大田区池上5丁目24","lat":35.57274857,"lon":139.71105287},{"name":"東海給水所","province":"東京都","city":"大田区","address":"東京都大田区東海1丁目3-12","lat":35.585493,"lon":139.7537297},{"name":"大田区保健所（保健衛生課）","province":"東京都","city":"大田区","address":"東京都大田区蒲田5丁目13-14","lat":35.56143339,"lon":139.71606685},{"name":"多摩川二丁目緊急用船着場","province":"東京都","city":"大田区","address":"東京都大田区多摩川2丁目","lat":35.55788986,"lon":139.70234382},{"name":"東京都漁連水産物流通センター","province":"東京都","city":"大田区","address":"東京都大田区京浜島3丁目","lat":35.57325911,"lon":139.76385757},{"name":"大森ふるさとの浜辺公園","province":"東京都","city":"大田区","address":"東京都大田区平和の森公園2-2","lat":35.57713528,"lon":139.74270588},{"name":"羽田２、３丁目","province":"東京都","city":"大田区","address":"東京都大田区羽田5丁目23","lat":35.54810939,"lon":139.74881591},{"name":"東糀谷六丁目","province":"東京都","city":"大田区","address":"東京都大田区東糀谷6丁目","lat":35.55887451,"lon":139.75037338},{"name":"羽田空港天空橋","province":"東京都","city":"大田区","address":"東京都大田区羽田空港1丁目","lat":35.55478658,"lon":139.75528179},{"name":"第一自動車警ら隊蒲田分駐所","province":"東京都","city":"大田区","address":"大田区蒲田本町2-29-12","lat":35.556,"lon":139.7201},{"name":"第二方面交通機動隊","province":"東京都","city":"大田区","address":"大田区大森北6-24-20","lat":35.57914,"lon":139.7302},{"name":"池上警察署","province":"東京都","city":"大田区","address":"大田区池上3-20-10","lat":35.57434,"lon":139.6986},{"name":"大森警察署","province":"東京都","city":"大田区","address":"大田区大森中1-1-16","lat":35.57255,"lon":139.7338},{"name":"蒲田警察署","province":"東京都","city":"大田区","address":"大田区蒲田本町2-3-3","lat":35.55811,"lon":139.7204},{"name":"田園調布警察署","province":"東京都","city":"大田区","address":"大田区田園調布1-1-8","lat":35.589128,"lon":139.677331},{"name":"東京空港警察署","province":"東京都","city":"大田区","address":"大田区羽田空港3-4-1","lat":35.55513,"lon":139.7842},{"name":"第二消防方面本部","province":"東京都","city":"大田区","address":"大田区大森東1-32-8","lat":35.5788,"lon":139.7393},{"name":"第二方面訓練場","province":"東京都","city":"大田区","address":"大田区京浜島1-1","lat":35.57302,"lon":139.7576},{"name":"大森消防署","province":"東京都","city":"大田区","address":"大田区大森東1-32-8","lat":35.5788,"lon":139.7393},{"name":"蒲田消防署","province":"東京都","city":"大田区","address":"大田区蒲田本町2-28-1","lat":35.55572,"lon":139.7198},{"name":"田園調布消防署","province":"東京都","city":"大田区","address":"大田区雪谷大塚町13-22","lat":35.5898,"lon":139.6776},{"name":"矢口消防署","province":"東京都","city":"大田区","address":"大田区多摩川2-5-20","lat":35.55952,"lon":139.6992},{"name":"大田区田園調布南倉庫","province":"東京都","city":"大田区","address":"大田区田園調布南3-8区立田園調布南公園内","lat":35.57919,"lon":139.6752},{"name":"大田区南六郷倉庫","province":"東京都","city":"大田区","address":"大田区南六郷1-29-2-101都市再生機構南六郷一丁目団地内","lat":35.5462,"lon":139.7254},{"name":"東邦薬品（株）ＷＩＬＬ平和島","province":"東京都","city":"大田区","address":"大田区平和島6-1-1(株)東京流通センター内AE4-2","lat":35.57911,"lon":139.7477},{"name":"相互産業（株）","province":"東京都","city":"大田区","address":"大田区中央3-19-5","lat":35.57492,"lon":139.7186},{"name":"大森ふるさとの浜辺公園","province":"東京都","city":"大田区","address":"東京都大田区平和の森公園2-2","lat":35.57713528,"lon":139.74270588},{"name":"平和島駅入口","province":"東京都","city":"大田区","address":"東京都大田区大森北6丁目28-1","lat":35.57832639,"lon":139.73504792},{"name":"大森第一小学校前","province":"東京都","city":"大田区","address":"東京都大田区大森中1丁目10-7","lat":35.57010797,"lon":139.73473729},{"name":"春日橋","province":"東京都","city":"大田区","address":"東京都大田区山王3丁目13-4","lat":35.58136716,"lon":139.72206254},{"name":"大田文化の森","province":"東京都","city":"大田区","address":"東京都大田区中央2丁目10-1","lat":35.57955621,"lon":139.7202711},{"name":"大森町駅入口","province":"東京都","city":"大田区","address":"東京都大田区大森中1丁目2-23","lat":35.57164102,"lon":139.73274287},{"name":"八幡中央通り","province":"東京都","city":"大田区","address":"東京都大田区大森北3丁目1-1","lat":35.58461988,"lon":139.730959},{"name":"大森東四丁目","province":"東京都","city":"大田区","address":"東京都大田区大森東4丁目19-31","lat":35.56830828,"lon":139.73574012},{"name":"山王","province":"東京都","city":"大田区","address":"東京都大田区山王2丁目1-8","lat":35.59048294,"lon":139.72853391},{"name":"山王二丁目","province":"東京都","city":"大田区","address":"東京都大田区山王2丁目3","lat":35.58694443,"lon":139.72633421},{"name":"大森赤十字病院入口","province":"東京都","city":"大田区","address":"東京都大田区中央3丁目1-3","lat":35.57884793,"lon":139.71882126},{"name":"大森本町二丁目","province":"東京都","city":"大田区","address":"東京都大田区大森本町2丁目1-19","lat":35.58116221,"lon":139.73656158},{"name":"入新井四小入口","province":"東京都","city":"大田区","address":"東京都大田区中央3丁目5-7","lat":35.57789523,"lon":139.71703814},{"name":"東邦大学病院前","province":"東京都","city":"大田区","address":"東京都大田区大森西6丁目11","lat":35.56913532,"lon":139.72386297},{"name":"入新井第一小学校前","province":"東京都","city":"大田区","address":"東京都大田区大森北4丁目6-7","lat":35.58365875,"lon":139.72740928},{"name":"臼田坂下","province":"東京都","city":"大田区","address":"東京都大田区中央4丁目31-1","lat":35.58022832,"lon":139.718524},{"name":"大森銀座入口","province":"東京都","city":"大田区","address":"東京都大田区大森北1丁目29-6","lat":35.5855669,"lon":139.72875077},{"name":"大森郵便局前","province":"東京都","city":"大田区","address":"東京都大田区山王3丁目9-13","lat":35.5826365,"lon":139.72315684},{"name":"環七美原通り","province":"東京都","city":"大田区","address":"東京都大田区大森本町2丁目33-5","lat":35.57772375,"lon":139.73632288},{"name":"大森青少年センター入口","province":"東京都","city":"大田区","address":"東京都大田区大森北1丁目15-1","lat":35.58616131,"lon":139.72953958},{"name":"八幡中央通り第二","province":"東京都","city":"大田区","address":"東京都大田区大森北1丁目19-12","lat":35.58593361,"lon":139.7312228},{"name":"大森駅西口第三","province":"東京都","city":"大田区","address":"東京都大田区山王2丁目8-26","lat":35.58931637,"lon":139.72727572},{"name":"大森東三丁目","province":"東京都","city":"大田区","address":"東京都大田区大森東2丁目23-11","lat":35.5715939,"lon":139.73493163},{"name":"中央一丁目","province":"東京都","city":"大田区","address":"東京都大田区中央2丁目7-3","lat":35.58038391,"lon":139.7211932},{"name":"入新井児童公園前","province":"東京都","city":"大田区","address":"東京都大田区大森北1丁目5-1","lat":35.587275,"lon":139.72784242},{"name":"大森駅西口第二","province":"東京都","city":"大田区","address":"東京都大田区山王2丁目8","lat":35.58883586,"lon":139.72641746},{"name":"入新井第一小学校東","province":"東京都","city":"大田区","address":"東京都大田区大森北4丁目7-4","lat":35.58450315,"lon":139.72859249},{"name":"洗足池駅前","province":"東京都","city":"大田区","address":"東京都大田区南千束2丁目1-5","lat":35.60029759,"lon":139.69135895},{"name":"長原駅入口","province":"東京都","city":"大田区","address":"東京都大田区上池台1丁目44-1","lat":35.60143924,"lon":139.6998109},{"name":"田園調布警察署前","province":"東京都","city":"大田区","address":"東京都大田区田園調布1丁目1-8","lat":35.58912681,"lon":139.67733048},{"name":"上池上稲荷坂","province":"東京都","city":"大田区","address":"東京都大田区上池台5丁目6-1","lat":35.59515661,"lon":139.70111376},{"name":"荏原病院前","province":"東京都","city":"大田区","address":"東京都大田区東雪谷4丁目5-10","lat":35.59460659,"lon":139.69367561},{"name":"貝塚","province":"東京都","city":"大田区","address":"東京都大田区中馬込1丁目1-17","lat":35.59840352,"lon":139.70376897},{"name":"御嶽神社入口","province":"東京都","city":"大田区","address":"東京都大田区田園調布本町56-5","lat":35.58554126,"lon":139.6796305},{"name":"大岡山駅前","province":"東京都","city":"大田区","address":"東京都大田区北千束3丁目27-1","lat":35.60763275,"lon":139.68575363},{"name":"大鳥居","province":"東京都","city":"大田区","address":"東京都大田区羽田1丁目1-1","lat":35.55213877,"lon":139.74081042},{"name":"蒲田郵便局前","province":"東京都","city":"大田区","address":"東京都大田区蒲田4丁目42-12","lat":35.558981,"lon":139.71870008},{"name":"蒲田消防署前","province":"東京都","city":"大田区","address":"東京都大田区蒲田本町2丁目29-12","lat":35.55599817,"lon":139.72014741},{"name":"蒲田四丁目北","province":"東京都","city":"大田区","address":"東京都大田区蒲田4丁目20-1","lat":35.56164436,"lon":139.72123287},{"name":"大田区役所入口","province":"東京都","city":"大田区","address":"東京都大田区蒲田本町1丁目1-3","lat":35.55855055,"lon":139.7163976},{"name":"夫婦橋","province":"東京都","city":"大田区","address":"東京都大田区南蒲田1丁目1-25","lat":35.56087802,"lon":139.7247883},{"name":"あやめ橋","province":"東京都","city":"大田区","address":"東京都大田区蒲田1丁目31-1","lat":35.56263314,"lon":139.7211023},{"name":"西蒲田八丁目第二","province":"東京都","city":"大田区","address":"東京都大田区新蒲田1丁目13-5","lat":35.55957269,"lon":139.710351},{"name":"蒲田駅東口南","province":"東京都","city":"大田区","address":"東京都大田区蒲田5丁目39-2","lat":35.56176389,"lon":139.71664453},{"name":"蒲田駅東口中央","province":"東京都","city":"大田区","address":"東京都大田区蒲田5丁目16-1","lat":35.56237491,"lon":139.71734442},{"name":"蒲田交差西口","province":"東京都","city":"大田区","address":"東京都大田区西蒲田5丁目27-10","lat":35.56435526,"lon":139.71442522},{"name":"蒲田五丁目","province":"東京都","city":"大田区","address":"東京都大田区蒲田5丁目24-2","lat":35.56264984,"lon":139.71930806},{"name":"糀谷駅入口","province":"東京都","city":"大田区","address":"東京都大田区萩中2丁目1-24","lat":35.55337958,"lon":139.72995532},{"name":"西蒲田七丁目","province":"東京都","city":"大田区","address":"東京都大田区西蒲田7丁目9-5","lat":35.56416085,"lon":139.71311427},{"name":"蒲田四丁目南","province":"東京都","city":"大田区","address":"東京都大田区蒲田4丁目29-1","lat":35.56092507,"lon":139.71998865},{"name":"御園神社前","province":"東京都","city":"大田区","address":"東京都大田区西蒲田7丁目39-5","lat":35.56295551,"lon":139.71024522},{"name":"蒲田警察署前","province":"東京都","city":"大田区","address":"東京都大田区蒲田本町2丁目3-3","lat":35.55811168,"lon":139.72037497},{"name":"大田区役所前","province":"東京都","city":"大田区","address":"東京都大田区蒲田5丁目40-10","lat":35.56058352,"lon":139.71651687},{"name":"御園神社前第二","province":"東京都","city":"大田区","address":"東京都大田区西蒲田7丁目51-5","lat":35.56261942,"lon":139.711334},{"name":"蒲田駅西口","province":"東京都","city":"大田区","address":"東京都大田区西蒲田7丁目47-3","lat":35.56256937,"lon":139.71468639},{"name":"御園神社前第三","province":"東京都","city":"大田区","address":"東京都大田区西蒲田7丁目48-1","lat":35.56252218,"lon":139.71328656},{"name":"蒲田五丁目第二","province":"東京都","city":"大田区","address":"東京都大田区蒲田5丁目17-2","lat":35.56259988,"lon":139.71745551},{"name":"蒲田駅西口第二","province":"東京都","city":"大田区","address":"東京都大田区西蒲田7丁目29-5","lat":35.56316374,"lon":139.71499188},{"name":"西蒲田七丁目第二","province":"東京都","city":"大田区","address":"東京都大田区西蒲田7丁目31-1","lat":35.56327764,"lon":139.71341706},{"name":"西蒲田七丁目第三","province":"東京都","city":"大田区","address":"東京都大田区西蒲田7丁目33-1","lat":35.56335265,"lon":139.71178114},{"name":"萩中小学校前","province":"東京都","city":"大田区","address":"東京都大田区萩中3丁目25","lat":35.55005288,"lon":139.73951895},{"name":"京急蒲田駅西口","province":"東京都","city":"大田区","address":"東京都大田区蒲田3丁目20-4","lat":35.5625083,"lon":139.72407434},{"name":"仲蒲田公園入口","province":"東京都","city":"大田区","address":"東京都大田区蒲田4丁目41-1","lat":35.55978918,"lon":139.71899442},{"name":"蒲田八幡神社前","province":"東京都","city":"大田区","address":"東京都大田区蒲田4丁目18-17","lat":35.56006968,"lon":139.72259958},{"name":"蒲田四丁目南第二","province":"東京都","city":"大田区","address":"東京都大田区蒲田5丁目36","lat":35.56134169,"lon":139.71861932},{"name":"蒲田二丁目","province":"東京都","city":"大田区","address":"東京都大田区蒲田2丁目18-24","lat":35.56626057,"lon":139.72262983},{"name":"蒲田東口公園前","province":"東京都","city":"大田区","address":"東京都大田区蒲田5丁目38-3","lat":35.56151391,"lon":139.71739445},{"name":"蒲田社会保険所前","province":"東京都","city":"大田区","address":"東京都大田区蒲田4丁目23-15","lat":35.56055844,"lon":139.72129407},{"name":"下丸子三丁目","province":"東京都","city":"大田区","address":"東京都大田区下丸子3丁目28-11","lat":35.56688332,"lon":139.68427323},{"name":"大田都税前","province":"東京都","city":"大田区","address":"東京都大田区西蒲田6丁目33-1","lat":35.56485524,"lon":139.71051452},{"name":"矢口二丁目南","province":"東京都","city":"大田区","address":"東京都大田区矢口2丁目10-6","lat":35.56323654,"lon":139.69113654},{"name":"谷中通り","province":"東京都","city":"大田区","address":"東京都大田区南馬込2丁目28-1","lat":35.59024374,"lon":139.71862356},{"name":"池上橋南","province":"東京都","city":"大田区","address":"東京都大田区池上3丁目2-1","lat":35.57769507,"lon":139.70037035},{"name":"千鳥二丁目西","province":"東京都","city":"大田区","address":"東京都大田区千鳥2丁目15-16","lat":35.57031304,"lon":139.69352176},{"name":"多摩川一丁目第二","province":"東京都","city":"大田区","address":"東京都大田区多摩川1丁目7-6","lat":35.56336683,"lon":139.69925215},{"name":"池上特別出張所前","province":"東京都","city":"大田区","address":"東京都大田区中央8丁目2-20","lat":35.5746011,"lon":139.71090832},{"name":"西蒲田六丁目第二","province":"東京都","city":"大田区","address":"東京都大田区西蒲田7丁目11-4","lat":35.56437195,"lon":139.71151166},{"name":"池上六丁目第二","province":"東京都","city":"大田区","address":"東京都大田区東矢口1丁目4-18","lat":35.56642735,"lon":139.7038569},{"name":"池上六丁目第三","province":"東京都","city":"大田区","address":"東京都大田区池上6丁目32-11","lat":35.56822984,"lon":139.70440114},{"name":"武蔵新田駅前第二","province":"東京都","city":"大田区","address":"東京都大田区矢口1丁目5-8","lat":35.56745795,"lon":139.69415525},{"name":"武蔵新田駅前","province":"東京都","city":"大田区","address":"東京都大田区矢口1丁目7-14","lat":35.56838562,"lon":139.69222764},{"name":"池上福祉事務所前","province":"東京都","city":"大田区","address":"東京都大田区池上6丁目40-3","lat":35.56784099,"lon":139.70555659},{"name":"第２ターミナル","province":"東京都","city":"大田区","address":"東京都大田区羽田空港3丁目4","lat":35.54998808,"lon":139.7900261},{"name":"馬込給水所","province":"東京都","city":"大田区","address":"東京都大田区西馬込2丁目15-6","lat":35.58832131,"lon":139.70213893},{"name":"上池台給水所","province":"東京都","city":"大田区","address":"東京都大田区上池台1丁目48-25","lat":35.6004699,"lon":139.69973594},{"name":"区立西六郷三丁目公園","province":"東京都","city":"大田区","address":"東京都大田区西六郷3丁目16-16","lat":35.54629163,"lon":139.7059358},{"name":"区立萩中公園","province":"東京都","city":"大田区","address":"東京都大田区萩中3丁目25-26","lat":35.54972234,"lon":139.73905511},{"name":"区立都堀公園","province":"東京都","city":"大田区","address":"東京都大田区大森東1丁目30","lat":35.57738779,"lon":139.73836722},{"name":"区立下丸子公園","province":"東京都","city":"大田区","address":"東京都大田区下丸子4丁目21","lat":35.56920527,"lon":139.67906532},{"name":"区立女塚なかよし公園","province":"東京都","city":"大田区","address":"東京都大田区池上5丁目24","lat":35.57274857,"lon":139.71105287},{"name":"東海給水所","province":"東京都","city":"大田区","address":"東京都大田区東海1丁目3-12","lat":35.585493,"lon":139.7537297},{"name":"大田区保健所（保健衛生課）","province":"東京都","city":"大田区","address":"東京都大田区蒲田5丁目13-14","lat":35.56143339,"lon":139.71606685},{"name":"多摩川二丁目緊急用船着場","province":"東京都","city":"大田区","address":"東京都大田区多摩川2丁目","lat":35.55788986,"lon":139.70234382},{"name":"東京都漁連水産物流通センター","province":"東京都","city":"大田区","address":"東京都大田区京浜島3丁目","lat":35.57325911,"lon":139.76385757},{"name":"大森ふるさとの浜辺公園","province":"東京都","city":"大田区","address":"東京都大田区平和の森公園2-2","lat":35.57713528,"lon":139.74270588},{"name":"羽田２、３丁目","province":"東京都","city":"大田区","address":"東京都大田区羽田5丁目23","lat":35.54810939,"lon":139.74881591},{"name":"東糀谷六丁目","province":"東京都","city":"大田区","address":"東京都大田区東糀谷6丁目","lat":35.55887451,"lon":139.75037338},{"name":"羽田空港天空橋","province":"東京都","city":"大田区","address":"東京都大田区羽田空港1丁目","lat":35.55478658,"lon":139.75528179},{"name":"第一自動車警ら隊蒲田分駐所","province":"東京都","city":"大田区","address":"大田区蒲田本町2-29-12","lat":35.556,"lon":139.7201},{"name":"第二方面交通機動隊","province":"東京都","city":"大田区","address":"大田区大森北6-24-20","lat":35.57914,"lon":139.7302},{"name":"池上警察署","province":"東京都","city":"大田区","address":"大田区池上3-20-10","lat":35.57434,"lon":139.6986},{"name":"大森警察署","province":"東京都","city":"大田区","address":"大田区大森中1-1-16","lat":35.57255,"lon":139.7338},{"name":"蒲田警察署","province":"東京都","city":"大田区","address":"大田区蒲田本町2-3-3","lat":35.55811,"lon":139.7204},{"name":"田園調布警察署","province":"東京都","city":"大田区","address":"大田区田園調布1-1-8","lat":35.589128,"lon":139.677331},{"name":"東京空港警察署","province":"東京都","city":"大田区","address":"大田区羽田空港3-4-1","lat":35.55513,"lon":139.7842},{"name":"第二消防方面本部","province":"東京都","city":"大田区","address":"大田区大森東1-32-8","lat":35.5788,"lon":139.7393},{"name":"第二方面訓練場","province":"東京都","city":"大田区","address":"大田区京浜島1-1","lat":35.57302,"lon":139.7576},{"name":"大森消防署","province":"東京都","city":"大田区","address":"大田区大森東1-32-8","lat":35.5788,"lon":139.7393},{"name":"蒲田消防署","province":"東京都","city":"大田区","address":"大田区蒲田本町2-28-1","lat":35.55572,"lon":139.7198},{"name":"田園調布消防署","province":"東京都","city":"大田区","address":"大田区雪谷大塚町13-22","lat":35.5898,"lon":139.6776},{"name":"矢口消防署","province":"東京都","city":"大田区","address":"大田区多摩川2-5-20","lat":35.55952,"lon":139.6992},{"name":"大田区田園調布南倉庫","province":"東京都","city":"大田区","address":"大田区田園調布南3-8区立田園調布南公園内","lat":35.57919,"lon":139.6752},{"name":"大田区南六郷倉庫","province":"東京都","city":"大田区","address":"大田区南六郷1-29-2-101都市再生機構南六郷一丁目団地内","lat":35.5462,"lon":139.7254},{"name":"東邦薬品（株）ＷＩＬＬ平和島","province":"東京都","city":"大田区","address":"大田区平和島6-1-1(株)東京流通センター内AE4-2","lat":35.57911,"lon":139.7477},{"name":"相互産業（株）","province":"東京都","city":"大田区","address":"大田区中央3-19-5","lat":35.57492,"lon":139.7186},{"name":"大森ふるさとの浜辺公園","province":"東京都","city":"大田区","address":"東京都大田区平和の森公園2-2","lat":35.57713528,"lon":139.74270588},{"name":"平和島駅入口","province":"東京都","city":"大田区","address":"東京都大田区大森北6丁目28-1","lat":35.57832639,"lon":139.73504792},{"name":"大森第一小学校前","province":"東京都","city":"大田区","address":"東京都大田区大森中1丁目10-7","lat":35.57010797,"lon":139.73473729},{"name":"春日橋","province":"東京都","city":"大田区","address":"東京都大田区山王3丁目13-4","lat":35.58136716,"lon":139.72206254},{"name":"大田文化の森","province":"東京都","city":"大田区","address":"東京都大田区中央2丁目10-1","lat":35.57955621,"lon":139.7202711},{"name":"大森町駅入口","province":"東京都","city":"大田区","address":"東京都大田区大森中1丁目2-23","lat":35.57164102,"lon":139.73274287},{"name":"八幡中央通り","province":"東京都","city":"大田区","address":"東京都大田区大森北3丁目1-1","lat":35.58461988,"lon":139.730959},{"name":"大森東四丁目","province":"東京都","city":"大田区","address":"東京都大田区大森東4丁目19-31","lat":35.56830828,"lon":139.73574012},{"name":"山王","province":"東京都","city":"大田区","address":"東京都大田区山王2丁目1-8","lat":35.59048294,"lon":139.72853391},{"name":"山王二丁目","province":"東京都","city":"大田区","address":"東京都大田区山王2丁目3","lat":35.58694443,"lon":139.72633421},{"name":"大森赤十字病院入口","province":"東京都","city":"大田区","address":"東京都大田区中央3丁目1-3","lat":35.57884793,"lon":139.71882126},{"name":"大森本町二丁目","province":"東京都","city":"大田区","address":"東京都大田区大森本町2丁目1-19","lat":35.58116221,"lon":139.73656158},{"name":"入新井四小入口","province":"東京都","city":"大田区","address":"東京都大田区中央3丁目5-7","lat":35.57789523,"lon":139.71703814},{"name":"東邦大学病院前","province":"東京都","city":"大田区","address":"東京都大田区大森西6丁目11","lat":35.56913532,"lon":139.72386297},{"name":"入新井第一小学校前","province":"東京都","city":"大田区","address":"東京都大田区大森北4丁目6-7","lat":35.58365875,"lon":139.72740928},{"name":"臼田坂下","province":"東京都","city":"大田区","address":"東京都大田区中央4丁目31-1","lat":35.58022832,"lon":139.718524},{"name":"大森銀座入口","province":"東京都","city":"大田区","address":"東京都大田区大森北1丁目29-6","lat":35.5855669,"lon":139.72875077},{"name":"大森郵便局前","province":"東京都","city":"大田区","address":"東京都大田区山王3丁目9-13","lat":35.5826365,"lon":139.72315684},{"name":"環七美原通り","province":"東京都","city":"大田区","address":"東京都大田区大森本町2丁目33-5","lat":35.57772375,"lon":139.73632288},{"name":"大森青少年センター入口","province":"東京都","city":"大田区","address":"東京都大田区大森北1丁目15-1","lat":35.58616131,"lon":139.72953958},{"name":"八幡中央通り第二","province":"東京都","city":"大田区","address":"東京都大田区大森北1丁目19-12","lat":35.58593361,"lon":139.7312228},{"name":"大森駅西口第三","province":"東京都","city":"大田区","address":"東京都大田区山王2丁目8-26","lat":35.58931637,"lon":139.72727572},{"name":"大森東三丁目","province":"東京都","city":"大田区","address":"東京都大田区大森東2丁目23-11","lat":35.5715939,"lon":139.73493163},{"name":"中央一丁目","province":"東京都","city":"大田区","address":"東京都大田区中央2丁目7-3","lat":35.58038391,"lon":139.7211932},{"name":"入新井児童公園前","province":"東京都","city":"大田区","address":"東京都大田区大森北1丁目5-1","lat":35.587275,"lon":139.72784242},{"name":"大森駅西口第二","province":"東京都","city":"大田区","address":"東京都大田区山王2丁目8","lat":35.58883586,"lon":139.72641746},{"name":"入新井第一小学校東","province":"東京都","city":"大田区","address":"東京都大田区大森北4丁目7-4","lat":35.58450315,"lon":139.72859249},{"name":"洗足池駅前","province":"東京都","city":"大田区","address":"東京都大田区南千束2丁目1-5","lat":35.60029759,"lon":139.69135895},{"name":"長原駅入口","province":"東京都","city":"大田区","address":"東京都大田区上池台1丁目44-1","lat":35.60143924,"lon":139.6998109},{"name":"田園調布警察署前","province":"東京都","city":"大田区","address":"東京都大田区田園調布1丁目1-8","lat":35.58912681,"lon":139.67733048},{"name":"上池上稲荷坂","province":"東京都","city":"大田区","address":"東京都大田区上池台5丁目6-1","lat":35.59515661,"lon":139.70111376},{"name":"荏原病院前","province":"東京都","city":"大田区","address":"東京都大田区東雪谷4丁目5-10","lat":35.59460659,"lon":139.69367561},{"name":"貝塚","province":"東京都","city":"大田区","address":"東京都大田区中馬込1丁目1-17","lat":35.59840352,"lon":139.70376897},{"name":"御嶽神社入口","province":"東京都","city":"大田区","address":"東京都大田区田園調布本町56-5","lat":35.58554126,"lon":139.6796305},{"name":"大岡山駅前","province":"東京都","city":"大田区","address":"東京都大田区北千束3丁目27-1","lat":35.60763275,"lon":139.68575363},{"name":"大鳥居","province":"東京都","city":"大田区","address":"東京都大田区羽田1丁目1-1","lat":35.55213877,"lon":139.74081042},{"name":"蒲田郵便局前","province":"東京都","city":"大田区","address":"東京都大田区蒲田4丁目42-12","lat":35.558981,"lon":139.71870008},{"name":"蒲田消防署前","province":"東京都","city":"大田区","address":"東京都大田区蒲田本町2丁目29-12","lat":35.55599817,"lon":139.72014741},{"name":"蒲田四丁目北","province":"東京都","city":"大田区","address":"東京都大田区蒲田4丁目20-1","lat":35.56164436,"lon":139.72123287},{"name":"大田区役所入口","province":"東京都","city":"大田区","address":"東京都大田区蒲田本町1丁目1-3","lat":35.55855055,"lon":139.7163976},{"name":"夫婦橋","province":"東京都","city":"大田区","address":"東京都大田区南蒲田1丁目1-25","lat":35.56087802,"lon":139.7247883},{"name":"あやめ橋","province":"東京都","city":"大田区","address":"東京都大田区蒲田1丁目31-1","lat":35.56263314,"lon":139.7211023},{"name":"西蒲田八丁目第二","province":"東京都","city":"大田区","address":"東京都大田区新蒲田1丁目13-5","lat":35.55957269,"lon":139.710351},{"name":"蒲田駅東口南","province":"東京都","city":"大田区","address":"東京都大田区蒲田5丁目39-2","lat":35.56176389,"lon":139.71664453},{"name":"蒲田駅東口中央","province":"東京都","city":"大田区","address":"東京都大田区蒲田5丁目16-1","lat":35.56237491,"lon":139.71734442},{"name":"蒲田交差西口","province":"東京都","city":"大田区","address":"東京都大田区西蒲田5丁目27-10","lat":35.56435526,"lon":139.71442522},{"name":"蒲田五丁目","province":"東京都","city":"大田区","address":"東京都大田区蒲田5丁目24-2","lat":35.56264984,"lon":139.71930806},{"name":"糀谷駅入口","province":"東京都","city":"大田区","address":"東京都大田区萩中2丁目1-24","lat":35.55337958,"lon":139.72995532},{"name":"西蒲田七丁目","province":"東京都","city":"大田区","address":"東京都大田区西蒲田7丁目9-5","lat":35.56416085,"lon":139.71311427},{"name":"蒲田四丁目南","province":"東京都","city":"大田区","address":"東京都大田区蒲田4丁目29-1","lat":35.56092507,"lon":139.71998865},{"name":"御園神社前","province":"東京都","city":"大田区","address":"東京都大田区西蒲田7丁目39-5","lat":35.56295551,"lon":139.71024522},{"name":"蒲田警察署前","province":"東京都","city":"大田区","address":"東京都大田区蒲田本町2丁目3-3","lat":35.55811168,"lon":139.72037497},{"name":"大田区役所前","province":"東京都","city":"大田区","address":"東京都大田区蒲田5丁目40-10","lat":35.56058352,"lon":139.71651687},{"name":"御園神社前第二","province":"東京都","city":"大田区","address":"東京都大田区西蒲田7丁目51-5","lat":35.56261942,"lon":139.711334},{"name":"蒲田駅西口","province":"東京都","city":"大田区","address":"東京都大田区西蒲田7丁目47-3","lat":35.56256937,"lon":139.71468639},{"name":"御園神社前第三","province":"東京都","city":"大田区","address":"東京都大田区西蒲田7丁目48-1","lat":35.56252218,"lon":139.71328656},{"name":"蒲田五丁目第二","province":"東京都","city":"大田区","address":"東京都大田区蒲田5丁目17-2","lat":35.56259988,"lon":139.71745551},{"name":"蒲田駅西口第二","province":"東京都","city":"大田区","address":"東京都大田区西蒲田7丁目29-5","lat":35.56316374,"lon":139.71499188},{"name":"西蒲田七丁目第二","province":"東京都","city":"大田区","address":"東京都大田区西蒲田7丁目31-1","lat":35.56327764,"lon":139.71341706},{"name":"西蒲田七丁目第三","province":"東京都","city":"大田区","address":"東京都大田区西蒲田7丁目33-1","lat":35.56335265,"lon":139.71178114},{"name":"萩中小学校前","province":"東京都","city":"大田区","address":"東京都大田区萩中3丁目25","lat":35.55005288,"lon":139.73951895},{"name":"京急蒲田駅西口","province":"東京都","city":"大田区","address":"東京都大田区蒲田3丁目20-4","lat":35.5625083,"lon":139.72407434},{"name":"仲蒲田公園入口","province":"東京都","city":"大田区","address":"東京都大田区蒲田4丁目41-1","lat":35.55978918,"lon":139.71899442},{"name":"蒲田八幡神社前","province":"東京都","city":"大田区","address":"東京都大田区蒲田4丁目18-17","lat":35.56006968,"lon":139.72259958},{"name":"蒲田四丁目南第二","province":"東京都","city":"大田区","address":"東京都大田区蒲田5丁目36","lat":35.56134169,"lon":139.71861932},{"name":"蒲田二丁目","province":"東京都","city":"大田区","address":"東京都大田区蒲田2丁目18-24","lat":35.56626057,"lon":139.72262983},{"name":"蒲田東口公園前","province":"東京都","city":"大田区","address":"東京都大田区蒲田5丁目38-3","lat":35.56151391,"lon":139.71739445},{"name":"蒲田社会保険所前","province":"東京都","city":"大田区","address":"東京都大田区蒲田4丁目23-15","lat":35.56055844,"lon":139.72129407},{"name":"下丸子三丁目","province":"東京都","city":"大田区","address":"東京都大田区下丸子3丁目28-11","lat":35.56688332,"lon":139.68427323},{"name":"大田都税前","province":"東京都","city":"大田区","address":"東京都大田区西蒲田6丁目33-1","lat":35.56485524,"lon":139.71051452},{"name":"矢口二丁目南","province":"東京都","city":"大田区","address":"東京都大田区矢口2丁目10-6","lat":35.56323654,"lon":139.69113654},{"name":"谷中通り","province":"東京都","city":"大田区","address":"東京都大田区南馬込2丁目28-1","lat":35.59024374,"lon":139.71862356},{"name":"池上橋南","province":"東京都","city":"大田区","address":"東京都大田区池上3丁目2-1","lat":35.57769507,"lon":139.70037035},{"name":"千鳥二丁目西","province":"東京都","city":"大田区","address":"東京都大田区千鳥2丁目15-16","lat":35.57031304,"lon":139.69352176},{"name":"多摩川一丁目第二","province":"東京都","city":"大田区","address":"東京都大田区多摩川1丁目7-6","lat":35.56336683,"lon":139.69925215},{"name":"池上特別出張所前","province":"東京都","city":"大田区","address":"東京都大田区中央8丁目2-20","lat":35.5746011,"lon":139.71090832},{"name":"西蒲田六丁目第二","province":"東京都","city":"大田区","address":"東京都大田区西蒲田7丁目11-4","lat":35.56437195,"lon":139.71151166},{"name":"池上六丁目第二","province":"東京都","city":"大田区","address":"東京都大田区東矢口1丁目4-18","lat":35.56642735,"lon":139.7038569},{"name":"池上六丁目第三","province":"東京都","city":"大田区","address":"東京都大田区池上6丁目32-11","lat":35.56822984,"lon":139.70440114},{"name":"武蔵新田駅前第二","province":"東京都","city":"大田区","address":"東京都大田区矢口1丁目5-8","lat":35.56745795,"lon":139.69415525},{"name":"武蔵新田駅前","province":"東京都","city":"大田区","address":"東京都大田区矢口1丁目7-14","lat":35.56838562,"lon":139.69222764},{"name":"池上福祉事務所前","province":"東京都","city":"大田区","address":"東京都大田区池上6丁目40-3","lat":35.56784099,"lon":139.70555659},{"name":"第２ターミナル","province":"東京都","city":"大田区","address":"東京都大田区羽田空港3丁目4","lat":35.54998808,"lon":139.7900261},{"name":"馬込給水所","province":"東京都","city":"大田区","address":"東京都大田区西馬込2丁目15-6","lat":35.58832131,"lon":139.70213893},{"name":"上池台給水所","province":"東京都","city":"大田区","address":"東京都大田区上池台1丁目48-25","lat":35.6004699,"lon":139.69973594},{"name":"区立西六郷三丁目公園","province":"東京都","city":"大田区","address":"東京都大田区西六郷3丁目16-16","lat":35.54629163,"lon":139.7059358},{"name":"区立萩中公園","province":"東京都","city":"大田区","address":"東京都大田区萩中3丁目25-26","lat":35.54972234,"lon":139.73905511},{"name":"区立都堀公園","province":"東京都","city":"大田区","address":"東京都大田区大森東1丁目30","lat":35.57738779,"lon":139.73836722},{"name":"区立下丸子公園","province":"東京都","city":"大田区","address":"東京都大田区下丸子4丁目21","lat":35.56920527,"lon":139.67906532},{"name":"区立女塚なかよし公園","province":"東京都","city":"大田区","address":"東京都大田区池上5丁目24","lat":35.57274857,"lon":139.71105287},{"name":"東海給水所","province":"東京都","city":"大田区","address":"東京都大田区東海1丁目3-12","lat":35.585493,"lon":139.7537297},{"name":"大田区保健所（保健衛生課）","province":"東京都","city":"大田区","address":"東京都大田区蒲田5丁目13-14","lat":35.56143339,"lon":139.71606685},{"name":"多摩川二丁目緊急用船着場","province":"東京都","city":"大田区","address":"東京都大田区多摩川2丁目","lat":35.55788986,"lon":139.70234382},{"name":"東京都漁連水産物流通センター","province":"東京都","city":"大田区","address":"東京都大田区京浜島3丁目","lat":35.57325911,"lon":139.76385757},{"name":"大森ふるさとの浜辺公園","province":"東京都","city":"大田区","address":"東京都大田区平和の森公園2-2","lat":35.57713528,"lon":139.74270588},{"name":"羽田２、３丁目","province":"東京都","city":"大田区","address":"東京都大田区羽田5丁目23","lat":35.54810939,"lon":139.74881591},{"name":"東糀谷六丁目","province":"東京都","city":"大田区","address":"東京都大田区東糀谷6丁目","lat":35.55887451,"lon":139.75037338},{"name":"羽田空港天空橋","province":"東京都","city":"大田区","address":"東京都大田区羽田空港1丁目","lat":35.55478658,"lon":139.75528179},{"name":"第一自動車警ら隊蒲田分駐所","province":"東京都","city":"大田区","address":"大田区蒲田本町2-29-12","lat":35.556,"lon":139.7201},{"name":"第二方面交通機動隊","province":"東京都","city":"大田区","address":"大田区大森北6-24-20","lat":35.57914,"lon":139.7302},{"name":"池上警察署","province":"東京都","city":"大田区","address":"大田区池上3-20-10","lat":35.57434,"lon":139.6986},{"name":"大森警察署","province":"東京都","city":"大田区","address":"大田区大森中1-1-16","lat":35.57255,"lon":139.7338},{"name":"蒲田警察署","province":"東京都","city":"大田区","address":"大田区蒲田本町2-3-3","lat":35.55811,"lon":139.7204},{"name":"田園調布警察署","province":"東京都","city":"大田区","address":"大田区田園調布1-1-8","lat":35.589128,"lon":139.677331},{"name":"東京空港警察署","province":"東京都","city":"大田区","address":"大田区羽田空港3-4-1","lat":35.55513,"lon":139.7842},{"name":"第二消防方面本部","province":"東京都","city":"大田区","address":"大田区大森東1-32-8","lat":35.5788,"lon":139.7393},{"name":"第二方面訓練場","province":"東京都","city":"大田区","address":"大田区京浜島1-1","lat":35.57302,"lon":139.7576},{"name":"大森消防署","province":"東京都","city":"大田区","address":"大田区大森東1-32-8","lat":35.5788,"lon":139.7393},{"name":"蒲田消防署","province":"東京都","city":"大田区","address":"大田区蒲田本町2-28-1","lat":35.55572,"lon":139.7198},{"name":"田園調布消防署","province":"東京都","city":"大田区","address":"大田区雪谷大塚町13-22","lat":35.5898,"lon":139.6776},{"name":"矢口消防署","province":"東京都","city":"大田区","address":"大田区多摩川2-5-20","lat":35.55952,"lon":139.6992},{"name":"大田区田園調布南倉庫","province":"東京都","city":"大田区","address":"大田区田園調布南3-8区立田園調布南公園内","lat":35.57919,"lon":139.6752},{"name":"大田区南六郷倉庫","province":"東京都","city":"大田区","address":"大田区南六郷1-29-2-101都市再生機構南六郷一丁目団地内","lat":35.5462,"lon":139.7254},{"name":"東邦薬品（株）ＷＩＬＬ平和島","province":"東京都","city":"大田区","address":"大田区平和島6-1-1(株)東京流通センター内AE4-2","lat":35.57911,"lon":139.7477},{"name":"相互産業（株）","province":"東京都","city":"大田区","address":"大田区中央3-19-5","lat":35.57492,"lon":139.7186},{"name":"大森ふるさとの浜辺公園","province":"東京都","city":"大田区","address":"東京都大田区平和の森公園2-2","lat":35.57713528,"lon":139.74270588},{"name":"平和島駅入口","province":"東京都","city":"大田区","address":"東京都大田区大森北6丁目28-1","lat":35.57832639,"lon":139.73504792},{"name":"大森第一小学校前","province":"東京都","city":"大田区","address":"東京都大田区大森中1丁目10-7","lat":35.57010797,"lon":139.73473729},{"name":"春日橋","province":"東京都","city":"大田区","address":"東京都大田区山王3丁目13-4","lat":35.58136716,"lon":139.72206254},{"name":"大田文化の森","province":"東京都","city":"大田区","address":"東京都大田区中央2丁目10-1","lat":35.57955621,"lon":139.7202711},{"name":"大森町駅入口","province":"東京都","city":"大田区","address":"東京都大田区大森中1丁目2-23","lat":35.57164102,"lon":139.73274287},{"name":"八幡中央通り","province":"東京都","city":"大田区","address":"東京都大田区大森北3丁目1-1","lat":35.58461988,"lon":139.730959},{"name":"大森東四丁目","province":"東京都","city":"大田区","address":"東京都大田区大森東4丁目19-31","lat":35.56830828,"lon":139.73574012},{"name":"山王","province":"東京都","city":"大田区","address":"東京都大田区山王2丁目1-8","lat":35.59048294,"lon":139.72853391},{"name":"山王二丁目","province":"東京都","city":"大田区","address":"東京都大田区山王2丁目3","lat":35.58694443,"lon":139.72633421},{"name":"大森赤十字病院入口","province":"東京都","city":"大田区","address":"東京都大田区中央3丁目1-3","lat":35.57884793,"lon":139.71882126},{"name":"大森本町二丁目","province":"東京都","city":"大田区","address":"東京都大田区大森本町2丁目1-19","lat":35.58116221,"lon":139.73656158},{"name":"入新井四小入口","province":"東京都","city":"大田区","address":"東京都大田区中央3丁目5-7","lat":35.57789523,"lon":139.71703814},{"name":"東邦大学病院前","province":"東京都","city":"大田区","address":"東京都大田区大森西6丁目11","lat":35.56913532,"lon":139.72386297},{"name":"入新井第一小学校前","province":"東京都","city":"大田区","address":"東京都大田区大森北4丁目6-7","lat":35.58365875,"lon":139.72740928},{"name":"臼田坂下","province":"東京都","city":"大田区","address":"東京都大田区中央4丁目31-1","lat":35.58022832,"lon":139.718524},{"name":"大森銀座入口","province":"東京都","city":"大田区","address":"東京都大田区大森北1丁目29-6","lat":35.5855669,"lon":139.72875077},{"name":"大森郵便局前","province":"東京都","city":"大田区","address":"東京都大田区山王3丁目9-13","lat":35.5826365,"lon":139.72315684},{"name":"環七美原通り","province":"東京都","city":"大田区","address":"東京都大田区大森本町2丁目33-5","lat":35.57772375,"lon":139.73632288},{"name":"大森青少年センター入口","province":"東京都","city":"大田区","address":"東京都大田区大森北1丁目15-1","lat":35.58616131,"lon":139.72953958},{"name":"八幡中央通り第二","province":"東京都","city":"大田区","address":"東京都大田区大森北1丁目19-12","lat":35.58593361,"lon":139.7312228},{"name":"大森駅西口第三","province":"東京都","city":"大田区","address":"東京都大田区山王2丁目8-26","lat":35.58931637,"lon":139.72727572},{"name":"大森東三丁目","province":"東京都","city":"大田区","address":"東京都大田区大森東2丁目23-11","lat":35.5715939,"lon":139.73493163},{"name":"中央一丁目","province":"東京都","city":"大田区","address":"東京都大田区中央2丁目7-3","lat":35.58038391,"lon":139.7211932},{"name":"入新井児童公園前","province":"東京都","city":"大田区","address":"東京都大田区大森北1丁目5-1","lat":35.587275,"lon":139.72784242},{"name":"大森駅西口第二","province":"東京都","city":"大田区","address":"東京都大田区山王2丁目8","lat":35.58883586,"lon":139.72641746},{"name":"入新井第一小学校東","province":"東京都","city":"大田区","address":"東京都大田区大森北4丁目7-4","lat":35.58450315,"lon":139.72859249},{"name":"洗足池駅前","province":"東京都","city":"大田区","address":"東京都大田区南千束2丁目1-5","lat":35.60029759,"lon":139.69135895},{"name":"長原駅入口","province":"東京都","city":"大田区","address":"東京都大田区上池台1丁目44-1","lat":35.60143924,"lon":139.6998109},{"name":"田園調布警察署前","province":"東京都","city":"大田区","address":"東京都大田区田園調布1丁目1-8","lat":35.58912681,"lon":139.67733048},{"name":"上池上稲荷坂","province":"東京都","city":"大田区","address":"東京都大田区上池台5丁目6-1","lat":35.59515661,"lon":139.70111376},{"name":"荏原病院前","province":"東京都","city":"大田区","address":"東京都大田区東雪谷4丁目5-10","lat":35.59460659,"lon":139.69367561},{"name":"貝塚","province":"東京都","city":"大田区","address":"東京都大田区中馬込1丁目1-17","lat":35.59840352,"lon":139.70376897},{"name":"御嶽神社入口","province":"東京都","city":"大田区","address":"東京都大田区田園調布本町56-5","lat":35.58554126,"lon":139.6796305},{"name":"大岡山駅前","province":"東京都","city":"大田区","address":"東京都大田区北千束3丁目27-1","lat":35.60763275,"lon":139.68575363},{"name":"大鳥居","province":"東京都","city":"大田区","address":"東京都大田区羽田1丁目1-1","lat":35.55213877,"lon":139.74081042},{"name":"蒲田郵便局前","province":"東京都","city":"大田区","address":"東京都大田区蒲田4丁目42-12","lat":35.558981,"lon":139.71870008},{"name":"蒲田消防署前","province":"東京都","city":"大田区","address":"東京都大田区蒲田本町2丁目29-12","lat":35.55599817,"lon":139.72014741},{"name":"蒲田四丁目北","province":"東京都","city":"大田区","address":"東京都大田区蒲田4丁目20-1","lat":35.56164436,"lon":139.72123287},{"name":"大田区役所入口","province":"東京都","city":"大田区","address":"東京都大田区蒲田本町1丁目1-3","lat":35.55855055,"lon":139.7163976},{"name":"夫婦橋","province":"東京都","city":"大田区","address":"東京都大田区南蒲田1丁目1-25","lat":35.56087802,"lon":139.7247883},{"name":"あやめ橋","province":"東京都","city":"大田区","address":"東京都大田区蒲田1丁目31-1","lat":35.56263314,"lon":139.7211023},{"name":"西蒲田八丁目第二","province":"東京都","city":"大田区","address":"東京都大田区新蒲田1丁目13-5","lat":35.55957269,"lon":139.710351},{"name":"蒲田駅東口南","province":"東京都","city":"大田区","address":"東京都大田区蒲田5丁目39-2","lat":35.56176389,"lon":139.71664453},{"name":"蒲田駅東口中央","province":"東京都","city":"大田区","address":"東京都大田区蒲田5丁目16-1","lat":35.56237491,"lon":139.71734442},{"name":"蒲田交差西口","province":"東京都","city":"大田区","address":"東京都大田区西蒲田5丁目27-10","lat":35.56435526,"lon":139.71442522},{"name":"蒲田五丁目","province":"東京都","city":"大田区","address":"東京都大田区蒲田5丁目24-2","lat":35.56264984,"lon":139.71930806},{"name":"糀谷駅入口","province":"東京都","city":"大田区","address":"東京都大田区萩中2丁目1-24","lat":35.55337958,"lon":139.72995532},{"name":"西蒲田七丁目","province":"東京都","city":"大田区","address":"東京都大田区西蒲田7丁目9-5","lat":35.56416085,"lon":139.71311427},{"name":"蒲田四丁目南","province":"東京都","city":"大田区","address":"東京都大田区蒲田4丁目29-1","lat":35.56092507,"lon":139.71998865},{"name":"御園神社前","province":"東京都","city":"大田区","address":"東京都大田区西蒲田7丁目39-5","lat":35.56295551,"lon":139.71024522},{"name":"蒲田警察署前","province":"東京都","city":"大田区","address":"東京都大田区蒲田本町2丁目3-3","lat":35.55811168,"lon":139.72037497},{"name":"大田区役所前","province":"東京都","city":"大田区","address":"東京都大田区蒲田5丁目40-10","lat":35.56058352,"lon":139.71651687},{"name":"御園神社前第二","province":"東京都","city":"大田区","address":"東京都大田区西蒲田7丁目51-5","lat":35.56261942,"lon":139.711334},{"name":"蒲田駅西口","province":"東京都","city":"大田区","address":"東京都大田区西蒲田7丁目47-3","lat":35.56256937,"lon":139.71468639},{"name":"御園神社前第三","province":"東京都","city":"大田区","address":"東京都大田区西蒲田7丁目48-1","lat":35.56252218,"lon":139.71328656},{"name":"蒲田五丁目第二","province":"東京都","city":"大田区","address":"東京都大田区蒲田5丁目17-2","lat":35.56259988,"lon":139.71745551},{"name":"蒲田駅西口第二","province":"東京都","city":"大田区","address":"東京都大田区西蒲田7丁目29-5","lat":35.56316374,"lon":139.71499188},{"name":"西蒲田七丁目第二","province":"東京都","city":"大田区","address":"東京都大田区西蒲田7丁目31-1","lat":35.56327764,"lon":139.71341706},{"name":"西蒲田七丁目第三","province":"東京都","city":"大田区","address":"東京都大田区西蒲田7丁目33-1","lat":35.56335265,"lon":139.71178114},{"name":"萩中小学校前","province":"東京都","city":"大田区","address":"東京都大田区萩中3丁目25","lat":35.55005288,"lon":139.73951895},{"name":"京急蒲田駅西口","province":"東京都","city":"大田区","address":"東京都大田区蒲田3丁目20-4","lat":35.5625083,"lon":139.72407434},{"name":"仲蒲田公園入口","province":"東京都","city":"大田区","address":"東京都大田区蒲田4丁目41-1","lat":35.55978918,"lon":139.71899442},{"name":"蒲田八幡神社前","province":"東京都","city":"大田区","address":"東京都大田区蒲田4丁目18-17","lat":35.56006968,"lon":139.72259958},{"name":"蒲田四丁目南第二","province":"東京都","city":"大田区","address":"東京都大田区蒲田5丁目36","lat":35.56134169,"lon":139.71861932},{"name":"蒲田二丁目","province":"東京都","city":"大田区","address":"東京都大田区蒲田2丁目18-24","lat":35.56626057,"lon":139.72262983},{"name":"蒲田東口公園前","province":"東京都","city":"大田区","address":"東京都大田区蒲田5丁目38-3","lat":35.56151391,"lon":139.71739445},{"name":"蒲田社会保険所前","province":"東京都","city":"大田区","address":"東京都大田区蒲田4丁目23-15","lat":35.56055844,"lon":139.72129407},{"name":"下丸子三丁目","province":"東京都","city":"大田区","address":"東京都大田区下丸子3丁目28-11","lat":35.56688332,"lon":139.68427323},{"name":"大田都税前","province":"東京都","city":"大田区","address":"東京都大田区西蒲田6丁目33-1","lat":35.56485524,"lon":139.71051452},{"name":"矢口二丁目南","province":"東京都","city":"大田区","address":"東京都大田区矢口2丁目10-6","lat":35.56323654,"lon":139.69113654},{"name":"谷中通り","province":"東京都","city":"大田区","address":"東京都大田区南馬込2丁目28-1","lat":35.59024374,"lon":139.71862356},{"name":"池上橋南","province":"東京都","city":"大田区","address":"東京都大田区池上3丁目2-1","lat":35.57769507,"lon":139.70037035},{"name":"千鳥二丁目西","province":"東京都","city":"大田区","address":"東京都大田区千鳥2丁目15-16","lat":35.57031304,"lon":139.69352176},{"name":"多摩川一丁目第二","province":"東京都","city":"大田区","address":"東京都大田区多摩川1丁目7-6","lat":35.56336683,"lon":139.69925215},{"name":"池上特別出張所前","province":"東京都","city":"大田区","address":"東京都大田区中央8丁目2-20","lat":35.5746011,"lon":139.71090832},{"name":"西蒲田六丁目第二","province":"東京都","city":"大田区","address":"東京都大田区西蒲田7丁目11-4","lat":35.56437195,"lon":139.71151166},{"name":"池上六丁目第二","province":"東京都","city":"大田区","address":"東京都大田区東矢口1丁目4-18","lat":35.56642735,"lon":139.7038569},{"name":"池上六丁目第三","province":"東京都","city":"大田区","address":"東京都大田区池上6丁目32-11","lat":35.56822984,"lon":139.70440114},{"name":"武蔵新田駅前第二","province":"東京都","city":"大田区","address":"東京都大田区矢口1丁目5-8","lat":35.56745795,"lon":139.69415525},{"name":"武蔵新田駅前","province":"東京都","city":"大田区","address":"東京都大田区矢口1丁目7-14","lat":35.56838562,"lon":139.69222764},{"name":"池上福祉事務所前","province":"東京都","city":"大田区","address":"東京都大田区池上6丁目40-3","lat":35.56784099,"lon":139.70555659},{"name":"第２ターミナル","province":"東京都","city":"大田区","address":"東京都大田区羽田空港3丁目4","lat":35.54998808,"lon":139.7900261},{"name":"馬込給水所","province":"東京都","city":"大田区","address":"東京都大田区西馬込2丁目15-6","lat":35.58832131,"lon":139.70213893},{"name":"上池台給水所","province":"東京都","city":"大田区","address":"東京都大田区上池台1丁目48-25","lat":35.6004699,"lon":139.69973594},{"name":"区立西六郷三丁目公園","province":"東京都","city":"大田区","address":"東京都大田区西六郷3丁目16-16","lat":35.54629163,"lon":139.7059358},{"name":"区立萩中公園","province":"東京都","city":"大田区","address":"東京都大田区萩中3丁目25-26","lat":35.54972234,"lon":139.73905511},{"name":"区立都堀公園","province":"東京都","city":"大田区","address":"東京都大田区大森東1丁目30","lat":35.57738779,"lon":139.73836722},{"name":"区立下丸子公園","province":"東京都","city":"大田区","address":"東京都大田区下丸子4丁目21","lat":35.56920527,"lon":139.67906532},{"name":"区立女塚なかよし公園","province":"東京都","city":"大田区","address":"東京都大田区池上5丁目24","lat":35.57274857,"lon":139.71105287},{"name":"東海給水所","province":"東京都","city":"大田区","address":"東京都大田区東海1丁目3-12","lat":35.585493,"lon":139.7537297},{"name":"大田区保健所（保健衛生課）","province":"東京都","city":"大田区","address":"東京都大田区蒲田5丁目13-14","lat":35.56143339,"lon":139.71606685},{"name":"多摩川二丁目緊急用船着場","province":"東京都","city":"大田区","address":"東京都大田区多摩川2丁目","lat":35.55788986,"lon":139.70234382},{"name":"東京都漁連水産物流通センター","province":"東京都","city":"大田区","address":"東京都大田区京浜島3丁目","lat":35.57325911,"lon":139.76385757},{"name":"大森ふるさとの浜辺公園","province":"東京都","city":"大田区","address":"東京都大田区平和の森公園2-2","lat":35.57713528,"lon":139.74270588},{"name":"羽田２、３丁目","province":"東京都","city":"大田区","address":"東京都大田区羽田5丁目23","lat":35.54810939,"lon":139.74881591},{"name":"東糀谷六丁目","province":"東京都","city":"大田区","address":"東京都大田区東糀谷6丁目","lat":35.55887451,"lon":139.75037338},{"name":"羽田空港天空橋","province":"東京都","city":"大田区","address":"東京都大田区羽田空港1丁目","lat":35.55478658,"lon":139.75528179},{"name":"第一自動車警ら隊蒲田分駐所","province":"東京都","city":"大田区","address":"大田区蒲田本町2-29-12","lat":35.556,"lon":139.7201},{"name":"第二方面交通機動隊","province":"東京都","city":"大田区","address":"大田区大森北6-24-20","lat":35.57914,"lon":139.7302},{"name":"池上警察署","province":"東京都","city":"大田区","address":"大田区池上3-20-10","lat":35.57434,"lon":139.6986},{"name":"大森警察署","province":"東京都","city":"大田区","address":"大田区大森中1-1-16","lat":35.57255,"lon":139.7338},{"name":"蒲田警察署","province":"東京都","city":"大田区","address":"大田区蒲田本町2-3-3","lat":35.55811,"lon":139.7204},{"name":"田園調布警察署","province":"東京都","city":"大田区","address":"大田区田園調布1-1-8","lat":35.589128,"lon":139.677331},{"name":"東京空港警察署","province":"東京都","city":"大田区","address":"大田区羽田空港3-4-1","lat":35.55513,"lon":139.7842},{"name":"第二消防方面本部","province":"東京都","city":"大田区","address":"大田区大森東1-32-8","lat":35.5788,"lon":139.7393},{"name":"第二方面訓練場","province":"東京都","city":"大田区","address":"大田区京浜島1-1","lat":35.57302,"lon":139.7576},{"name":"大森消防署","province":"東京都","city":"大田区","address":"大田区大森東1-32-8","lat":35.5788,"lon":139.7393},{"name":"蒲田消防署","province":"東京都","city":"大田区","address":"大田区蒲田本町2-28-1","lat":35.55572,"lon":139.7198},{"name":"田園調布消防署","province":"東京都","city":"大田区","address":"大田区雪谷大塚町13-22","lat":35.5898,"lon":139.6776},{"name":"矢口消防署","province":"東京都","city":"大田区","address":"大田区多摩川2-5-20","lat":35.55952,"lon":139.6992},{"name":"大田区田園調布南倉庫","province":"東京都","city":"大田区","address":"大田区田園調布南3-8区立田園調布南公園内","lat":35.57919,"lon":139.6752},{"name":"大田区南六郷倉庫","province":"東京都","city":"大田区","address":"大田区南六郷1-29-2-101都市再生機構南六郷一丁目団地内","lat":35.5462,"lon":139.7254},{"name":"東邦薬品（株）ＷＩＬＬ平和島","province":"東京都","city":"大田区","address":"大田区平和島6-1-1(株)東京流通センター内AE4-2","lat":35.57911,"lon":139.7477},{"name":"相互産業（株）","province":"東京都","city":"大田区","address":"大田区中央3-19-5","lat":35.57492,"lon":139.7186},{"name":"大森ふるさとの浜辺公園","province":"東京都","city":"大田区","address":"東京都大田区平和の森公園2-2","lat":35.57713528,"lon":139.74270588},{"name":"平和島駅入口","province":"東京都","city":"大田区","address":"東京都大田区大森北6丁目28-1","lat":35.57832639,"lon":139.73504792},{"name":"大森第一小学校前","province":"東京都","city":"大田区","address":"東京都大田区大森中1丁目10-7","lat":35.57010797,"lon":139.73473729},{"name":"春日橋","province":"東京都","city":"大田区","address":"東京都大田区山王3丁目13-4","lat":35.58136716,"lon":139.72206254},{"name":"大田文化の森","province":"東京都","city":"大田区","address":"東京都大田区中央2丁目10-1","lat":35.57955621,"lon":139.7202711},{"name":"大森町駅入口","province":"東京都","city":"大田区","address":"東京都大田区大森中1丁目2-23","lat":35.57164102,"lon":139.73274287},{"name":"八幡中央通り","province":"東京都","city":"大田区","address":"東京都大田区大森北3丁目1-1","lat":35.58461988,"lon":139.730959},{"name":"大森東四丁目","province":"東京都","city":"大田区","address":"東京都大田区大森東4丁目19-31","lat":35.56830828,"lon":139.73574012},{"name":"山王","province":"東京都","city":"大田区","address":"東京都大田区山王2丁目1-8","lat":35.59048294,"lon":139.72853391},{"name":"山王二丁目","province":"東京都","city":"大田区","address":"東京都大田区山王2丁目3","lat":35.58694443,"lon":139.72633421},{"name":"大森赤十字病院入口","province":"東京都","city":"大田区","address":"東京都大田区中央3丁目1-3","lat":35.57884793,"lon":139.71882126},{"name":"大森本町二丁目","province":"東京都","city":"大田区","address":"東京都大田区大森本町2丁目1-19","lat":35.58116221,"lon":139.73656158},{"name":"入新井四小入口","province":"東京都","city":"大田区","address":"東京都大田区中央3丁目5-7","lat":35.57789523,"lon":139.71703814},{"name":"東邦大学病院前","province":"東京都","city":"大田区","address":"東京都大田区大森西6丁目11","lat":35.56913532,"lon":139.72386297},{"name":"入新井第一小学校前","province":"東京都","city":"大田区","address":"東京都大田区大森北4丁目6-7","lat":35.58365875,"lon":139.72740928},{"name":"臼田坂下","province":"東京都","city":"大田区","address":"東京都大田区中央4丁目31-1","lat":35.58022832,"lon":139.718524},{"name":"大森銀座入口","province":"東京都","city":"大田区","address":"東京都大田区大森北1丁目29-6","lat":35.5855669,"lon":139.72875077},{"name":"大森郵便局前","province":"東京都","city":"大田区","address":"東京都大田区山王3丁目9-13","lat":35.5826365,"lon":139.72315684},{"name":"環七美原通り","province":"東京都","city":"大田区","address":"東京都大田区大森本町2丁目33-5","lat":35.57772375,"lon":139.73632288},{"name":"大森青少年センター入口","province":"東京都","city":"大田区","address":"東京都大田区大森北1丁目15-1","lat":35.58616131,"lon":139.72953958},{"name":"八幡中央通り第二","province":"東京都","city":"大田区","address":"東京都大田区大森北1丁目19-12","lat":35.58593361,"lon":139.7312228},{"name":"大森駅西口第三","province":"東京都","city":"大田区","address":"東京都大田区山王2丁目8-26","lat":35.58931637,"lon":139.72727572},{"name":"大森東三丁目","province":"東京都","city":"大田区","address":"東京都大田区大森東2丁目23-11","lat":35.5715939,"lon":139.73493163},{"name":"中央一丁目","province":"東京都","city":"大田区","address":"東京都大田区中央2丁目7-3","lat":35.58038391,"lon":139.7211932},{"name":"入新井児童公園前","province":"東京都","city":"大田区","address":"東京都大田区大森北1丁目5-1","lat":35.587275,"lon":139.72784242},{"name":"大森駅西口第二","province":"東京都","city":"大田区","address":"東京都大田区山王2丁目8","lat":35.58883586,"lon":139.72641746},{"name":"入新井第一小学校東","province":"東京都","city":"大田区","address":"東京都大田区大森北4丁目7-4","lat":35.58450315,"lon":139.72859249},{"name":"洗足池駅前","province":"東京都","city":"大田区","address":"東京都大田区南千束2丁目1-5","lat":35.60029759,"lon":139.69135895},{"name":"長原駅入口","province":"東京都","city":"大田区","address":"東京都大田区上池台1丁目44-1","lat":35.60143924,"lon":139.6998109},{"name":"田園調布警察署前","province":"東京都","city":"大田区","address":"東京都大田区田園調布1丁目1-8","lat":35.58912681,"lon":139.67733048},{"name":"上池上稲荷坂","province":"東京都","city":"大田区","address":"東京都大田区上池台5丁目6-1","lat":35.59515661,"lon":139.70111376},{"name":"荏原病院前","province":"東京都","city":"大田区","address":"東京都大田区東雪谷4丁目5-10","lat":35.59460659,"lon":139.69367561},{"name":"貝塚","province":"東京都","city":"大田区","address":"東京都大田区中馬込1丁目1-17","lat":35.59840352,"lon":139.70376897},{"name":"御嶽神社入口","province":"東京都","city":"大田区","address":"東京都大田区田園調布本町56-5","lat":35.58554126,"lon":139.6796305},{"name":"大岡山駅前","province":"東京都","city":"大田区","address":"東京都大田区北千束3丁目27-1","lat":35.60763275,"lon":139.68575363},{"name":"大鳥居","province":"東京都","city":"大田区","address":"東京都大田区羽田1丁目1-1","lat":35.55213877,"lon":139.74081042},{"name":"蒲田郵便局前","province":"東京都","city":"大田区","address":"東京都大田区蒲田4丁目42-12","lat":35.558981,"lon":139.71870008},{"name":"蒲田消防署前","province":"東京都","city":"大田区","address":"東京都大田区蒲田本町2丁目29-12","lat":35.55599817,"lon":139.72014741},{"name":"蒲田四丁目北","province":"東京都","city":"大田区","address":"東京都大田区蒲田4丁目20-1","lat":35.56164436,"lon":139.72123287},{"name":"大田区役所入口","province":"東京都","city":"大田区","address":"東京都大田区蒲田本町1丁目1-3","lat":35.55855055,"lon":139.7163976},{"name":"夫婦橋","province":"東京都","city":"大田区","address":"東京都大田区南蒲田1丁目1-25","lat":35.56087802,"lon":139.7247883},{"name":"あやめ橋","province":"東京都","city":"大田区","address":"東京都大田区蒲田1丁目31-1","lat":35.56263314,"lon":139.7211023},{"name":"西蒲田八丁目第二","province":"東京都","city":"大田区","address":"東京都大田区新蒲田1丁目13-5","lat":35.55957269,"lon":139.710351},{"name":"蒲田駅東口南","province":"東京都","city":"大田区","address":"東京都大田区蒲田5丁目39-2","lat":35.56176389,"lon":139.71664453},{"name":"蒲田駅東口中央","province":"東京都","city":"大田区","address":"東京都大田区蒲田5丁目16-1","lat":35.56237491,"lon":139.71734442},{"name":"蒲田交差西口","province":"東京都","city":"大田区","address":"東京都大田区西蒲田5丁目27-10","lat":35.56435526,"lon":139.71442522},{"name":"蒲田五丁目","province":"東京都","city":"大田区","address":"東京都大田区蒲田5丁目24-2","lat":35.56264984,"lon":139.71930806},{"name":"糀谷駅入口","province":"東京都","city":"大田区","address":"東京都大田区萩中2丁目1-24","lat":35.55337958,"lon":139.72995532},{"name":"西蒲田七丁目","province":"東京都","city":"大田区","address":"東京都大田区西蒲田7丁目9-5","lat":35.56416085,"lon":139.71311427},{"name":"蒲田四丁目南","province":"東京都","city":"大田区","address":"東京都大田区蒲田4丁目29-1","lat":35.56092507,"lon":139.71998865},{"name":"御園神社前","province":"東京都","city":"大田区","address":"東京都大田区西蒲田7丁目39-5","lat":35.56295551,"lon":139.71024522},{"name":"蒲田警察署前","province":"東京都","city":"大田区","address":"東京都大田区蒲田本町2丁目3-3","lat":35.55811168,"lon":139.72037497},{"name":"大田区役所前","province":"東京都","city":"大田区","address":"東京都大田区蒲田5丁目40-10","lat":35.56058352,"lon":139.71651687},{"name":"御園神社前第二","province":"東京都","city":"大田区","address":"東京都大田区西蒲田7丁目51-5","lat":35.56261942,"lon":139.711334},{"name":"蒲田駅西口","province":"東京都","city":"大田区","address":"東京都大田区西蒲田7丁目47-3","lat":35.56256937,"lon":139.71468639},{"name":"御園神社前第三","province":"東京都","city":"大田区","address":"東京都大田区西蒲田7丁目48-1","lat":35.56252218,"lon":139.71328656},{"name":"蒲田五丁目第二","province":"東京都","city":"大田区","address":"東京都大田区蒲田5丁目17-2","lat":35.56259988,"lon":139.71745551},{"name":"蒲田駅西口第二","province":"東京都","city":"大田区","address":"東京都大田区西蒲田7丁目29-5","lat":35.56316374,"lon":139.71499188},{"name":"西蒲田七丁目第二","province":"東京都","city":"大田区","address":"東京都大田区西蒲田7丁目31-1","lat":35.56327764,"lon":139.71341706},{"name":"西蒲田七丁目第三","province":"東京都","city":"大田区","address":"東京都大田区西蒲田7丁目33-1","lat":35.56335265,"lon":139.71178114},{"name":"萩中小学校前","province":"東京都","city":"大田区","address":"東京都大田区萩中3丁目25","lat":35.55005288,"lon":139.73951895},{"name":"京急蒲田駅西口","province":"東京都","city":"大田区","address":"東京都大田区蒲田3丁目20-4","lat":35.5625083,"lon":139.72407434},{"name":"仲蒲田公園入口","province":"東京都","city":"大田区","address":"東京都大田区蒲田4丁目41-1","lat":35.55978918,"lon":139.71899442},{"name":"蒲田八幡神社前","province":"東京都","city":"大田区","address":"東京都大田区蒲田4丁目18-17","lat":35.56006968,"lon":139.72259958},{"name":"蒲田四丁目南第二","province":"東京都","city":"大田区","address":"東京都大田区蒲田5丁目36","lat":35.56134169,"lon":139.71861932},{"name":"蒲田二丁目","province":"東京都","city":"大田区","address":"東京都大田区蒲田2丁目18-24","lat":35.56626057,"lon":139.72262983},{"name":"蒲田東口公園前","province":"東京都","city":"大田区","address":"東京都大田区蒲田5丁目38-3","lat":35.56151391,"lon":139.71739445},{"name":"蒲田社会保険所前","province":"東京都","city":"大田区","address":"東京都大田区蒲田4丁目23-15","lat":35.56055844,"lon":139.72129407},{"name":"下丸子三丁目","province":"東京都","city":"大田区","address":"東京都大田区下丸子3丁目28-11","lat":35.56688332,"lon":139.68427323},{"name":"大田都税前","province":"東京都","city":"大田区","address":"東京都大田区西蒲田6丁目33-1","lat":35.56485524,"lon":139.71051452},{"name":"矢口二丁目南","province":"東京都","city":"大田区","address":"東京都大田区矢口2丁目10-6","lat":35.56323654,"lon":139.69113654},{"name":"谷中通り","province":"東京都","city":"大田区","address":"東京都大田区南馬込2丁目28-1","lat":35.59024374,"lon":139.71862356},{"name":"池上橋南","province":"東京都","city":"大田区","address":"東京都大田区池上3丁目2-1","lat":35.57769507,"lon":139.70037035},{"name":"千鳥二丁目西","province":"東京都","city":"大田区","address":"東京都大田区千鳥2丁目15-16","lat":35.57031304,"lon":139.69352176},{"name":"多摩川一丁目第二","province":"東京都","city":"大田区","address":"東京都大田区多摩川1丁目7-6","lat":35.56336683,"lon":139.69925215},{"name":"池上特別出張所前","province":"東京都","city":"大田区","address":"東京都大田区中央8丁目2-20","lat":35.5746011,"lon":139.71090832},{"name":"西蒲田六丁目第二","province":"東京都","city":"大田区","address":"東京都大田区西蒲田7丁目11-4","lat":35.56437195,"lon":139.71151166},{"name":"池上六丁目第二","province":"東京都","city":"大田区","address":"東京都大田区東矢口1丁目4-18","lat":35.56642735,"lon":139.7038569},{"name":"池上六丁目第三","province":"東京都","city":"大田区","address":"東京都大田区池上6丁目32-11","lat":35.56822984,"lon":139.70440114},{"name":"武蔵新田駅前第二","province":"東京都","city":"大田区","address":"東京都大田区矢口1丁目5-8","lat":35.56745795,"lon":139.69415525},{"name":"武蔵新田駅前","province":"東京都","city":"大田区","address":"東京都大田区矢口1丁目7-14","lat":35.56838562,"lon":139.69222764},{"name":"池上福祉事務所前","province":"東京都","city":"大田区","address":"東京都大田区池上6丁目40-3","lat":35.56784099,"lon":139.70555659},{"name":"第２ターミナル","province":"東京都","city":"大田区","address":"東京都大田区羽田空港3丁目4","lat":35.54998808,"lon":139.7900261},{"name":"馬込給水所","province":"東京都","city":"大田区","address":"東京都大田区西馬込2丁目15-6","lat":35.58832131,"lon":139.70213893},{"name":"上池台給水所","province":"東京都","city":"大田区","address":"東京都大田区上池台1丁目48-25","lat":35.6004699,"lon":139.69973594},{"name":"区立西六郷三丁目公園","province":"東京都","city":"大田区","address":"東京都大田区西六郷3丁目16-16","lat":35.54629163,"lon":139.7059358},{"name":"区立萩中公園","province":"東京都","city":"大田区","address":"東京都大田区萩中3丁目25-26","lat":35.54972234,"lon":139.73905511},{"name":"区立都堀公園","province":"東京都","city":"大田区","address":"東京都大田区大森東1丁目30","lat":35.57738779,"lon":139.73836722},{"name":"区立下丸子公園","province":"東京都","city":"大田区","address":"東京都大田区下丸子4丁目21","lat":35.56920527,"lon":139.67906532},{"name":"区立女塚なかよし公園","province":"東京都","city":"大田区","address":"東京都大田区池上5丁目24","lat":35.57274857,"lon":139.71105287},{"name":"東海給水所","province":"東京都","city":"大田区","address":"東京都大田区東海1丁目3-12","lat":35.585493,"lon":139.7537297},{"name":"大田区保健所（保健衛生課）","province":"東京都","city":"大田区","address":"東京都大田区蒲田5丁目13-14","lat":35.56143339,"lon":139.71606685},{"name":"多摩川二丁目緊急用船着場","province":"東京都","city":"大田区","address":"東京都大田区多摩川2丁目","lat":35.55788986,"lon":139.70234382},{"name":"東京都漁連水産物流通センター","province":"東京都","city":"大田区","address":"東京都大田区京浜島3丁目","lat":35.57325911,"lon":139.76385757},{"name":"大森ふるさとの浜辺公園","province":"東京都","city":"大田区","address":"東京都大田区平和の森公園2-2","lat":35.57713528,"lon":139.74270588},{"name":"羽田２、３丁目","province":"東京都","city":"大田区","address":"東京都大田区羽田5丁目23","lat":35.54810939,"lon":139.74881591},{"name":"東糀谷六丁目","province":"東京都","city":"大田区","address":"東京都大田区東糀谷6丁目","lat":35.55887451,"lon":139.75037338},{"name":"羽田空港天空橋","province":"東京都","city":"大田区","address":"東京都大田区羽田空港1丁目","lat":35.55478658,"lon":139.75528179},{"name":"第一自動車警ら隊蒲田分駐所","province":"東京都","city":"大田区","address":"大田区蒲田本町2-29-12","lat":35.556,"lon":139.7201},{"name":"第二方面交通機動隊","province":"東京都","city":"大田区","address":"大田区大森北6-24-20","lat":35.57914,"lon":139.7302},{"name":"池上警察署","province":"東京都","city":"大田区","address":"大田区池上3-20-10","lat":35.57434,"lon":139.6986},{"name":"大森警察署","province":"東京都","city":"大田区","address":"大田区大森中1-1-16","lat":35.57255,"lon":139.7338},{"name":"蒲田警察署","province":"東京都","city":"大田区","address":"大田区蒲田本町2-3-3","lat":35.55811,"lon":139.7204},{"name":"田園調布警察署","province":"東京都","city":"大田区","address":"大田区田園調布1-1-8","lat":35.589128,"lon":139.677331},{"name":"東京空港警察署","province":"東京都","city":"大田区","address":"大田区羽田空港3-4-1","lat":35.55513,"lon":139.7842},{"name":"第二消防方面本部","province":"東京都","city":"大田区","address":"大田区大森東1-32-8","lat":35.5788,"lon":139.7393},{"name":"第二方面訓練場","province":"東京都","city":"大田区","address":"大田区京浜島1-1","lat":35.57302,"lon":139.7576},{"name":"大森消防署","province":"東京都","city":"大田区","address":"大田区大森東1-32-8","lat":35.5788,"lon":139.7393},{"name":"蒲田消防署","province":"東京都","city":"大田区","address":"大田区蒲田本町2-28-1","lat":35.55572,"lon":139.7198},{"name":"田園調布消防署","province":"東京都","city":"大田区","address":"大田区雪谷大塚町13-22","lat":35.5898,"lon":139.6776},{"name":"矢口消防署","province":"東京都","city":"大田区","address":"大田区多摩川2-5-20","lat":35.55952,"lon":139.6992},{"name":"大田区田園調布南倉庫","province":"東京都","city":"大田区","address":"大田区田園調布南3-8区立田園調布南公園内","lat":35.57919,"lon":139.6752},{"name":"大田区南六郷倉庫","province":"東京都","city":"大田区","address":"大田区南六郷1-29-2-101都市再生機構南六郷一丁目団地内","lat":35.5462,"lon":139.7254},{"name":"東邦薬品（株）ＷＩＬＬ平和島","province":"東京都","city":"大田区","address":"大田区平和島6-1-1(株)東京流通センター内AE4-2","lat":35.57911,"lon":139.7477},{"name":"相互産業（株）","province":"東京都","city":"大田区","address":"大田区中央3-19-5","lat":35.57492,"lon":139.7186},{"name":"大森ふるさとの浜辺公園","province":"東京都","city":"大田区","address":"東京都大田区平和の森公園2-2","lat":35.57713528,"lon":139.74270588}]}