{"keyword":"総務","data":[{"name":"大田区立平和島公園運動場","province":"東京都","city":"大田区","address":"東京都大田区平和島4丁目2-2","lat":35.58184851,"lon":139.74213343},{"name":"都立大井埠頭中央海浜公園第２球技場","province":"東京都","city":"大田区","address":"東京都大田区東海1丁目4","lat":35.58593444,"lon":139.74992159},{"name":"京浜島防災広場運動場","province":"東京都","city":"大田区","address":"東京都大田区京浜島2丁目10","lat":35.57091777,"lon":139.7634161},{"name":"丸子橋野球場","province":"東京都","city":"大田区","address":"東京都大田区田園調布本町31","lat":35.58310843,"lon":139.67183161},{"name":"多摩川緑地サッカー場","province":"東京都","city":"大田区","address":"東京都大田区田園調布5丁目54","lat":35.59239824,"lon":139.65872368},{"name":"多摩川緑地野球場（西六郷４丁目）","province":"東京都","city":"大田区","address":"東京都大田区西六郷4丁目33","lat":35.54406986,"lon":139.70286408},{"name":"ガス橋緑地少年サッカー場（下丸子３丁目）","province":"東京都","city":"大田区","address":"東京都大田区下丸子3丁目30","lat":35.5668806,"lon":139.68245956},{"name":"ガス橋緑地少年野球場（下丸子２丁目）","province":"東京都","city":"大田区","address":"東京都大田区下丸子2丁目13","lat":35.56350616,"lon":139.684143},{"name":"東京都保健医療公社荏原病院ヘリポート","province":"東京都","city":"大田区","address":"東京都大田区東雪谷4丁目5-10","lat":35.59460659,"lon":139.69367561},{"name":"東京ガスグラウンド","province":"東京都","city":"大田区","address":"東京都大田区大森東3丁目28-1","lat":35.57249131,"lon":139.7398702},{"name":"多摩川緑地広場硬式野球場Ａ面（旧巨人軍グラウンド）","province":"東京都","city":"大田区","address":"東京都大田区田園調布4丁目44","lat":35.59210389,"lon":139.66145123},{"name":"多摩川大師橋緑地野球場","province":"東京都","city":"大田区","address":"東京都大田区本羽田2丁目14","lat":35.54584467,"lon":139.73048361},{"name":"区民広場（西六郷三丁目）","province":"東京都","city":"大田区","address":"東京都大田区西六郷3丁目13","lat":35.54625004,"lon":139.70335835},{"name":"大田スタジアム","province":"東京都","city":"大田区","address":"東京都大田区東海1丁目2-10","lat":35.58843701,"lon":139.75284626},{"name":"六郷橋緑地野球場","province":"東京都","city":"大田区","address":"東京都大田区東六郷3丁目","lat":35.54202554,"lon":139.71164099},{"name":"多摩川田園調布緑地サッカー場","province":"東京都","city":"大田区","address":"東京都大田区田園調布4丁目","lat":35.59272877,"lon":139.66135396},{"name":"大田区立東調布公園","province":"東京都","city":"大田区","address":"東京都大田区南雪谷5丁目13-1","lat":35.58826574,"lon":139.68930418},{"name":"多摩川大橋緑地","province":"東京都","city":"大田区","address":"東京都大田区矢口3丁目","lat":35.56021468,"lon":139.69576395},{"name":"大田都税事務所","province":"東京都","city":"大田区","address":"東京都大田区西蒲田7丁目11-1","lat":35.56412477,"lon":139.71108117},{"name":"城南職業能力開発センター大田校","province":"東京都","city":"大田区","address":"東京都大田区本羽田3丁目4-30","lat":35.54887804,"lon":139.73934127},{"name":"産業技術研究センター城南支所","province":"東京都","city":"大田区","address":"東京都大田区南蒲田1丁目20-20","lat":35.55879224,"lon":139.72416907},{"name":"大田桜台高等学校","province":"東京都","city":"大田区","address":"東京都大田区中馬込3丁目11-10","lat":35.59227921,"lon":139.70362198},{"name":"大森高等学校","province":"東京都","city":"大田区","address":"東京都大田区西蒲田2丁目2-1","lat":35.57117099,"lon":139.70945034},{"name":"蒲田高等学校","province":"東京都","city":"大田区","address":"東京都大田区蒲田本町1丁目1-30","lat":35.55773127,"lon":139.71513949},{"name":"田園調布高等学校","province":"東京都","city":"大田区","address":"東京都大田区田園調布南27-1","lat":35.5823113,"lon":139.67655891},{"name":"美原高等学校","province":"東京都","city":"大田区","address":"東京都大田区大森東1丁目33-1","lat":35.57802672,"lon":139.74070317},{"name":"雪谷高等学校","province":"東京都","city":"大田区","address":"東京都大田区久が原1丁目14-1","lat":35.58597717,"lon":139.68956818},{"name":"六郷工科高等学校","province":"東京都","city":"大田区","address":"東京都大田区東六郷2丁目18-2","lat":35.54798845,"lon":139.71575962},{"name":"つばさ総合高等学校","province":"東京都","city":"大田区","address":"東京都大田区本羽田3丁目11-5","lat":35.54750602,"lon":139.73922191}]}