{"keyword":"自転車","data":[{"name":"大森駅東口自転車駐車場","province":"東京都","city":"大田区","address":"東京都大田区大森北1丁目1","lat":35.58817492,"lon":139.72892009},{"name":"大森駅入新井自転車駐車場","province":"東京都","city":"大田区","address":"東京都大田区大森北4丁目27","lat":35.58491133,"lon":139.72591489},{"name":"大森複合施設ビル地下（区営）自転車駐車場","province":"東京都","city":"大田区","address":"東京都大田区大森北1丁目10-14","lat":35.58654455,"lon":139.7283202},{"name":"大森駅入新井公園自転車駐車場","province":"東京都","city":"大田区","address":"東京都大田区大森北1丁目20","lat":35.58643631,"lon":139.73065893},{"name":"大森駅西口自転車駐車場","province":"東京都","city":"大田区","address":"東京都大田区山王2丁目8","lat":35.58883586,"lon":139.72641746},{"name":"大森駅西口臨時自転車駐車場","province":"東京都","city":"大田区","address":"東京都大田区山王2丁目3","lat":35.58694443,"lon":139.72633421},{"name":"大森駅山王小前自転車駐車場","province":"東京都","city":"大田区","address":"東京都大田区山王1丁目26","lat":35.59211596,"lon":139.72593959},{"name":"平和島駅前国道下自転車駐車場","province":"東京都","city":"大田区","address":"東京都大田区大森北6丁目29","lat":35.57892354,"lon":139.7352701},{"name":"馬込駅前自転車駐車場","province":"東京都","city":"大田区","address":"東京都大田区東馬込1丁目32","lat":35.59534015,"lon":139.71246831},{"name":"西馬込駅前自転車駐車場","province":"東京都","city":"大田区","address":"東京都大田区西馬込2丁目20","lat":35.58637995,"lon":139.70501654},{"name":"池上駅前自転車駐車場","province":"東京都","city":"大田区","address":"東京都大田区池上6丁目8","lat":35.57161267,"lon":139.70271499},{"name":"梅屋敷駅自転車駐車場","province":"東京都","city":"大田区","address":"東京都大田区大森西6丁目15","lat":35.56791069,"lon":139.72816556},{"name":"昭和島駅前自転車駐車場","province":"東京都","city":"大田区","address":"東京都大田区昭和島2丁目2","lat":35.57201973,"lon":139.7501641},{"name":"大森海岸駅前臨時自転車駐車場","province":"東京都","city":"大田区","address":"東京都大田区大森北2丁目18","lat":35.58654203,"lon":139.73549748},{"name":"流通センター駅前自転車駐車場","province":"東京都","city":"大田区","address":"東京都大田区平和島6丁目2","lat":35.58214049,"lon":139.74933574},{"name":"鵜の木駅前自転車駐車場","province":"東京都","city":"大田区","address":"東京都大田区鵜の木2丁目4","lat":35.57544855,"lon":139.68062014},{"name":"鵜の木駅前交番横自転車駐車場","province":"東京都","city":"大田区","address":"東京都大田区鵜の木1丁目16","lat":35.57536521,"lon":139.68178112},{"name":"沼部駅前自転車駐車場","province":"東京都","city":"大田区","address":"東京都大田区田園調布本町28","lat":35.58239743,"lon":139.67380089},{"name":"多摩川駅前自転車駐車場","province":"東京都","city":"大田区","address":"東京都大田区田園調布1丁目53","lat":35.58951282,"lon":139.66942294},{"name":"多摩川台公園下自転車駐車場","province":"東京都","city":"大田区","address":"東京都大田区田園調布1丁目56-10","lat":35.58827692,"lon":139.66855091},{"name":"田園調布駅南自転車駐車場","province":"東京都","city":"大田区","address":"東京都大田区田園調布2丁目62-5","lat":35.59595611,"lon":139.66746145},{"name":"大岡山駅前地下自転車駐車場","province":"東京都","city":"大田区","address":"東京都大田区北千束3丁目27-2","lat":35.60758832,"lon":139.68627025},{"name":"北千束駅前自転車駐車場","province":"東京都","city":"大田区","address":"東京都大田区北千束2丁目15","lat":35.60570257,"lon":139.69307805},{"name":"雪が谷大塚駅前自転車駐車場","province":"東京都","city":"大田区","address":"東京都大田区南雪谷2丁目17","lat":35.5901572,"lon":139.6796246},{"name":"雪谷大塚町自転車駐車場","province":"東京都","city":"大田区","address":"東京都大田区雪谷大塚町1","lat":35.59425936,"lon":139.68086863},{"name":"石川台駅線路脇自転車駐車場","province":"東京都","city":"大田区","address":"東京都大田区東雪谷2丁目4","lat":35.59736732,"lon":139.68509859},{"name":"石川台駅前自転車駐車場","province":"東京都","city":"大田区","address":"東京都大田区東雪谷2丁目24","lat":35.5973229,"lon":139.68624292},{"name":"石川台駅一の橋自転車駐車場","province":"東京都","city":"大田区","address":"東京都大田区東雪谷2丁目11","lat":35.59598971,"lon":139.68419597},{"name":"洗足池駅前自転車駐車場","province":"東京都","city":"大田区","address":"東京都大田区東雪谷1丁目1","lat":35.5998143,"lon":139.69055072},{"name":"洗足池公園前自転車駐車場","province":"東京都","city":"大田区","address":"東京都大田区南千束2丁目33","lat":35.60131968,"lon":139.69026457},{"name":"長原駅前自転車駐車場","province":"東京都","city":"大田区","address":"東京都大田区上池台1丁目18","lat":35.60150586,"lon":139.69655286},{"name":"長原駅交番横自転車駐車場","province":"東京都","city":"大田区","address":"東京都大田区上池台1丁目7","lat":35.60207804,"lon":139.69862488},{"name":"長原駅北側自転車駐車場","province":"東京都","city":"大田区","address":"東京都大田区上池台1丁目4","lat":35.60226415,"lon":139.69955257},{"name":"久が原駅前自転車駐車場","province":"東京都","city":"大田区","address":"東京都大田区南久が原2丁目7","lat":35.57917281,"lon":139.68530259},{"name":"蒲田駅東口自転車駐車場","province":"東京都","city":"大田区","address":"東京都大田区蒲田5丁目12","lat":35.56333313,"lon":139.71673611},{"name":"蒲田交差東口自転車駐車場","province":"東京都","city":"大田区","address":"東京都大田区蒲田5丁目3-5","lat":35.56394416,"lon":139.71749433},{"name":"アロマ地下自転車駐車場","province":"東京都","city":"大田区","address":"東京都大田区蒲田5丁目37","lat":35.56070571,"lon":139.71782225},{"name":"蒲田駅東口環八横自転車駐車場","province":"東京都","city":"大田区","address":"東京都大田区蒲田5丁目47","lat":35.55973646,"lon":139.71582535},{"name":"蒲田駅消費者生活センター横自転車駐車場","province":"東京都","city":"大田区","address":"東京都大田区蒲田5丁目13","lat":35.56225827,"lon":139.7161529},{"name":"蒲田駅東口陸橋下自転車駐車場","province":"東京都","city":"大田区","address":"東京都大田区蒲田5丁目13","lat":35.56225827,"lon":139.7161529},{"name":"区役所本庁舎前自転車駐車場","province":"東京都","city":"大田区","address":"東京都大田区蒲田5丁目40","lat":35.56085571,"lon":139.71643907},{"name":"蒲田五丁目45番自転車駐車場","province":"東京都","city":"大田区","address":"東京都大田区蒲田5丁目45","lat":35.56006696,"lon":139.71607807},{"name":"蒲田呑川右岸自転車駐車場","province":"東京都","city":"大田区","address":"東京都大田区蒲田5丁目3-5","lat":35.56394416,"lon":139.71749433},{"name":"蒲田あやめ橋自転車駐車場","province":"東京都","city":"大田区","address":"東京都大田区蒲田5丁目27","lat":35.56255261,"lon":139.72065236},{"name":"蒲田駅西口自転車駐車場","province":"東京都","city":"大田区","address":"東京都大田区西蒲田8丁目1","lat":35.56124734,"lon":139.71451427},{"name":"蒲田駅西口御園自転車駐車場","province":"東京都","city":"大田区","address":"東京都大田区西蒲田7丁目70-1","lat":35.56177784,"lon":139.71316439},{"name":"蒲田駅西口環八下自転車駐車場","province":"東京都","city":"大田区","address":"東京都大田区新蒲田1丁目1","lat":35.55937823,"lon":139.71382839},{"name":"蒲田駅西蒲田公園自転車駐車場","province":"東京都","city":"大田区","address":"東京都大田区西蒲田8丁目6","lat":35.56126686,"lon":139.7106314},{"name":"日本工学院地下自転車駐車場","province":"東京都","city":"大田区","address":"東京都大田区西蒲田5丁目24","lat":35.56426913,"lon":139.71638889},{"name":"蒲田駅西口呑川横自転車駐車場","province":"東京都","city":"大田区","address":"東京都大田区西蒲田5丁目13","lat":35.56621889,"lon":139.71645822},{"name":"蒲田駅東口臨時駐輪帯自転車駐車場","province":"東京都","city":"大田区","address":"東京都大田区蒲田5丁目12","lat":35.56333313,"lon":139.71673611},{"name":"蒲田駅西口臨時駐輪帯自転車駐車場","province":"東京都","city":"大田区","address":"東京都大田区西蒲田7丁目1","lat":35.56363866,"lon":139.71610839},{"name":"産業プラザ横自転車駐車場","province":"東京都","city":"大田区","address":"東京都大田区南蒲田1丁目20","lat":35.55918937,"lon":139.72393293},{"name":"雑色駅高架下自転車駐車場","province":"東京都","city":"大田区","address":"東京都大田区仲六郷2丁目40","lat":35.54913549,"lon":139.71374309},{"name":"雑色駅西口自転車駐車場","province":"東京都","city":"大田区","address":"東京都大田区仲六郷2丁目29","lat":35.54978816,"lon":139.71466516},{"name":"六郷土手（高架下）自転車駐車場","province":"東京都","city":"大田区","address":"東京都大田区仲六郷4丁目31","lat":35.54119236,"lon":139.70874688},{"name":"矢口渡駅前自転車駐車場","province":"東京都","city":"大田区","address":"東京都大田区多摩川1丁目19","lat":35.56301134,"lon":139.69882167},{"name":"武蔵新田（土手側）自転車駐車場","province":"東京都","city":"大田区","address":"東京都大田区矢口1丁目2","lat":35.56603594,"lon":139.69524134},{"name":"下丸子駅前自転車駐車場","province":"東京都","city":"大田区","address":"東京都大田区下丸子3丁目1","lat":35.57138802,"lon":139.68707248},{"name":"蓮沼自転車駐車場","province":"東京都","city":"大田区","address":"東京都大田区西蒲田7丁目38","lat":35.56287221,"lon":139.70887039},{"name":"千鳥町駅前自転車駐車場","province":"東京都","city":"大田区","address":"東京都大田区千鳥3丁目7","lat":35.57305432,"lon":139.69046914},{"name":"穴守稲荷駅前自転車駐車場","province":"東京都","city":"大田区","address":"東京都大田区羽田4丁目11","lat":35.54945353,"lon":139.74747977},{"name":"天空橋駅前自転車駐車場","province":"東京都","city":"大田区","address":"東京都大田区羽田空港1丁目1","lat":35.54928456,"lon":139.75326842},{"name":"大森町駅自転車駐車場","province":"東京都","city":"大田区","address":"東京都大田区大森西3丁目21","lat":35.57312966,"lon":139.73143176},{"name":"京急蒲田駅空港線高架下自転車駐車場","province":"東京都","city":"大田区","address":"東京都大田区南蒲田1丁目20","lat":35.55918937,"lon":139.72393293},{"name":"京急蒲田駅本線高架下自転車駐車場","province":"東京都","city":"大田区","address":"東京都大田区蒲田4丁目48","lat":35.55985032,"lon":139.72323568},{"name":"糀谷駅自転車駐車場","province":"東京都","city":"大田区","address":"東京都大田区西糀谷4丁目12","lat":35.55545698,"lon":139.72906909},{"name":"糀谷駅前地下自転車駐車場","province":"東京都","city":"大田区","address":"東京都大田区西糀谷4丁目29-16","lat":35.55500147,"lon":139.7286136},{"name":"御嶽山駅前第一自転車駐車場","province":"東京都","city":"大田区","address":"東京都大田区北嶺町11","lat":35.58593562,"lon":139.68284677},{"name":"御嶽山駅前第二自転車駐車場","province":"東京都","city":"大田区","address":"東京都大田区北嶺町37","lat":35.58631056,"lon":139.68143856},{"name":"久が原駅前第二自転車駐車場","province":"東京都","city":"大田区","address":"東京都大田区東嶺町34","lat":35.58105864,"lon":139.68393871},{"name":"馬込坂下自転車駐車場","province":"東京都","city":"大田区","address":"東京都大田区西馬込1丁目19","lat":35.58943797,"lon":139.70746342},{"name":"久が原駅前第三自転車駐車場","province":"東京都","city":"大田区","address":"東京都大田区南久が原2丁目1-18","lat":35.57938109,"lon":139.68611914},{"name":"西馬込駅前第二自転車駐車場","province":"東京都","city":"大田区","address":"東京都大田区西馬込2丁目18","lat":35.58719647,"lon":139.70302778},{"name":"蒲田五丁目44番自転車駐車場","province":"東京都","city":"大田区","address":"東京都大田区蒲田5丁目44","lat":35.55991141,"lon":139.71704186},{"name":"大森駅入新井自転車駐車場","province":"東京都","city":"大田区","address":"東京都大田区大森北4丁目27","lat":35.58491133,"lon":139.72591489},{"name":"大森駅入新井公園自転車駐車場","province":"東京都","city":"大田区","address":"東京都大田区大森北1丁目20","lat":35.58643631,"lon":139.73065893},{"name":"大森駅西口臨時自転車駐車場","province":"東京都","city":"大田区","address":"東京都大田区山王2丁目3","lat":35.58694443,"lon":139.72633421},{"name":"石川台駅柳橋自転車駐車場","province":"東京都","city":"大田区","address":"東京都大田区石川町2丁目28-10","lat":35.5970951,"lon":139.68213778},{"name":"蒲田駅東口臨時駐輪帯","province":"東京都","city":"大田区","address":"東京都大田区蒲田5丁目12","lat":35.56333313,"lon":139.71673611},{"name":"蒲田駅西口臨時駐輪帯","province":"東京都","city":"大田区","address":"東京都大田区西蒲田7丁目1","lat":35.56363866,"lon":139.71610839},{"name":"京急蒲田呑川緑道自転車駐車場","province":"東京都","city":"大田区","address":"東京都大田区蒲田4丁目2","lat":35.56175825,"lon":139.72214113},{"name":"雑色自転車駐車場","province":"東京都","city":"大田区","address":"東京都大田区仲六郷3丁目31","lat":35.54763019,"lon":139.71397372},{"name":"千鳥町駅前自転車駐車場","province":"東京都","city":"大田区","address":"東京都大田区千鳥3丁目7","lat":35.57305432,"lon":139.69046914},{"name":"暫定西蒲田自転車駐車場","province":"東京都","city":"大田区","address":"東京都大田区西蒲田8丁目23-5","lat":35.56049191,"lon":139.71465876}]}