{"keyword":"記念","data":[{"name":"郷土博物館","province":"東京都","city":"大田区","address":"東京都大田区南馬込五丁目11番13号","lat":35.588577,"lon":139.710614},{"name":"勝海舟記念館","province":"東京都","city":"大田区","address":"東京都大田区南千束二丁目3番1号","lat":35.602117,"lon":139.692288},{"name":"大森 海苔のふるさと館","province":"東京都","city":"大田区","address":"東京都大田区平和の森公園2番2号","lat":35.577082,"lon":139.742585},{"name":"熊谷恒子記念館","province":"東京都","city":"大田区","address":"東京都大田区南馬込4-5-15","lat":35.585929,"lon":139.71043},{"name":"龍子記念館","province":"東京都","city":"大田区","address":"東京都大田区中央四丁目2番1号","lat":35.582391,"lon":139.715366},{"name":"尾?士郎記念館","province":"東京都","city":"大田区","address":"東京都大田区山王一丁目36番26号","lat":35.592438,"lon":139.721621},{"name":"山王草堂記念館","province":"東京都","city":"大田区","address":"東京都大田区山王一丁目41番21号","lat":35.593281,"lon":139.721057},{"name":"馬込文士村資料展示室","province":"東京都","city":"大田区","address":"東京都大田区山王三丁目37番11号(大田区立山王会館内)","lat":35.585591,"lon":139.723456},{"name":"多摩川台公園古墳展示室","province":"東京都","city":"大田区","address":"東京都大田区田園調布一丁目63番1号","lat":35.590125,"lon":139.666968}]}