{"keyword":"認可","data":[{"name":"あい保育園大森西","province":"東京都","city":"大田区","address":"大田区大森西4-11-5コンフォリア1階","lat":35.57291,"lon":139.72426},{"name":"Gakkenほいくえん 馬込","province":"東京都","city":"大田区","address":"大田区北馬込2-30-2","lat":35.59617,"lon":139.71161},{"name":"AIAI NURSERY 大森","province":"東京都","city":"大田区","address":"大田区山王1-26-4","lat":35.59206,"lon":139.72569},{"name":"簡野学園ふぞく仲六郷保育園","province":"東京都","city":"大田区","address":"大田区本羽田一丁目4番1号","lat":35.54952,"lon":139.72798},{"name":"大森南保育園","province":"東京都","city":"大田区","address":"大田区4-14-5","lat":35.56126,"lon":139.71599},{"name":"蒲田音楽学園第Ⅱ保育園","province":"東京都","city":"大田区","address":"大田区西蒲田4-11-5","lat":35.56955,"lon":139.71233},{"name":"新蒲田保育園","province":"東京都","city":"大田区","address":"大田区新蒲田1-18-16","lat":35.55513,"lon":139.70851},{"name":"キッズラボ千束こどもの家北千束園","province":"東京都","city":"大田区","address":"大田区北千束2-15-10","lat":35.60581,"lon":139.69324},{"name":"このえ大森北","province":"東京都","city":"大田区","address":"大田区大森北4-9-7","lat":35.58426,"lon":139.72958},{"name":"美奈見ここわ","province":"東京都","city":"大田区","address":"大田区中央1-1-7","lat":35.58269,"lon":139.71971},{"name":"グローバルキッズ　西馬込園","province":"東京都","city":"大田区","address":"大田区南馬込5-30-2","lat":35.58744,"lon":139.7068},{"name":"このえ南馬込","province":"東京都","city":"大田区","address":"大田区南馬込5-18-18","lat":35.58839,"lon":139.70868},{"name":"蒲田保育専門学校ふぞく北糀谷保育園","province":"東京都","city":"大田区","address":"大田区北糀谷1-14-10","lat":35.56289,"lon":139.73485},{"name":"蒲田保育専門学校ふぞく糀谷駅前","province":"東京都","city":"大田区","address":"大田区西糀谷4-29-16","lat":35.55468,"lon":139.72891},{"name":"蒲田保育専門学校ふぞく六郷保育園","province":"東京都","city":"大田区","address":"大田区南六郷3-10-11","lat":35.54388,"lon":139.71448},{"name":"東六郷保育園","province":"東京都","city":"大田区","address":"大田区東六郷1-13-25","lat":35.55288,"lon":139.7189},{"name":"グローバルキッズ　蒲田園","province":"東京都","city":"大田区","address":"大田区西蒲田8-20-8","lat":35.55992,"lon":139.71346},{"name":"わおわお蒲田本町","province":"東京都","city":"大田区","address":"大田区蒲田本町1-1-10","lat":35.55804,"lon":139.71494},{"name":"第三蒲田保育園","province":"東京都","city":"大田区","address":"大田区仲六郷1-49-2","lat":35.55221,"lon":139.71681},{"name":"仲六郷保育園","province":"東京都","city":"大田区","address":"大田区仲六郷1-29-10","lat":35.55333,"lon":139.71518},{"name":"グローバルキッズ雑色園","province":"東京都","city":"大田区","address":"大田区仲六郷2-43-11","lat":35.55023,"lon":139.71581},{"name":"ベネッセ　雪が谷大塚保育園","province":"東京都","city":"大田区","address":"大田区南雪谷3-11-20","lat":35.59181,"lon":139.68719},{"name":"みらいく田園調布本町","province":"東京都","city":"大田区","address":"大田区田園調布本町21-12","lat":35.58388,"lon":139.67552},{"name":"天才キッズクラブ楽学館仲池上","province":"東京都","city":"大田区","address":"大田区仲池上1-25-4","lat":35.58662,"lon":139.69696},{"name":"ケンパ池上保育園","province":"東京都","city":"大田区","address":"大田区池上4-25-9","lat":35.57484,"lon":139.70395},{"name":"アスクみなみ久が原","province":"東京都","city":"大田区","address":"大田区南久が原1-24-16","lat":35.57468,"lon":139.687},{"name":"ベビーステーション下丸子","province":"東京都","city":"大田区","address":"大田区下丸子3-9-9","lat":35.57053,"lon":139.68567},{"name":"キッズラボ矢口渡駅前園","province":"東京都","city":"大田区","address":"大田区多摩川1-7-16","lat":35.56335,"lon":139.6993},{"name":"あい・あい保育園大森園","province":"東京都","city":"大田区","address":"大田区山王1-26-4","lat":35.59206,"lon":139.72569},{"name":"蒲田保育専門学校ふぞく東六郷保育園","province":"東京都","city":"大田区","address":"大田区東六郷1-13-25","lat":35.55288,"lon":139.7189},{"name":"大森駅前保育園","province":"東京都","city":"大田区","address":"大田区大森北1-6-6","lat":35.58877,"lon":139.72846},{"name":"メリーポピンズアトレ大森ルーム","province":"東京都","city":"大田区","address":"大田区大森北1-6-16アトレ大森23F","lat":35.58877,"lon":139.72846},{"name":"えがおの森保育園・おおもり駅前","province":"東京都","city":"大田区","address":"大田区大森北1-6-8ウィラ大森ビル1階","lat":35.58877,"lon":139.72846},{"name":"キッズガーデン大森駅前","province":"東京都","city":"大田区","address":"大田区大森北1-2-3大森御幸ビル4階","lat":35.58775,"lon":139.72907},{"name":"はぐはぐドンキａｄｖｅｎｔｕｒｅ保育園","province":"東京都","city":"大田区","address":"大田区山王3-6-3","lat":35.58284,"lon":139.72347},{"name":"馬込保育園","province":"東京都","city":"大田区","address":"大田区中馬込3-25-2","lat":35.59354,"lon":139.70989},{"name":"レイモンド南蒲田保育園","province":"東京都","city":"大田区","address":"大田区南蒲田2-16-2","lat":35.55565,"lon":139.72232},{"name":"えがおの森保育園・かまた駅前","province":"東京都","city":"大田区","address":"大田区南蒲田1-1-25","lat":35.56027,"lon":139.72444},{"name":"本羽田保育園","province":"東京都","city":"大田区","address":"大田区本羽田3-17-20-108","lat":35.54791,"lon":139.73427},{"name":"第三蒲田保育園","province":"東京都","city":"大田区","address":"大田区萩中2-13-16","lat":35.54995,"lon":139.7329},{"name":"大森南保育園","province":"東京都","city":"大田区","address":"大田区4-14-5","lat":35.56134,"lon":139.71629},{"name":"アスク蒲田一丁目保育園","province":"東京都","city":"大田区","address":"大田区蒲田1-2-13","lat":35.56876,"lon":139.71993},{"name":"矢口保育園","province":"東京都","city":"大田区","address":"大田区新蒲田2-12-18","lat":35.56014,"lon":139.70372},{"name":"ベネッセ　雪が谷大塚保育園","province":"東京都","city":"大田区","address":"大田区南雪谷3-11-20","lat":35.59181,"lon":139.6872},{"name":"うれしい保育園南雪谷","province":"東京都","city":"大田区","address":"大田区南雪谷3-11-9","lat":35.59181,"lon":139.6872},{"name":"にじいろ保育園南雪谷","province":"東京都","city":"大田区","address":"大田区南雪谷5-10-12","lat":35.58859,"lon":139.68729},{"name":"田園調布二丁目保育園","province":"東京都","city":"大田区","address":"大田区田園調布2-17-2","lat":35.59512,"lon":139.67275},{"name":"田園調布保育園","province":"東京都","city":"大田区","address":"大田区田園調布本町7-15","lat":35.5874,"lon":139.6768},{"name":"久が原ハーモニー保育園","province":"東京都","city":"大田区","address":"大田区久が原1-1-9","lat":35.58761,"lon":139.69235},{"name":"さくらさくみらい　鵜の木","province":"東京都","city":"大田区","address":"大田区鵜の木1-16-14","lat":35.57517,"lon":139.68184},{"name":"おはよう保育園マチノマ大森","province":"東京都","city":"大田区","address":"大田区大森西3-1-38マチノマ大森3階","lat":35.57875,"lon":139.72369}]}