{"keyword":"財団","data":[{"name":"NewWork蒲田","province":"東京都","city":"大田区","address":"東京都大田区西蒲田8丁目1-5","lat":35.56136677,"lon":139.71467257},{"name":"東京電力（株）新大田資材センター","province":"東京都","city":"大田区","address":"大田区東海4-1-23","lat":35.59408,"lon":139.7632},{"name":"NewWork蒲田","province":"東京都","city":"大田区","address":"東京都大田区西蒲田8丁目1-5","lat":35.56136677,"lon":139.71467257},{"name":"東京電力（株）新大田資材センター","province":"東京都","city":"大田区","address":"大田区東海4-1-23","lat":35.59408,"lon":139.7632},{"name":"NewWork蒲田","province":"東京都","city":"大田区","address":"東京都大田区西蒲田8丁目1-5","lat":35.56136677,"lon":139.71467257},{"name":"東京電力（株）新大田資材センター","province":"東京都","city":"大田区","address":"大田区東海4-1-23","lat":35.59408,"lon":139.7632},{"name":"NewWork蒲田","province":"東京都","city":"大田区","address":"東京都大田区西蒲田8丁目1-5","lat":35.56136677,"lon":139.71467257},{"name":"東京電力（株）新大田資材センター","province":"東京都","city":"大田区","address":"大田区東海4-1-23","lat":35.59408,"lon":139.7632},{"name":"東京電力（株）新大田資材センター","province":"東京都","city":"大田区","address":"大田区東海4-1-23","lat":35.59408,"lon":139.7632},{"name":"東京電力（株）新大田資材センター","province":"東京都","city":"大田区","address":"大田区東海4-1-23","lat":35.59408,"lon":139.7632},{"name":"東京電力（株）新大田資材センター","province":"東京都","city":"大田区","address":"大田区東海4-1-23","lat":35.59408,"lon":139.7632},{"name":"東京電力（株）新大田資材センター","province":"東京都","city":"大田区","address":"大田区東海4-1-23","lat":35.59408,"lon":139.7632},{"name":"東京電力（株）新大田資材センター","province":"東京都","city":"大田区","address":"大田区東海4-1-23","lat":35.59408,"lon":139.7632},{"name":"東京電力（株）新大田資材センター","province":"東京都","city":"大田区","address":"大田区東海4-1-23","lat":35.59408,"lon":139.7632},{"name":"東京電力（株）新大田資材センター","province":"東京都","city":"大田区","address":"大田区東海4-1-23","lat":35.59408,"lon":139.7632},{"name":"東京電力（株）新大田資材センター","province":"東京都","city":"大田区","address":"大田区東海4-1-23","lat":35.59408,"lon":139.7632},{"name":"東京電力（株）新大田資材センター","province":"東京都","city":"大田区","address":"大田区東海4-1-23","lat":35.59408,"lon":139.7632},{"name":"東京電力（株）新大田資材センター","province":"東京都","city":"大田区","address":"大田区東海4-1-23","lat":35.59408,"lon":139.7632},{"name":"東京電力（株）新大田資材センター","province":"東京都","city":"大田区","address":"大田区東海4-1-23","lat":35.59408,"lon":139.7632},{"name":"東京電力（株）新大田資材センター","province":"東京都","city":"大田区","address":"大田区東海4-1-23","lat":35.59408,"lon":139.7632},{"name":"東京電力（株）新大田資材センター","province":"東京都","city":"大田区","address":"大田区東海4-1-23","lat":35.59408,"lon":139.7632},{"name":"東京電力（株）新大田資材センター","province":"東京都","city":"大田区","address":"大田区東海4-1-23","lat":35.59408,"lon":139.7632},{"name":"東京電力（株）新大田資材センター","province":"東京都","city":"大田区","address":"大田区東海4-1-23","lat":35.59408,"lon":139.7632},{"name":"東京電力（株）新大田資材センター","province":"東京都","city":"大田区","address":"大田区東海4-1-23","lat":35.59408,"lon":139.7632},{"name":"東京電力（株）新大田資材センター","province":"東京都","city":"大田区","address":"大田区東海4-1-23","lat":35.59408,"lon":139.7632},{"name":"東京電力（株）新大田資材センター","province":"東京都","city":"大田区","address":"大田区東海4-1-23","lat":35.59408,"lon":139.7632},{"name":"東京電力（株）新大田資材センター","province":"東京都","city":"大田区","address":"大田区東海4-1-23","lat":35.59408,"lon":139.7632},{"name":"東京電力（株）新大田資材センター","province":"東京都","city":"大田区","address":"大田区東海4-1-23","lat":35.59408,"lon":139.7632},{"name":"東京電力（株）新大田資材センター","province":"東京都","city":"大田区","address":"大田区東海4-1-23","lat":35.59408,"lon":139.7632},{"name":"東京電力（株）新大田資材センター","province":"東京都","city":"大田区","address":"大田区東海4-1-23","lat":35.59408,"lon":139.7632},{"name":"東京電力（株）新大田資材センター","province":"東京都","city":"大田区","address":"大田区東海4-1-23","lat":35.59408,"lon":139.7632},{"name":"東京電力（株）新大田資材センター","province":"東京都","city":"大田区","address":"大田区東海4-1-23","lat":35.59408,"lon":139.7632},{"name":"東京電力（株）新大田資材センター","province":"東京都","city":"大田区","address":"大田区東海4-1-23","lat":35.59408,"lon":139.7632},{"name":"東京電力（株）新大田資材センター","province":"東京都","city":"大田区","address":"大田区東海4-1-23","lat":35.59408,"lon":139.7632},{"name":"東京電力（株）新大田資材センター","province":"東京都","city":"大田区","address":"大田区東海4-1-23","lat":35.59408,"lon":139.7632}]}