{"keyword":"食堂","data":[{"name":"こども食堂ﾋﾛ","province":"東京都","city":"大田区","address":"東京都大田区南千束2丁目18-13","lat":35.60462481,"lon":139.68794244},{"name":"大岡山こども食堂","province":"東京都","city":"大田区","address":"東京都大田区北千束3丁目20-8","lat":35.60482752,"lon":139.68613703},{"name":"嶺町こども食堂みんなでごはん","province":"東京都","city":"大田区","address":"東京都大田区田園調布本町7-1","lat":35.58786589,"lon":139.67735279},{"name":"田園調布子ども食堂ともこｷｯﾁﾝ","province":"東京都","city":"大田区","address":"東京都大田区田園調布4丁目","lat":35.59272877,"lon":139.66135396},{"name":"ｶﾌｪｷｬﾋﾞﾝ","province":"東京都","city":"大田区","address":"東京都大田区南雪谷5丁目3-12","lat":35.58974056,"lon":139.68787927},{"name":"たんぽぽ食堂","province":"東京都","city":"大田区","address":"東京都大田区南雪谷5丁目3-12","lat":35.58974056,"lon":139.68787927},{"name":"子ども食堂ｳﾒｷｯﾁﾝ","province":"東京都","city":"大田区","address":"東京都大田区田園調布本町29-8","lat":35.58260295,"lon":139.67374809},{"name":"子ども食堂ﾌﾗﾝｼｽｺの広場","province":"東京都","city":"大田区","address":"東京都大田区仲池上1丁目21-11","lat":35.58569934,"lon":139.69815052},{"name":"こあら村のこども食堂","province":"東京都","city":"大田区","address":"東京都大田区久が原6丁目26-4","lat":35.57313754,"lon":139.69462416},{"name":"馬込子まもり食堂","province":"東京都","city":"大田区","address":"東京都大田区北馬込2丁目5-5","lat":35.59902577,"lon":139.7095962},{"name":"れんげの会こども食堂Withおとな","province":"東京都","city":"大田区","address":"東京都大田区西馬込2丁目20-1","lat":35.58649105,"lon":139.70527762},{"name":"絆倶楽部","province":"東京都","city":"大田区","address":"東京都大田区西馬込2丁目20-1","lat":35.58649105,"lon":139.70527762},{"name":"絆カフェ","province":"東京都","city":"大田区","address":"東京都大田区西馬込2丁目20-1","lat":35.58649105,"lon":139.70527762},{"name":"絆御飯","province":"東京都","city":"大田区","address":"東京都大田区西馬込2丁目20-1","lat":35.58649105,"lon":139.70527762},{"name":"てくてく食堂","province":"東京都","city":"大田区","address":"東京都大田区西馬込2丁目20-1","lat":35.58649105,"lon":139.70527762},{"name":"南馬込ｱｸﾞﾈｽこども食堂","province":"東京都","city":"大田区","address":"東京都大田区南馬込1丁目58-8","lat":35.58911316,"lon":139.71283519},{"name":"Steak＆Hamburg SOH","province":"東京都","city":"大田区","address":"東京都大田区山王2丁目36-9","lat":35.59170755,"lon":139.72220932},{"name":"おばんざい　地獄に佛","province":"東京都","city":"大田区","address":"東京都大田区山王2丁目2-15","lat":35.58900533,"lon":139.72802012},{"name":"ほっとねっとｷｯﾁﾝ","province":"東京都","city":"大田区","address":"東京都大田区中央2丁目10-1","lat":35.57955621,"lon":139.7202711},{"name":"みんなでべジ食","province":"東京都","city":"大田区","address":"東京都大田区池上3丁目32-17","lat":35.57372347,"lon":139.70167607},{"name":"子ども食堂ｵﾑﾗｲｽ食堂","province":"東京都","city":"大田区","address":"東京都大田区大森北1丁目29-6","lat":35.5855669,"lon":139.72875077},{"name":"こども＆ｼﾆｱ　もりもり食堂","province":"東京都","city":"大田区","address":"東京都大田区大森西2丁目2-1","lat":35.57887326,"lon":139.72839833},{"name":"こども食堂おやこｷｯﾁﾝ","province":"東京都","city":"大田区","address":"東京都大田区大森西2丁目2-1","lat":35.57887326,"lon":139.72839833},{"name":"感動こども食堂","province":"東京都","city":"大田区","address":"東京都大田区西蒲田7丁目5-12","lat":35.56378033,"lon":139.71516683},{"name":"だんだんﾜﾝｺｲﾝこども食堂","province":"東京都","city":"大田区","address":"東京都大田区東矢口1丁目17-9","lat":35.564572,"lon":139.70724548},{"name":"いちご食堂","province":"東京都","city":"大田区","address":"東京都大田区下丸子3丁目8-15","lat":35.57050488,"lon":139.68530334},{"name":"VICｽﾏｲﾙｷｯﾁﾝ","province":"東京都","city":"大田区","address":"東京都大田区矢口2丁目1-18","lat":35.56410568,"lon":139.69612749},{"name":"万人こども食堂","province":"東京都","city":"大田区","address":"東京都大田区新蒲田3丁目4-28","lat":35.55842023,"lon":139.70546838},{"name":"子ども食堂やんやん","province":"東京都","city":"大田区","address":"東京都大田区新蒲田2丁目1-13","lat":35.55895617,"lon":139.70872347},{"name":"ﾕﾆﾊﾞｰｻﾙこども食堂","province":"東京都","city":"大田区","address":"東京都大田区南六郷1丁目34-4","lat":35.54579173,"lon":139.72602558},{"name":"おおたﾗｰﾒﾝこども食堂（本羽田）","province":"東京都","city":"大田区","address":"東京都大田区本羽田1丁目12-9","lat":35.5488134,"lon":139.72456155},{"name":"大森東しあわせ食堂","province":"東京都","city":"大田区","address":"東京都大田区大森東4丁目6-15","lat":35.56848065,"lon":139.7383372},{"name":"ひこうき食堂","province":"東京都","city":"大田区","address":"東京都大田区新蒲田1丁目18-16","lat":35.55736749,"lon":139.71124551},{"name":"ﾄｰｷｮｰｺｰﾋｰ大田区　かぞく食堂","province":"東京都","city":"大田区","address":"東京都大田区大森東1丁目28-9","lat":35.57715448,"lon":139.73810337},{"name":"SOMPO流子ども食堂（そんぽの家　大鳥居）","province":"東京都","city":"大田区","address":"東京都大田区西糀谷3丁目32-2","lat":35.55304671,"lon":139.7372494},{"name":"SOMPO流子ども食堂（そんぽの家　東六郷）","province":"東京都","city":"大田区","address":"東京都大田区東六郷1丁目19-1","lat":35.55189611,"lon":139.7194534},{"name":"SOMPO流子ども食堂（そんぽの家S　西糀谷）","province":"東京都","city":"大田区","address":"東京都大田区西糀谷3丁目32-15","lat":35.552919,"lon":139.73772161},{"name":"SOMPO流子ども食堂（そんぽの家S　羽田）","province":"東京都","city":"大田区","address":"東京都大田区羽田2丁目2-11","lat":35.54853938,"lon":139.74190784},{"name":"SOMPO流子ども食堂（ﾗｳﾞｨｰﾚ羽田）","province":"東京都","city":"大田区","address":"東京都大田区東糀谷5丁目19-18","lat":35.55831036,"lon":139.74512924},{"name":"SOMPO流子ども食堂（ﾗｳﾞｨｰﾚ多摩川）","province":"東京都","city":"大田区","address":"東京都大田区多摩川2丁目13-22","lat":35.55821767,"lon":139.69939418},{"name":"みんなの食堂","province":"東京都","city":"大田区","address":"東京都大田区上池台1丁目13-4","lat":35.60263907,"lon":139.69726665},{"name":"羽田のこのこ食堂","province":"東京都","city":"大田区","address":"東京都大田区萩中2丁目11-5","lat":35.55107724,"lon":139.73176371},{"name":"ﾄﾘﾔｷ大学こども食堂","province":"東京都","city":"大田区","address":"東京都大田区蒲田5丁目19-15","lat":35.5622027,"lon":139.71791103},{"name":"子ども食堂ママちゃんち","province":"東京都","city":"大田区","address":"東京都大田区中央3丁目","lat":35.5766982,"lon":139.71946298},{"name":"えんむすび","province":"東京都","city":"大田区","address":"東京都大田区南六郷1丁目34-4","lat":35.54579173,"lon":139.72602558},{"name":"ﾌｰﾄﾞﾊﾞﾝｸ大田芋やぽんぽこ子ども食堂","province":"東京都","city":"大田区","address":"東京都大田区中央4丁目32-8","lat":35.57933676,"lon":139.71881846}]}