{"keyword":"館","data":[{"name":"大森東四丁目センター","province":"東京都","city":"大田区","address":"大田区大森東4-24-6","lat":35.56722,"lon":139.74054},{"name":"大森中児童館","province":"東京都","city":"大田区","address":"大田区大森中2-13-5","lat":35.56825,"lon":139.7348},{"name":"東糀谷児童館","province":"東京都","city":"大田区","address":"大田区東糀谷4-1-7","lat":35.55673,"lon":139.743},{"name":"萩中児童館","province":"東京都","city":"大田区","address":"大田区萩中1-1-8","lat":35.55213,"lon":139.72286},{"name":"田園調布二丁目児童館","province":"東京都","city":"大田区","address":"大田区田園調布2-17-2","lat":35.59512,"lon":139.67275},{"name":"徳持児童館","province":"東京都","city":"大田区","address":"大田区池上8-13-4","lat":35.56933,"lon":139.6984},{"name":"鵜の木児童館","province":"東京都","city":"大田区","address":"大田区鵜の木3-34-7","lat":35.57583,"lon":139.67539},{"name":"＊?大田図書館","province":"東京都","city":"大田区","address":"大田区田園調布南25-1","lat":35.581647,"lon":139.676192},{"name":"＊?洗足池図書館","province":"東京都","city":"大田区","address":"大田区南千束2-2-10","lat":35.600785,"lon":139.691946},{"name":"＊?六郷図書館（仮施設）","province":"東京都","city":"大田区","address":"大田区南六郷3-10-16","lat":35.543634,"lon":139.714574},{"name":"＊?蒲田駅前図書館","province":"東京都","city":"大田区","address":"大田区蒲田5-13-26-301","lat":35.559828,"lon":139.715471},{"name":"＊?蒲田図書館","province":"東京都","city":"大田区","address":"大田区東蒲田1-19-22","lat":35.563696,"lon":139.728437},{"name":"＊?浜竹図書館","province":"東京都","city":"大田区","address":"大田区西糀谷3-32-7","lat":35.553372,"lon":139.737395},{"name":"＊?大森南図書館","province":"東京都","city":"大田区","address":"大田区大森南1-17-7","lat":35.563458,"lon":139.739758},{"name":"＊?羽田図書館","province":"東京都","city":"大田区","address":"大田区羽田1-11-1","lat":35.550414,"lon":139.743502},{"name":"＊?池上図書館","province":"東京都","city":"大田区","address":"大田区池上3-27-6","lat":35.574772,"lon":139.703219},{"name":"＊?久が原図書館","province":"東京都","city":"大田区","address":"大田区久が原2-28-4","lat":35.579341,"lon":139.695315},{"name":"＊?多摩川図書館","province":"東京都","city":"大田区","address":"大田区多摩川2-24-63","lat":35.55604,"lon":139.702347},{"name":"＊?下丸子図書館","province":"東京都","city":"大田区","address":"大田区下丸子2-18-11","lat":35.565882,"lon":139.688044},{"name":"＊?大森西図書館","province":"東京都","city":"大田区","address":"大田区大森西5-2-13","lat":35.571837,"lon":139.726026},{"name":"＊?入新井図書館","province":"東京都","city":"大田区","address":"大田区大森北1-10-14大森複合施設ビル(Luz大森)4階","lat":35.586493,"lon":139.728345},{"name":"＊?大森東図書館","province":"東京都","city":"大田区","address":"大田区大森東1-31-3-104","lat":35.576256,"lon":139.738949},{"name":"＊?馬込図書館","province":"東京都","city":"大田区","address":"大田区中馬込2-26-10","lat":35.595681,"lon":139.71041}]}