{"category":"wireless","data":[{"name":"日暮里観光案内所","province":"東京都","city":"荒川区","address":"東京都荒川区西日暮里2丁目19番1号","lat":35.7293096403078,"lon":139.770608623279},{"name":"日暮里繊維街","province":"東京都","city":"荒川区","address":"東京都荒川区東日暮里5丁目45付近","lat":35.7284961030656,"lon":139.774607128823},{"name":"ふらっと日暮里","province":"東京都","city":"荒川区","address":"東京都荒川区東日暮里6丁目17番6号","lat":35.7290335329009,"lon":139.777310767464},{"name":"ゆいの森あらかわ","province":"東京都","city":"荒川区","address":"東京都荒川区荒川2丁目50番1号","lat":35.7396994813542,"lon":139.783768952125},{"name":"南千住図書館","province":"東京都","city":"荒川区","address":"東京都荒川区南千住6丁目63番1号","lat":35.7375890179291,"lon":139.795498998144},{"name":"尾久図書館","province":"東京都","city":"荒川区","address":"東京都荒川区東尾久8丁目45番4号","lat":35.7514924574944,"lon":139.7662127963},{"name":"町屋図書館","province":"東京都","city":"荒川区","address":"東京都荒川区町屋5丁目11番18号","lat":35.7514163937251,"lon":139.779009140474},{"name":"日暮里図書館","province":"東京都","city":"荒川区","address":"東京都荒川区東日暮里6丁目38番4号","lat":35.7314850051869,"lon":139.774949980959},{"name":"本庁舎","province":"東京都","city":"荒川区","address":"東京都荒川区荒川2丁目2番3号","lat":35.7368867077082,"lon":139.782785061903},{"name":"荒川遊園","province":"東京都","city":"荒川区","address":"東京都荒川区西尾久6丁目35番11号","lat":35.7543539624042,"lon":139.758893253},{"name":"ひぐらしふれあい館","province":"東京都","city":"荒川区","address":"東京都荒川区東日暮里6丁目28番15号","lat":35.7330981895676,"lon":139.775898384315},{"name":"東尾久本町通りふれあい館","province":"東京都","city":"荒川区","address":"東京都荒川区東尾久2丁目37番14号","lat":35.7449793518619,"lon":139.771360084315},{"name":"荒川さつき会館","province":"東京都","city":"荒川区","address":"東京都荒川区荒川8丁目16番13号","lat":35.7396195647664,"lon":139.78714632596},{"name":"男女平等推進センター（アクト21）","province":"東京都","city":"荒川区","address":"東京都荒川区東尾久5丁目9番3号","lat":35.7484305286891,"lon":139.768846795281},{"name":"町屋文化センター","province":"東京都","city":"荒川区","address":"東京都荒川区荒川7丁目20番1号","lat":35.7420074100986,"lon":139.782211368132},{"name":"南千住ふれあい館","province":"東京都","city":"荒川区","address":"東京都荒川区南千住6丁目36番13号","lat":35.7382299245955,"lon":139.791016727656},{"name":"荒川山吹ふれあい館","province":"東京都","city":"荒川区","address":"東京都荒川区荒川7丁目6番8号","lat":35.7425409595011,"lon":139.783976547521},{"name":"町屋ふれあい館","province":"東京都","city":"荒川区","address":"東京都荒川区町屋1丁目35番8号","lat":35.7441005864285,"lon":139.785692339321},{"name":"尾久ふれあい館","province":"東京都","city":"荒川区","address":"東京都荒川区西尾久2丁目25番13号","lat":35.750214156484,"lon":139.76340831296},{"name":"夕やけこやけふれあい館","province":"東京都","city":"荒川区","address":"東京都荒川区東日暮里3丁目11番19号","lat":35.729974114914,"lon":139.781379236273},{"name":"東京女子医科大学東医療センター","province":"東京都","city":"荒川区","address":"東京都荒川区西尾久2丁目1-10","lat":35.74831628,"lon":139.7653279},{"name":"町屋斎場","province":"東京都","city":"荒川区","address":"東京都荒川区町屋1丁目23-4","lat":35.74417616,"lon":139.78429088},{"name":"南千住給水所","province":"東京都","city":"荒川区","address":"東京都荒川区南千住8丁目2-6","lat":35.73577514,"lon":139.80766775},{"name":"日暮里観光案内所","province":"東京都","city":"荒川区","address":"東京都荒川区西日暮里2丁目19番1号","lat":35.72930964,"lon":139.7706086},{"name":"日暮里繊維街","province":"東京都","city":"荒川区","address":"東京都荒川区東日暮里5丁目45付近","lat":35.7284961,"lon":139.7746071},{"name":"ふらっと日暮里","province":"東京都","city":"荒川区","address":"東京都荒川区東日暮里6丁目17番6号","lat":35.72903353,"lon":139.7773108},{"name":"ゆいの森あらかわ","province":"東京都","city":"荒川区","address":"東京都荒川区荒川2丁目50番1号","lat":35.73969948,"lon":139.783769},{"name":"南千住図書館","province":"東京都","city":"荒川区","address":"東京都荒川区南千住6丁目63番1号","lat":35.73758902,"lon":139.795499},{"name":"尾久図書館","province":"東京都","city":"荒川区","address":"東京都荒川区東尾久8丁目45番4号","lat":35.75149246,"lon":139.7662128},{"name":"町屋図書館","province":"東京都","city":"荒川区","address":"東京都荒川区町屋5丁目11番18号","lat":35.75141639,"lon":139.7790091},{"name":"日暮里図書館","province":"東京都","city":"荒川区","address":"東京都荒川区東日暮里6丁目38番4号","lat":35.73148501,"lon":139.77495},{"name":"本庁舎","province":"東京都","city":"荒川区","address":"東京都荒川区荒川2丁目2番3号","lat":35.73688671,"lon":139.7827851},{"name":"荒川遊園","province":"東京都","city":"荒川区","address":"東京都荒川区西尾久6丁目35番11号","lat":35.75435396,"lon":139.7588933},{"name":"ひぐらしふれあい館","province":"東京都","city":"荒川区","address":"東京都荒川区東日暮里6丁目28番15号","lat":35.73309819,"lon":139.7758984},{"name":"東尾久本町通りふれあい館","province":"東京都","city":"荒川区","address":"東京都荒川区東尾久2丁目37番14号","lat":35.74497935,"lon":139.7713601},{"name":"荒川さつき会館","province":"東京都","city":"荒川区","address":"東京都荒川区荒川8丁目16番13号","lat":35.73961956,"lon":139.7871463},{"name":"男女平等推進センター（アクト21）","province":"東京都","city":"荒川区","address":"東京都荒川区東尾久5丁目9番3号","lat":35.74843053,"lon":139.7688468},{"name":"町屋文化センター","province":"東京都","city":"荒川区","address":"東京都荒川区荒川7丁目20番1号","lat":35.74200741,"lon":139.7822114},{"name":"南千住ふれあい館","province":"東京都","city":"荒川区","address":"東京都荒川区南千住6丁目36番13号","lat":35.73822992,"lon":139.7910167},{"name":"荒川山吹ふれあい館","province":"東京都","city":"荒川区","address":"東京都荒川区荒川7丁目6番8号","lat":35.74254096,"lon":139.7839765},{"name":"町屋ふれあい館","province":"東京都","city":"荒川区","address":"東京都荒川区町屋1丁目35番8号","lat":35.74410059,"lon":139.7856923},{"name":"尾久ふれあい館","province":"東京都","city":"荒川区","address":"東京都荒川区西尾久2丁目25番13号","lat":35.75021416,"lon":139.7634083},{"name":"夕やけこやけふれあい館","province":"東京都","city":"荒川区","address":"東京都荒川区東日暮里3丁目11番19号","lat":35.72997411,"lon":139.7813792},{"name":"荒川区保健所","province":"東京都","city":"荒川区","address":"東京都荒川区荒川2丁目11-1","lat":35.73706089,"lon":139.78338914},{"name":"首都大学東京荒川キャンパス","province":"東京都","city":"荒川区","address":"東京都荒川区東尾久7丁目2-10","lat":35.74998303,"lon":139.77211339},{"name":"荒川都税事務所","province":"東京都","city":"荒川区","address":"東京都荒川区西日暮里2丁目25-1","lat":35.7295939,"lon":139.77148686},{"name":"荒川工業高等学校","province":"東京都","city":"荒川区","address":"東京都荒川区南千住6丁目42-1","lat":35.7373272,"lon":139.79221569},{"name":"竹台高等学校","province":"東京都","city":"荒川区","address":"東京都荒川区東日暮里5丁目14-1","lat":35.72586666,"lon":139.7777754},{"name":"白鬚西","province":"東京都","city":"荒川区","address":"東京都荒川区南千住8丁目","lat":35.7377776,"lon":139.80756749},{"name":"サンパール荒川","province":"東京都","city":"荒川区","address":"東京都荒川区荒川1丁目1-1","lat":35.73521383,"lon":139.78510844}]}