{"keyword":"伐採","data":[{"name":"東京女子医科大学東医療センター","province":"東京都","city":"荒川区","address":"東京都荒川区西尾久2丁目1-10","lat":35.74831628,"lon":139.7653279},{"name":"東尾久運動場多目的広場","province":"東京都","city":"荒川区","address":"東京都荒川区東尾久6丁目46","lat":35.74849157,"lon":139.77175799},{"name":"都立尾久の原公園多目的広場第二サッカーグラウンド","province":"東京都","city":"荒川区","address":"東京都荒川区東尾久7丁目1-1","lat":35.75213275,"lon":139.77513791},{"name":"都立汐入公園多目的広場","province":"東京都","city":"荒川区","address":"東京都荒川区南千住8丁目13","lat":35.73642518,"lon":139.81024806},{"name":"荒川区立南千住野球場","province":"東京都","city":"荒川区","address":"東京都荒川区南千住6丁目45","lat":35.73607733,"lon":139.79205464},{"name":"白鬚西","province":"東京都","city":"荒川区","address":"東京都荒川区南千住8丁目","lat":35.7377776,"lon":139.80756749},{"name":"東京女子医科大学東医療センター","province":"東京都","city":"荒川区","address":"東京都荒川区西尾久2丁目1-10","lat":35.74831628,"lon":139.7653279},{"name":"東尾久運動場多目的広場","province":"東京都","city":"荒川区","address":"東京都荒川区東尾久6丁目46","lat":35.74849157,"lon":139.77175799},{"name":"都立尾久の原公園多目的広場第二サッカーグラウンド","province":"東京都","city":"荒川区","address":"東京都荒川区東尾久7丁目1-1","lat":35.75213275,"lon":139.77513791},{"name":"都立汐入公園多目的広場","province":"東京都","city":"荒川区","address":"東京都荒川区南千住8丁目13","lat":35.73642518,"lon":139.81024806},{"name":"荒川区立南千住野球場","province":"東京都","city":"荒川区","address":"東京都荒川区南千住6丁目45","lat":35.73607733,"lon":139.79205464},{"name":"白鬚西","province":"東京都","city":"荒川区","address":"東京都荒川区南千住8丁目","lat":35.7377776,"lon":139.80756749},{"name":"東京女子医科大学東医療センター","province":"東京都","city":"荒川区","address":"東京都荒川区西尾久2丁目1-10","lat":35.74831628,"lon":139.7653279},{"name":"東尾久運動場多目的広場","province":"東京都","city":"荒川区","address":"東京都荒川区東尾久6丁目46","lat":35.74849157,"lon":139.77175799},{"name":"都立尾久の原公園多目的広場第二サッカーグラウンド","province":"東京都","city":"荒川区","address":"東京都荒川区東尾久7丁目1-1","lat":35.75213275,"lon":139.77513791},{"name":"都立汐入公園多目的広場","province":"東京都","city":"荒川区","address":"東京都荒川区南千住8丁目13","lat":35.73642518,"lon":139.81024806},{"name":"荒川区立南千住野球場","province":"東京都","city":"荒川区","address":"東京都荒川区南千住6丁目45","lat":35.73607733,"lon":139.79205464},{"name":"白鬚西","province":"東京都","city":"荒川区","address":"東京都荒川区南千住8丁目","lat":35.7377776,"lon":139.80756749},{"name":"東京女子医科大学東医療センター","province":"東京都","city":"荒川区","address":"東京都荒川区西尾久2丁目1-10","lat":35.74831628,"lon":139.7653279},{"name":"白鬚西","province":"東京都","city":"荒川区","address":"東京都荒川区南千住8丁目","lat":35.7377776,"lon":139.80756749},{"name":"東京女子医科大学東医療センター","province":"東京都","city":"荒川区","address":"東京都荒川区西尾久2丁目1-10","lat":35.74831628,"lon":139.7653279},{"name":"白鬚西","province":"東京都","city":"荒川区","address":"東京都荒川区南千住8丁目","lat":35.7377776,"lon":139.80756749},{"name":"東京女子医科大学東医療センター","province":"東京都","city":"荒川区","address":"東京都荒川区西尾久2丁目1-10","lat":35.74831628,"lon":139.7653279},{"name":"白鬚西","province":"東京都","city":"荒川区","address":"東京都荒川区南千住8丁目","lat":35.7377776,"lon":139.80756749},{"name":"東京女子医科大学東医療センター","province":"東京都","city":"荒川区","address":"東京都荒川区西尾久2丁目1-10","lat":35.74831628,"lon":139.7653279},{"name":"白鬚西","province":"東京都","city":"荒川区","address":"東京都荒川区南千住8丁目","lat":35.7377776,"lon":139.80756749},{"name":"東京女子医科大学東医療センター","province":"東京都","city":"荒川区","address":"東京都荒川区西尾久2丁目1-10","lat":35.74831628,"lon":139.7653279},{"name":"白鬚西","province":"東京都","city":"荒川区","address":"東京都荒川区南千住8丁目","lat":35.7377776,"lon":139.80756749},{"name":"東京女子医科大学東医療センター","province":"東京都","city":"荒川区","address":"東京都荒川区西尾久2丁目1-10","lat":35.74831628,"lon":139.7653279},{"name":"白鬚西","province":"東京都","city":"荒川区","address":"東京都荒川区南千住8丁目","lat":35.7377776,"lon":139.80756749},{"name":"東京女子医科大学東医療センター","province":"東京都","city":"荒川区","address":"東京都荒川区西尾久2丁目1-10","lat":35.74831628,"lon":139.7653279},{"name":"白鬚西","province":"東京都","city":"荒川区","address":"東京都荒川区南千住8丁目","lat":35.7377776,"lon":139.80756749},{"name":"東京女子医科大学東医療センター","province":"東京都","city":"荒川区","address":"東京都荒川区西尾久2丁目1-10","lat":35.74831628,"lon":139.7653279},{"name":"白鬚西","province":"東京都","city":"荒川区","address":"東京都荒川区南千住8丁目","lat":35.7377776,"lon":139.80756749},{"name":"東京女子医科大学東医療センター","province":"東京都","city":"荒川区","address":"東京都荒川区西尾久2丁目1-10","lat":35.74831628,"lon":139.7653279},{"name":"白鬚西","province":"東京都","city":"荒川区","address":"東京都荒川区南千住8丁目","lat":35.7377776,"lon":139.80756749},{"name":"東京女子医科大学東医療センター","province":"東京都","city":"荒川区","address":"東京都荒川区西尾久2丁目1-10","lat":35.74831628,"lon":139.7653279},{"name":"白鬚西","province":"東京都","city":"荒川区","address":"東京都荒川区南千住8丁目","lat":35.7377776,"lon":139.80756749},{"name":"東京女子医科大学東医療センター","province":"東京都","city":"荒川区","address":"東京都荒川区西尾久2丁目1-10","lat":35.74831628,"lon":139.7653279},{"name":"白鬚西","province":"東京都","city":"荒川区","address":"東京都荒川区南千住8丁目","lat":35.7377776,"lon":139.80756749},{"name":"東京女子医科大学東医療センター","province":"東京都","city":"荒川区","address":"東京都荒川区西尾久2丁目1-10","lat":35.74831628,"lon":139.7653279},{"name":"白鬚西","province":"東京都","city":"荒川区","address":"東京都荒川区南千住8丁目","lat":35.7377776,"lon":139.80756749},{"name":"東京女子医科大学東医療センター","province":"東京都","city":"荒川区","address":"東京都荒川区西尾久2丁目1-10","lat":35.74831628,"lon":139.7653279},{"name":"白鬚西","province":"東京都","city":"荒川区","address":"東京都荒川区南千住8丁目","lat":35.7377776,"lon":139.80756749},{"name":"東京女子医科大学東医療センター","province":"東京都","city":"荒川区","address":"東京都荒川区西尾久2丁目1-10","lat":35.74831628,"lon":139.7653279},{"name":"白鬚西","province":"東京都","city":"荒川区","address":"東京都荒川区南千住8丁目","lat":35.7377776,"lon":139.80756749},{"name":"東京女子医科大学東医療センター","province":"東京都","city":"荒川区","address":"東京都荒川区西尾久2丁目1-10","lat":35.74831628,"lon":139.7653279},{"name":"白鬚西","province":"東京都","city":"荒川区","address":"東京都荒川区南千住8丁目","lat":35.7377776,"lon":139.80756749},{"name":"東京女子医科大学東医療センター","province":"東京都","city":"荒川区","address":"東京都荒川区西尾久2丁目1-10","lat":35.74831628,"lon":139.7653279},{"name":"白鬚西","province":"東京都","city":"荒川区","address":"東京都荒川区南千住8丁目","lat":35.7377776,"lon":139.80756749},{"name":"東京女子医科大学東医療センター","province":"東京都","city":"荒川区","address":"東京都荒川区西尾久2丁目1-10","lat":35.74831628,"lon":139.7653279},{"name":"白鬚西","province":"東京都","city":"荒川区","address":"東京都荒川区南千住8丁目","lat":35.7377776,"lon":139.80756749},{"name":"東京女子医科大学東医療センター","province":"東京都","city":"荒川区","address":"東京都荒川区西尾久2丁目1-10","lat":35.74831628,"lon":139.7653279},{"name":"白鬚西","province":"東京都","city":"荒川区","address":"東京都荒川区南千住8丁目","lat":35.7377776,"lon":139.80756749},{"name":"東京女子医科大学東医療センター","province":"東京都","city":"荒川区","address":"東京都荒川区西尾久2丁目1-10","lat":35.74831628,"lon":139.7653279},{"name":"白鬚西","province":"東京都","city":"荒川区","address":"東京都荒川区南千住8丁目","lat":35.7377776,"lon":139.80756749},{"name":"東京女子医科大学東医療センター","province":"東京都","city":"荒川区","address":"東京都荒川区西尾久2丁目1-10","lat":35.74831628,"lon":139.7653279},{"name":"東京女子医科大学東医療センター","province":"東京都","city":"荒川区","address":"東京都荒川区西尾久2丁目1-10","lat":35.74831628,"lon":139.7653279},{"name":"東京女子医科大学東医療センター","province":"東京都","city":"荒川区","address":"東京都荒川区西尾久2丁目1-10","lat":35.74831628,"lon":139.7653279},{"name":"東京女子医科大学東医療センター","province":"東京都","city":"荒川区","address":"東京都荒川区西尾久2丁目1-10","lat":35.74831628,"lon":139.7653279},{"name":"東京女子医科大学東医療センター","province":"東京都","city":"荒川区","address":"東京都荒川区西尾久2丁目1-10","lat":35.74831628,"lon":139.7653279},{"name":"東京女子医科大学東医療センター","province":"東京都","city":"荒川区","address":"東京都荒川区西尾久2丁目1-10","lat":35.74831628,"lon":139.7653279},{"name":"東京女子医科大学東医療センター","province":"東京都","city":"荒川区","address":"東京都荒川区西尾久2丁目1-10","lat":35.74831628,"lon":139.7653279},{"name":"東京女子医科大学東医療センター","province":"東京都","city":"荒川区","address":"東京都荒川区西尾久2丁目1-10","lat":35.74831628,"lon":139.7653279},{"name":"東京女子医科大学東医療センター","province":"東京都","city":"荒川区","address":"東京都荒川区西尾久2丁目1-10","lat":35.74831628,"lon":139.7653279},{"name":"東京女子医科大学東医療センター","province":"東京都","city":"荒川区","address":"東京都荒川区西尾久2丁目1-10","lat":35.74831628,"lon":139.7653279},{"name":"東京女子医科大学東医療センター","province":"東京都","city":"荒川区","address":"東京都荒川区西尾久2丁目1-10","lat":35.74831628,"lon":139.7653279},{"name":"東京女子医科大学東医療センター","province":"東京都","city":"荒川区","address":"東京都荒川区西尾久2丁目1-10","lat":35.74831628,"lon":139.7653279},{"name":"東京女子医科大学東医療センター","province":"東京都","city":"荒川区","address":"東京都荒川区西尾久2丁目1-10","lat":35.74831628,"lon":139.7653279}]}