{"keyword":"保健","data":[{"name":"ワタナベ学園","province":"東京都","city":"荒川区","address":"荒川区町屋2-15-5","lat":35.743718,"lon":139.778389},{"name":"上智厚生館保育園","province":"東京都","city":"荒川区","address":"荒川区町屋4-9-10","lat":35.747231,"lon":139.776805},{"name":"尾久隣保館保育園","province":"東京都","city":"荒川区","address":"荒川区町屋6-28-11","lat":35.752155,"lon":139.783726},{"name":"町屋保育園","province":"東京都","city":"荒川区","address":"荒川区町屋1-35-9","lat":35.744396,"lon":139.785821},{"name":"原保育園","province":"東京都","city":"荒川区","address":"荒川区町屋5-11-16","lat":35.751441,"lon":139.779051},{"name":"うぃず町屋保育園","province":"東京都","city":"荒川区","address":"荒川区町屋2-10-3","lat":35.74424,"lon":139.779266},{"name":"仁風保育園","province":"東京都","city":"荒川区","address":"荒川区荒川2-41-1","lat":35.739391,"lon":139.783208},{"name":"ドン・ボスコ保育園","province":"東京都","city":"荒川区","address":"荒川区荒川3-11-1","lat":35.7347,"lon":139.783728},{"name":"荒川さつき保育園","province":"東京都","city":"荒川区","address":"荒川区荒川8-25-4","lat":35.737352,"lon":139.786192},{"name":"荒川保育園","province":"東京都","city":"荒川区","address":"荒川区荒川5-50-15","lat":35.740196,"lon":139.774942},{"name":"三河島保育園","province":"東京都","city":"荒川区","address":"荒川区荒川3-54-1","lat":35.73555,"lon":139.780136},{"name":"キッズあおぞら保育園","province":"東京都","city":"荒川区","address":"荒川区荒川2-1-5セントラル荒川ビルディング2階","lat":35.735078,"lon":139.784731},{"name":"まなびの森保育園町屋","province":"東京都","city":"荒川区","address":"荒川区荒川7-41-8","lat":35.74164,"lon":139.780628},{"name":"第二南千住保育園","province":"東京都","city":"荒川区","address":"荒川区南千住2-21-6","lat":35.730477,"lon":139.796823},{"name":"南千住さくら保育園","province":"東京都","city":"荒川区","address":"荒川区南千住4-9-4","lat":35.736955,"lon":139.804534},{"name":"南千住駅前保育所（おひさま保育園）","province":"東京都","city":"荒川区","address":"荒川区南千住4-3-2","lat":35.732783,"lon":139.798918},{"name":"南千住保育園","province":"東京都","city":"荒川区","address":"荒川区南千住6-35-3","lat":35.73813,"lon":139.791574},{"name":"南千住七丁目保育園","province":"東京都","city":"荒川区","address":"荒川区南千住7-20-13","lat":35.738233,"lon":139.798704},{"name":"にじの樹保育園","province":"東京都","city":"荒川区","address":"荒川区南千住8-5-2","lat":35.739025,"lon":139.807137},{"name":"ぽけっとランド南千住瑞光保育園","province":"東京都","city":"荒川区","address":"荒川区南千住7-30-1","lat":35.735005,"lon":139.799723},{"name":"はなみずき保育園","province":"東京都","city":"荒川区","address":"荒川区南千住8-5-5","lat":35.738386,"lon":139.807354},{"name":"汐入こども園","province":"東京都","city":"荒川区","address":"荒川区南千住8-9-3","lat":35.73895,"lon":139.811625},{"name":"汐入とちのき保育園","province":"東京都","city":"荒川区","address":"荒川区南千住8-3-3","lat":35.736017,"lon":139.80569},{"name":"コンビプラザ南千住保育園","province":"東京都","city":"荒川区","address":"荒川区南千住4-9-1リバーハープタワー南千住","lat":35.735728,"lon":139.803321},{"name":"ピノキオ幼児舎南千住保育園","province":"東京都","city":"荒川区","address":"荒川区南千住8-4-5けやき通り北参番館204","lat":35.737239,"lon":139.807234},{"name":"太陽の子わかば保育園","province":"東京都","city":"荒川区","address":"荒川区南千住5-44-16ライオンズマンション1階","lat":35.735974,"lon":139.796754},{"name":"にじの森保育園","province":"東京都","city":"荒川区","address":"荒川区南千住8-13-1","lat":35.7366,"lon":139.809226},{"name":"うぃず南千住駅前保育園","province":"東京都","city":"荒川区","address":"荒川区南千住5-23-14","lat":35.732699,"lon":139.796054},{"name":"上尾久保育園","province":"東京都","city":"荒川区","address":"荒川区西尾久8-10-12","lat":35.752351,"lon":139.756573},{"name":"西尾久みどり保育園","province":"東京都","city":"荒川区","address":"荒川区西尾久4-6-19","lat":35.744244,"lon":139.761015},{"name":"西尾久保育園","province":"東京都","city":"荒川区","address":"荒川区西尾久5-3-17","lat":35.74893,"lon":139.761225},{"name":"子供の家愛育保育園","province":"東京都","city":"荒川区","address":"荒川区西尾久7-26-4","lat":35.748257,"lon":139.755306},{"name":"小台橋保育園","province":"東京都","city":"荒川区","address":"荒川区西尾久6-9-7","lat":35.753704,"lon":139.760806},{"name":"小台ここわ保育園","province":"東京都","city":"荒川区","address":"荒川区西尾久3-21-12水島ビル2階","lat":35.750966,"lon":139.761725},{"name":"東尾久保育園","province":"東京都","city":"荒川区","address":"荒川区東尾久2-28-3","lat":35.741879,"lon":139.771836},{"name":"熊野前保育園","province":"東京都","city":"荒川区","address":"荒川区東尾久8-23-9","lat":35.751783,"lon":139.7694},{"name":"至誠会第二保育園","province":"東京都","city":"荒川区","address":"荒川区東尾久5-34-6","lat":35.747075,"lon":139.767242},{"name":"あいあい保育園新三河島園","province":"東京都","city":"荒川区","address":"荒川区東尾久1-1-4小澤ビル3階4階","lat":35.738138,"lon":139.772867},{"name":"西日暮里保育園","province":"東京都","city":"荒川区","address":"荒川区西日暮里6-25-3","lat":35.736599,"lon":139.770628},{"name":"グローバルキッズ日暮里駅前保育園","province":"東京都","city":"荒川区","address":"荒川区西日暮里2-22-1ステーションプラザタワー3F","lat":35.729742,"lon":139.770568},{"name":"ひぐらし保育園","province":"東京都","city":"荒川区","address":"荒川区西日暮里5-35-9","lat":35.733266,"lon":139.767393},{"name":"日暮里きらきら保育園","province":"東京都","city":"荒川区","address":"荒川区西日暮里2-30-4","lat":35.730347,"lon":139.772217},{"name":"あい・あい保育園　西日暮里一丁目園","province":"東京都","city":"荒川区","address":"荒川区西日暮里1-1-1パレスいしかわ2階","lat":35.736874,"lon":139.775906},{"name":"第二東日暮里保育園","province":"東京都","city":"荒川区","address":"荒川区東日暮里1-17-21","lat":35.730111,"lon":139.789427},{"name":"東日暮里保育園","province":"東京都","city":"荒川区","address":"荒川区東日暮里6-28-15","lat":35.733002,"lon":139.775884},{"name":"夕やけこやけ保育園","province":"東京都","city":"荒川区","address":"荒川区東日暮里3-11-19","lat":35.729964,"lon":139.781378},{"name":"うぃず東日暮里保育園","province":"東京都","city":"荒川区","address":"荒川区東日暮里4-11-6","lat":35.727411,"lon":139.781942},{"name":"グローバルキッズ東日暮里園","province":"東京都","city":"荒川区","address":"荒川区東日暮里5-16-3リーデンスタワー1・2F","lat":35.72623,"lon":139.776273},{"name":"ポポラー東京東日暮里園","province":"東京都","city":"荒川区","address":"荒川区東日暮里6-1-1アトラスブランズタワー三河島2F","lat":35.732736,"lon":139.778136},{"name":"東日暮里わんぱく保育園","province":"東京都","city":"荒川区","address":"荒川区東日暮里3-9-10","lat":35.728303,"lon":139.782719},{"name":"荒川区保健所（生活衛生課）","province":"東京都","city":"荒川区","address":"荒川区荒川2-11-1","lat":35.737061,"lon":139.783389},{"name":"荒川区保健所（健康推進課）","province":"東京都","city":"荒川区","address":"荒川区荒川2-11-1","lat":35.737061,"lon":139.783389},{"name":"荒川区保健所（保健予防課）","province":"東京都","city":"荒川区","address":"荒川区荒川2-11-1","lat":35.737061,"lon":139.783389},{"name":"汐入公園","province":"東京都","city":"荒川区","address":"東京都荒川区南千住8丁目13","lat":35.736681,"lon":139.808731},{"name":"汐入公園","province":"東京都","city":"荒川区","address":"東京都荒川区南千住8丁目13","lat":35.736064,"lon":139.811066},{"name":"汐入公園","province":"東京都","city":"荒川区","address":"東京都荒川区南千住8丁目14","lat":35.739472,"lon":139.812098},{"name":"汐入公園","province":"東京都","city":"荒川区","address":"東京都荒川区南千住8丁目14","lat":35.737716,"lon":139.812982},{"name":"汐入公園","province":"東京都","city":"荒川区","address":"東京都荒川区南千住8丁目13-1","lat":35.736584,"lon":139.809715},{"name":"尾久の原公園","province":"東京都","city":"荒川区","address":"東京都荒川区東尾久7丁目1","lat":35.750785,"lon":139.776688},{"name":"東京都水道局東部第二支所","province":"東京都","city":"荒川区","address":"東京都荒川区南千住6丁目40","lat":35.738232,"lon":139.794079},{"name":"日暮里・舎人ライナー日暮里駅","province":"東京都","city":"荒川区","address":"東京都荒川区西日暮里2丁目25-1","lat":35.729413,"lon":139.771613},{"name":"日暮里・舎人ライナー日暮里駅","province":"東京都","city":"荒川区","address":"東京都荒川区西日暮里2丁目19","lat":35.728776,"lon":139.77097},{"name":"日暮里・舎人ライナー西日暮里駅","province":"東京都","city":"荒川区","address":"東京都荒川区西日暮里5丁目31-7","lat":35.73379,"lon":139.768082},{"name":"日暮里・舎人ライナー赤土小学校前駅","province":"東京都","city":"荒川区","address":"東京都荒川区東尾久4丁目7-7","lat":35.742881,"lon":139.769036},{"name":"日暮里・舎人ライナー熊野前駅","province":"東京都","city":"荒川区","address":"東京都荒川区東尾久3丁目37-6","lat":35.748317,"lon":139.769847},{"name":"荒川区役所本庁舎","province":"東京都","city":"荒川区","address":"東京都荒川区荒川2丁目2-3","lat":35.736144,"lon":139.783303},{"name":"東尾久本町通りふれあい館","province":"東京都","city":"荒川区","address":"東京都荒川区東尾久2丁目37-14","lat":35.744691,"lon":139.771375},{"name":"南千住駅前ふれあい館","province":"東京都","city":"荒川区","address":"東京都荒川区南千住6丁目36-13","lat":35.738168,"lon":139.791052},{"name":"日暮里地域活性化施設（ふらっとにっぽり）","province":"東京都","city":"荒川区","address":"東京都荒川区東日暮里6丁目17-6","lat":35.728931,"lon":139.777413},{"name":"日暮里地域活性化施設（ふらっとにっぽり）","province":"東京都","city":"荒川区","address":"東京都荒川区東日暮里6丁目17-6","lat":35.729024,"lon":139.777394},{"name":"石浜ふれあい館","province":"東京都","city":"荒川区","address":"東京都荒川区南千住3丁目28-2","lat":35.731328,"lon":139.806405},{"name":"南千住ふれあい館","province":"東京都","city":"荒川区","address":"東京都荒川区南千住6丁目36-13","lat":35.738246,"lon":139.791054},{"name":"汐入ふれあい館","province":"東京都","city":"荒川区","address":"東京都荒川区南千住8丁目2-1","lat":35.734643,"lon":139.806996},{"name":"峡田ふれあい館","province":"東京都","city":"荒川区","address":"東京都荒川区荒川3丁目3-10","lat":35.733772,"lon":139.784224},{"name":"荒川山吹ふれあい館","province":"東京都","city":"荒川区","address":"東京都荒川区荒川7丁目6-8","lat":35.742635,"lon":139.783902},{"name":"町屋ふれあい館","province":"東京都","city":"荒川区","address":"東京都荒川区町屋1丁目35-8","lat":35.744143,"lon":139.785876},{"name":"荒木田ふれあい館","province":"東京都","city":"荒川区","address":"東京都荒川区町屋6丁目13-2","lat":35.750408,"lon":139.783345},{"name":"西尾久ふれあい館","province":"東京都","city":"荒川区","address":"東京都荒川区西尾久8丁目33-31","lat":35.751579,"lon":139.753308},{"name":"尾久ふれあい館","province":"東京都","city":"荒川区","address":"東京都荒川区西尾久2丁目25-13","lat":35.750118,"lon":139.763315},{"name":"東日暮里ふれあい館","province":"東京都","city":"荒川区","address":"東京都荒川区東日暮里1丁目17-13","lat":35.729757,"lon":139.789886},{"name":"夕やけこやけふれあい館","province":"東京都","city":"荒川区","address":"東京都荒川区東日暮里3丁目11-19","lat":35.729938,"lon":139.781425},{"name":"西日暮里ふれあい館","province":"東京都","city":"荒川区","address":"東京都荒川区西日暮里6丁目24-4","lat":35.736316,"lon":139.770781},{"name":"ひぐらしふれあい館","province":"東京都","city":"荒川区","address":"東京都荒川区東日暮里6丁目28-15","lat":35.73307,"lon":139.776028},{"name":"荒川区役所北庁舎","province":"東京都","city":"荒川区","address":"東京都荒川区荒川2丁目11-1","lat":35.737082,"lon":139.783407},{"name":"がん予防・健康づくりセンター","province":"東京都","city":"荒川区","address":"東京都荒川区荒川2丁目12-5","lat":35.736785,"lon":139.783731},{"name":"荒川区立南千住図書館","province":"東京都","city":"荒川区","address":"東京都荒川区南千住6丁目63-1","lat":35.737235,"lon":139.795471},{"name":"荒川区立尾久図書館","province":"東京都","city":"荒川区","address":"東京都荒川区東尾久8丁目45","lat":35.750608,"lon":139.765919},{"name":"荒川区立町屋図書館","province":"東京都","city":"荒川区","address":"東京都荒川区町屋5丁目11-19","lat":35.75143,"lon":139.779006},{"name":"荒川区立日暮里図書館","province":"東京都","city":"荒川区","address":"東京都荒川区東日暮里6丁目38-4","lat":35.731195,"lon":139.77507},{"name":"荒川区立冠新道図書サービスステーション","province":"東京都","city":"荒川区","address":"東京都荒川区西日暮里6丁目25-14","lat":35.736868,"lon":139.770724},{"name":"荒川区立ゆいの森あらかわ","province":"東京都","city":"荒川区","address":"東京都荒川区荒川2丁目50-1","lat":35.739418,"lon":139.783954},{"name":"荒川区立生涯学習センター","province":"東京都","city":"荒川区","address":"東京都荒川区荒川3丁目49-1","lat":35.73497,"lon":139.780025},{"name":"荒川区立生涯学習センター","province":"東京都","city":"荒川区","address":"東京都荒川区荒川3丁目49-1","lat":35.734971,"lon":139.780069},{"name":"荒川区立町屋文化センター","province":"東京都","city":"荒川区","address":"東京都荒川区荒川7丁目20-1","lat":35.741766,"lon":139.782408},{"name":"荒川区立荒川ふるさと文化館","province":"東京都","city":"荒川区","address":"東京都荒川区南千住6丁目63-1","lat":35.737219,"lon":139.795495},{"name":"宮前公園","province":"東京都","city":"荒川区","address":"東京都荒川区東尾久8丁目46","lat":35.752209,"lon":139.766365},{"name":"日暮里サニーホール","province":"東京都","city":"荒川区","address":"東京都荒川区東日暮里5丁目50-5","lat":35.728104,"lon":139.773018},{"name":"ムーブ町屋","province":"東京都","city":"荒川区","address":"東京都荒川区荒川7丁目50-9","lat":35.742448,"lon":139.780719},{"name":"荒川区民会館","province":"東京都","city":"荒川区","address":"東京都荒川区荒川1丁目1-1","lat":35.735459,"lon":139.785192},{"name":"荒川区民会館","province":"東京都","city":"荒川区","address":"東京都荒川区荒川1丁目1-1","lat":35.734993,"lon":139.785045},{"name":"南千住三丁目公園","province":"東京都","city":"荒川区","address":"東京都荒川区南千住3丁目28","lat":35.728583,"lon":139.80809},{"name":"リバーハープ公園","province":"東京都","city":"荒川区","address":"東京都荒川区南千住4丁目9","lat":35.736028,"lon":139.804802},{"name":"天王公園","province":"東京都","city":"荒川区","address":"東京都荒川区南千住6丁目67","lat":35.738346,"lon":139.795289},{"name":"瑞光橋公園","province":"東京都","city":"荒川区","address":"東京都荒川区南千住8丁目18","lat":35.733925,"lon":139.808403},{"name":"荒川公園","province":"東京都","city":"荒川区","address":"東京都荒川区荒川2丁目2","lat":35.735246,"lon":139.784014},{"name":"荒川公園","province":"東京都","city":"荒川区","address":"東京都荒川区荒川2丁目13","lat":35.736451,"lon":139.784408},{"name":"三河島公園","province":"東京都","city":"荒川区","address":"東京都荒川区荒川8丁目25","lat":35.737353,"lon":139.78582},{"name":"荒川自然公園","province":"東京都","city":"荒川区","address":"東京都荒川区荒川8丁目25","lat":35.743193,"lon":139.787033},{"name":"荒川自然公園","province":"東京都","city":"荒川区","address":"東京都荒川区荒川8丁目25","lat":35.741098,"lon":139.786989},{"name":"荒川自然公園","province":"東京都","city":"荒川区","address":"東京都荒川区荒川8丁目25","lat":35.741098,"lon":139.786956},{"name":"荒川自然公園","province":"東京都","city":"荒川区","address":"東京都荒川区荒川8丁目25","lat":35.740617,"lon":139.785576},{"name":"町屋二丁目児童遊園","province":"東京都","city":"荒川区","address":"東京都荒川区町屋2丁目19","lat":35.74483,"lon":139.777346},{"name":"町屋六丁目北児童遊園","province":"東京都","city":"荒川区","address":"東京都荒川区町屋6丁目37","lat":35.752549,"lon":139.783838},{"name":"荒川区立荒川遊園","province":"東京都","city":"荒川区","address":"東京都荒川区西尾久8丁目1","lat":35.750942,"lon":139.757493},{"name":"東日暮里一丁目公園","province":"東京都","city":"荒川区","address":"東京都荒川区東日暮里1丁目17","lat":35.730422,"lon":139.78926},{"name":"日暮里南公園","province":"東京都","city":"荒川区","address":"東京都荒川区東日暮里5丁目19","lat":35.726559,"lon":139.777323},{"name":"西日暮里一丁目広場","province":"東京都","city":"荒川区","address":"東京都荒川区西日暮里1丁目6","lat":35.733281,"lon":139.776853},{"name":"町屋七丁目公園","province":"東京都","city":"荒川区","address":"東京都荒川区町屋7丁目16","lat":35.75011,"lon":139.789404},{"name":"西尾久七丁目児童遊園","province":"東京都","city":"荒川区","address":"東京都荒川区西尾久7丁目16","lat":35.749351,"lon":139.756262},{"name":"尾久小公園","province":"東京都","city":"荒川区","address":"東京都荒川区東尾久6丁目42","lat":35.748792,"lon":139.772128},{"name":"宮前公園","province":"東京都","city":"荒川区","address":"東京都荒川区東尾久8丁目45","lat":35.750825,"lon":139.76592},{"name":"宮前公園","province":"東京都","city":"荒川区","address":"東京都荒川区東尾久8丁目45","lat":35.751497,"lon":139.766008},{"name":"南千住第四児童遊園","province":"東京都","city":"荒川区","address":"東京都荒川区南千住1丁目56","lat":35.733443,"lon":139.792248},{"name":"日暮里公園","province":"東京都","city":"荒川区","address":"東京都荒川区東日暮里3丁目11","lat":35.729577,"lon":139.7821014},{"name":"地蔵堀児童遊園","province":"東京都","city":"荒川区","address":"東京都荒川区南千住6丁目11","lat":35.739345,"lon":139.789892},{"name":"ドナウ広場公衆トイレ","province":"東京都","city":"荒川区","address":"東京都荒川区南千住4丁目1","lat":35.732886,"lon":139.799923},{"name":"峡田児童遊園","province":"東京都","city":"荒川区","address":"東京都荒川区荒川1丁目55","lat":35.732989,"lon":139.786078},{"name":"藍染公園","province":"東京都","city":"荒川区","address":"東京都荒川区町屋1丁目34","lat":35.745036,"lon":139.785802},{"name":"町屋六丁目児童遊園","province":"東京都","city":"荒川区","address":"東京都荒川区町屋6丁目22","lat":35.751771,"lon":139.782951},{"name":"原稲荷公衆トイレ","province":"東京都","city":"荒川区","address":"東京都荒川区町屋2丁目8","lat":35.743841,"lon":139.780252},{"name":"あらかわエコセンター・たんぽぽセンター","province":"東京都","city":"荒川区","address":"東京都荒川区荒川1丁目53-20","lat":35.733077,"lon":139.784386},{"name":"日暮里駅東口公衆トイレ","province":"東京都","city":"荒川区","address":"東京都荒川区西日暮里2丁目19-10","lat":35.728849,"lon":139.770749},{"name":"日暮里駅西口公衆トイレ","province":"東京都","city":"荒川区","address":"東京都荒川区西日暮里2丁目19","lat":35.728078,"lon":139.770061},{"name":"南千住一丁目公衆トイレ","province":"東京都","city":"荒川区","address":"東京都荒川区南千住1丁目16","lat":35.73216,"lon":139.791748},{"name":"南千住一丁目公衆トイレ","province":"東京都","city":"荒川区","address":"東京都荒川区南千住1丁目16","lat":35.732149,"lon":139.791789},{"name":"あらかわリサイクルセンター","province":"東京都","city":"荒川区","address":"東京都荒川区南千住3丁目28-69","lat":35.728754,"lon":139.807974},{"name":"荒川さつき会館","province":"東京都","city":"荒川区","address":"東京都荒川区荒川8丁目16-13","lat":35.739382,"lon":139.787018},{"name":"男女平等推進センター（アクト２１）","province":"東京都","city":"荒川区","address":"東京都荒川区東尾久5丁目9","lat":35.748314,"lon":139.768985},{"name":"荒川区立障害者福祉会館（アクロスあらかわ）","province":"東京都","city":"荒川区","address":"東京都荒川区荒川2丁目57-8","lat":35.740538,"lon":139.783154},{"name":"荒川区立障害者福祉会館（アクロスあらかわ）","province":"東京都","city":"荒川区","address":"東京都荒川区荒川2丁目57-8","lat":35.740508,"lon":139.783155},{"name":"荒川総合スポーツセンター","province":"東京都","city":"荒川区","address":"東京都荒川区南千住6丁目45-5","lat":35.735724,"lon":139.79136},{"name":"荒川総合スポーツセンター","province":"東京都","city":"荒川区","address":"東京都荒川区南千住6丁目45-5","lat":35.735681,"lon":139.791366},{"name":"荒川総合スポーツセンター","province":"東京都","city":"荒川区","address":"東京都荒川区南千住6丁目45-5","lat":35.735779,"lon":139.790946},{"name":"荒川総合スポーツセンター","province":"東京都","city":"荒川区","address":"東京都荒川区南千住6丁目45-5","lat":35.735754,"lon":139.791024},{"name":"あらかわ遊園スポーツハウス","province":"東京都","city":"荒川区","address":"東京都荒川区西尾久8丁目3-1","lat":35.751875,"lon":139.757041},{"name":"区民運動場","province":"東京都","city":"荒川区","address":"東京都荒川区西尾久3丁目13","lat":35.753128,"lon":139.764926},{"name":"旧真土小学校跡地広場（真土小思い出広場）","province":"東京都","city":"荒川区","address":"東京都荒川区西日暮里1丁目5","lat":35.733539,"lon":139.777744},{"name":"東尾久運動場","province":"東京都","city":"荒川区","address":"東京都荒川区東尾久7丁目2","lat":35.749836,"lon":139.774345},{"name":"彰義隊戦死者墓","province":"東京都","city":"荒川区","address":"東京都荒川区南千住1-59-11","lat":35.73403,"lon":139.79286},{"name":"延命院のシイ","province":"東京都","city":"荒川区","address":"東京都荒川区西日暮里3-10-1","lat":35.72818,"lon":139.767723},{"name":"荒川区保健所（生活衛生課）","province":"東京都","city":"荒川区","address":"東京都荒川区荒川2丁目11-1","lat":35.73706089,"lon":139.78338914},{"name":"荒川区保健所（健康推進課）","province":"東京都","city":"荒川区","address":"東京都荒川区荒川2丁目11-1","lat":35.73706089,"lon":139.78338914},{"name":"荒川区保健所（保健予防課）","province":"東京都","city":"荒川区","address":"東京都荒川区荒川2丁目11-1","lat":35.73706089,"lon":139.78338914},{"name":"町屋保育園","province":"東京都","city":"荒川区","address":"荒川区町屋1-35-9","lat":35.74443,"lon":139.78592},{"name":"うぃず町屋保育園","province":"東京都","city":"荒川区","address":"荒川区町屋2-10-3","lat":35.74438,"lon":139.77937},{"name":"グローバルキッズ町屋保育園","province":"東京都","city":"荒川区","address":"荒川区町屋2-2-15","lat":35.7433,"lon":139.78041},{"name":"上智厚生館保育園","province":"東京都","city":"荒川区","address":"荒川区町屋4-9-10","lat":35.7471,"lon":139.77679},{"name":"原保育園","province":"東京都","city":"荒川区","address":"荒川区町屋5-11-16","lat":35.75109,"lon":139.77882},{"name":"尾久隣保館保育園","province":"東京都","city":"荒川区","address":"荒川区町屋6-28-11","lat":35.7522,"lon":139.7836},{"name":"キッズあおぞら保育園","province":"東京都","city":"荒川区","address":"荒川区荒川2-1-5セントラル荒川ビルディング2階","lat":35.73488,"lon":139.78474},{"name":"仁風保育園","province":"東京都","city":"荒川区","address":"荒川区荒川2-41-1","lat":35.73935,"lon":139.78325},{"name":"ドン・ボスコ保育園","province":"東京都","city":"荒川区","address":"荒川区荒川3-11-1","lat":35.73463,"lon":139.78378},{"name":"三河島保育園","province":"東京都","city":"荒川区","address":"荒川区荒川3-54-1","lat":35.73545,"lon":139.78017},{"name":"タムスわんぱく保育園荒川","province":"東京都","city":"荒川区","address":"荒川区荒川5-31-7","lat":35.73972,"lon":139.77371},{"name":"まなびの森保育園町屋","province":"東京都","city":"荒川区","address":"荒川区荒川7-41-8","lat":35.74149,"lon":139.7804},{"name":"黒川幼稚舎","province":"東京都","city":"荒川区","address":"荒川区荒川7-7-10","lat":35.7416208,"lon":139.7840197},{"name":"荒川さつき保育園","province":"東京都","city":"荒川区","address":"荒川区荒川8-25-4","lat":35.74152,"lon":139.78897},{"name":"第二南千住保育園","province":"東京都","city":"荒川区","address":"荒川区南千住2-21-6","lat":35.7305,"lon":139.79735},{"name":"南千住駅前保育所（おひさま保育園）","province":"東京都","city":"荒川区","address":"荒川区南千住4-3-2","lat":35.7322,"lon":139.7988},{"name":"コンビプラザ南千住保育園","province":"東京都","city":"荒川区","address":"荒川区南千住4-9-1リバーハープタワー南千住","lat":35.73629,"lon":139.80386},{"name":"南千住さくら保育園","province":"東京都","city":"荒川区","address":"荒川区南千住4-9-4","lat":35.73629,"lon":139.80386},{"name":"うぃず南千住駅前保育園","province":"東京都","city":"荒川区","address":"荒川区南千住5-23-14","lat":35.73261,"lon":139.79546},{"name":"太陽の子わかば保育園","province":"東京都","city":"荒川区","address":"荒川区南千住5-44-16ライオンズマンション1階","lat":35.73613,"lon":139.79652},{"name":"南千住保育園","province":"東京都","city":"荒川区","address":"荒川区南千住6-35-3","lat":35.73815,"lon":139.79155},{"name":"南千住七丁目保育園","province":"東京都","city":"荒川区","address":"荒川区南千住7-20-13","lat":35.73794,"lon":139.79846},{"name":"ぽけっとランド南千住瑞光保育園","province":"東京都","city":"荒川区","address":"荒川区南千住7-30-1","lat":35.73541,"lon":139.79979},{"name":"にじの森保育園","province":"東京都","city":"荒川区","address":"荒川区南千住8-13-1","lat":35.73654,"lon":139.80865},{"name":"汐入とちのき保育園","province":"東京都","city":"荒川区","address":"荒川区南千住8-3-3","lat":35.73655,"lon":139.80554},{"name":"にじの樹保育園","province":"東京都","city":"荒川区","address":"荒川区南千住8-5-2","lat":35.73819,"lon":139.80527},{"name":"はなみずき保育園","province":"東京都","city":"荒川区","address":"荒川区南千住8-5-5","lat":35.73819,"lon":139.80527},{"name":"汐入こども園","province":"東京都","city":"荒川区","address":"荒川区南千住8-9-3","lat":35.73887,"lon":139.81073},{"name":"大空と大地のなーさりぃ荒川西尾久園","province":"東京都","city":"荒川区","address":"荒川区西尾久1-28-10","lat":35.74627,"lon":139.76224},{"name":"小台ここわ保育園","province":"東京都","city":"荒川区","address":"荒川区西尾久3-21-12水島ビル2階","lat":35.75087,"lon":139.76157},{"name":"オランジェナーサリー","province":"東京都","city":"荒川区","address":"荒川区西尾久4-27-1ヴェルデ西尾久1F","lat":35.74561,"lon":139.75786},{"name":"西尾久みどり保育園","province":"東京都","city":"荒川区","address":"荒川区西尾久4-6-19","lat":35.74428,"lon":139.76088},{"name":"小台橋保育園","province":"東京都","city":"荒川区","address":"荒川区西尾久6-9-7","lat":35.75359,"lon":139.76082},{"name":"子供の家愛育保育園","province":"東京都","city":"荒川区","address":"荒川区西尾久7-26-4","lat":35.74834,"lon":139.75539},{"name":"上尾久保育園","province":"東京都","city":"荒川区","address":"荒川区西尾久8-10-12","lat":35.75256,"lon":139.75705},{"name":"AIAI NURSERY新三河島","province":"東京都","city":"荒川区","address":"荒川区東尾久1-1-4小澤ビル3階4階","lat":35.73801,"lon":139.77281},{"name":"東尾久保育園","province":"東京都","city":"荒川区","address":"荒川区東尾久2-28-3","lat":35.74192,"lon":139.77206},{"name":"ピノキオ幼児舎東尾久保育園","province":"東京都","city":"荒川区","address":"荒川区東尾久3-27-7","lat":35.74581,"lon":139.76979},{"name":"至誠会第二保育園","province":"東京都","city":"荒川区","address":"荒川区東尾久5-34-6","lat":35.74704,"lon":139.76726},{"name":"熊野前保育園","province":"東京都","city":"荒川区","address":"荒川区東尾久8-23-9","lat":35.75175,"lon":139.76941},{"name":"宮前　花と緑の保育園","province":"東京都","city":"荒川区","address":"荒川区東尾久8-45-24","lat":35.75112,"lon":139.76639},{"name":"AIAI NURSERY西日暮里一丁目","province":"東京都","city":"荒川区","address":"荒川区西日暮里1-1-1パレス石川2階","lat":35.73687,"lon":139.77606},{"name":"グローバルキッズ日暮里駅前保育園","province":"東京都","city":"荒川区","address":"荒川区西日暮里2-22-1ステーションプラザタワー3F","lat":35.72969,"lon":139.77057},{"name":"日暮里保育園","province":"東京都","city":"荒川区","address":"荒川区西日暮里2-2-7","lat":35.73326,"lon":139.77374},{"name":"日暮里きらきら保育園","province":"東京都","city":"荒川区","address":"荒川区西日暮里2-30-4ウェステリアXI1~4F","lat":35.73057,"lon":139.77222},{"name":"さくらさくみらい西日暮里","province":"東京都","city":"荒川区","address":"荒川区西日暮里4-10-12","lat":35.7331,"lon":139.76202},{"name":"ひぐらし保育園","province":"東京都","city":"荒川区","address":"荒川区西日暮里5-35-9","lat":35.73316,"lon":139.76733},{"name":"まなびの森保育園西日暮里","province":"東京都","city":"荒川区","address":"荒川区西日暮里6-21-2","lat":35.73534,"lon":139.77097},{"name":"西日暮里保育園","province":"東京都","city":"荒川区","address":"荒川区西日暮里6-25-3","lat":35.73668,"lon":139.77061},{"name":"上智聖ローザ保育園","province":"東京都","city":"荒川区","address":"荒川区西日暮里6-7-1","lat":35.73707,"lon":139.77254},{"name":"なかよし保育園","province":"東京都","city":"荒川区","address":"荒川区東日暮里1-17-2","lat":35.72997,"lon":139.78955},{"name":"第二東日暮里保育園","province":"東京都","city":"荒川区","address":"荒川区東日暮里1-17-21","lat":35.72997,"lon":139.78955},{"name":"夕やけこやけ保育園","province":"東京都","city":"荒川区","address":"荒川区東日暮里3-11-19","lat":35.72988,"lon":139.78169},{"name":"タムスわんぱく保育園東日暮里","province":"東京都","city":"荒川区","address":"荒川区東日暮里3-9-10","lat":35.72863,"lon":139.78262},{"name":"うぃず東日暮里保育園","province":"東京都","city":"荒川区","address":"荒川区東日暮里4-11-6","lat":35.72736,"lon":139.78215},{"name":"グローバルキッズ東日暮里園","province":"東京都","city":"荒川区","address":"荒川区東日暮里5-16-3リーデンスタワー1・2F","lat":35.72601,"lon":139.77615},{"name":"ポポラー東京東日暮里園","province":"東京都","city":"荒川区","address":"荒川区東日暮里6-1-1アトラスブランズタワー三河島2F","lat":35.73275,"lon":139.77827},{"name":"まなびの森保育園三河島","province":"東京都","city":"荒川区","address":"荒川区東日暮里6-2-14Frespo東日暮里5階","lat":35.73223,"lon":139.77808},{"name":"聖華ひなた保育園","province":"東京都","city":"荒川区","address":"荒川区東日暮里6-28-13","lat":35.73305,"lon":139.77603},{"name":"おぐのあかり","province":"東京都","city":"荒川区","address":"荒川区西尾久5-15-15","lat":35.74823,"lon":139.75977},{"name":"荒川区保健所（生活衛生課）","province":"東京都","city":"荒川区","address":"荒川区荒川2-11-1","lat":35.73694,"lon":139.78354},{"name":"荒川区保健所（健康推進課）","province":"東京都","city":"荒川区","address":"荒川区荒川2-11-1","lat":35.73694,"lon":139.78354},{"name":"荒川区保健所（保健予防課）","province":"東京都","city":"荒川区","address":"荒川区荒川2-11-1","lat":35.73694,"lon":139.78354},{"name":"荒川保育園","province":"東京都","city":"荒川区","address":"荒川区荒川5-50-15","lat":35.74051,"lon":139.7746},{"name":"荒川区立心身障害者福祉センター（荒川たんぽぽセンター）","province":"東京都","city":"荒川区","address":"東京都荒川区荒川1丁目53-20","lat":35.73304722,"lon":139.78448621},{"name":"ピノキオ幼児舎南千住保育園","province":"東京都","city":"荒川区","address":"荒川区南千住8-4-5けやき通り北参番館204","lat":35.73752,"lon":139.80653},{"name":"AIAI　NURSERY　新三河島","province":"東京都","city":"荒川区","address":"荒川区東尾久1-1-4小澤ビル3階4階","lat":35.73801,"lon":139.77281},{"name":"西尾久保育園","province":"東京都","city":"荒川区","address":"荒川区東尾久8-45-24","lat":35.75112,"lon":139.76639},{"name":"AIAI　NURSERY　西日暮里一丁目","province":"東京都","city":"荒川区","address":"荒川区西日暮里1-1-1パレス石川2階","lat":35.73687,"lon":139.77606},{"name":"AIAI NURSERY 新三河島","province":"東京都","city":"荒川区","address":"荒川区東尾久1-1-4小澤ビル3階4階","lat":35.73801,"lon":139.77281},{"name":"AIAI NURSERY 西日暮里一丁目","province":"東京都","city":"荒川区","address":"荒川区西日暮里1-1-1パレス石川2階","lat":35.73687,"lon":139.77606},{"name":"東日暮里わんぱく保育園","province":"東京都","city":"荒川区","address":"荒川区東日暮里3-9-10","lat":35.72863,"lon":139.78262},{"name":"西尾久保育園","province":"東京都","city":"荒川区","address":"荒川区西尾久5-3-17","lat":35.74855,"lon":139.76099},{"name":"小台橋保育園","province":"東京都","city":"荒川区","address":"荒川区西尾久6-9-7","lat":35.75112,"lon":139.76639},{"name":"あいあい保育園新三河島園","province":"東京都","city":"荒川区","address":"荒川区東尾久1-1-4小澤ビル3・4階","lat":35.73801,"lon":139.77281},{"name":"あい・あい保育園　西日暮里一丁目園","province":"東京都","city":"荒川区","address":"荒川区西日暮里1-1-1パレス石川2階","lat":35.73687,"lon":139.77606},{"name":"原保育園","province":"東京都","city":"荒川区","address":"荒川区町屋5-11-16","lat":35.7511,"lon":139.77882},{"name":"にじの森保育園","province":"東京都","city":"荒川区","address":"荒川区南千住8-13-1","lat":35.73654,"lon":139.80866},{"name":"熊野前保育園","province":"東京都","city":"荒川区","address":"荒川区東尾久8-23-9","lat":35.75176,"lon":139.76941},{"name":"西日暮里保育園","province":"東京都","city":"荒川区","address":"荒川区西日暮里6-25-3","lat":35.73668,"lon":139.77062},{"name":"日暮里保育園","province":"東京都","city":"荒川区","address":"荒川区西日暮里2-2-7","lat":35.73327,"lon":139.77374},{"name":"ポポラー東京東日暮里園","province":"東京都","city":"荒川区","address":"荒川区東日暮里6-1-1アトラスブランズタワー三河島2F","lat":35.73275,"lon":139.77828},{"name":"太陽の子わかば保育園","province":"東京都","city":"荒川区","address":"荒川区南千住5-44-16ライオンズマンション1階","lat":35.73289,"lon":139.80272},{"name":"おぐのあかり","province":"東京都","city":"荒川区","address":"荒川区西尾久5-15-15","lat":35.748185,"lon":139.759173},{"name":"AIAI　NURSERY新三河島","province":"東京都","city":"荒川区","address":"東京都荒川区東尾久1-1-43F・4F","lat":35.73811,"lon":139.77284},{"name":"AIAI　NURSERY西日暮里一丁目","province":"東京都","city":"荒川区","address":"東京都荒川区西日暮里1-1-12F","lat":35.73686,"lon":139.77592},{"name":"MIRATZ東尾久保育園","province":"東京都","city":"荒川区","address":"東京都荒川区東尾久4-1-131F","lat":35.74007,"lon":139.76849},{"name":"上尾久保育園","province":"東京都","city":"荒川区","address":"東京都荒川区西尾久8-10-12","lat":35.75241,"lon":139.75657},{"name":"荒川さつき保育園","province":"東京都","city":"荒川区","address":"東京都荒川区荒川8-25-4","lat":35.73737,"lon":139.78613},{"name":"荒川保育園","province":"東京都","city":"荒川区","address":"東京都荒川区荒川5-50-15","lat":35.74015,"lon":139.77493},{"name":"至誠会第二保育園","province":"東京都","city":"荒川区","address":"東京都荒川区東尾久5-34-6","lat":35.74708,"lon":139.76725},{"name":"うぃず東日暮里保育園","province":"東京都","city":"荒川区","address":"東京都荒川区東日暮里4-11-6","lat":35.7274,"lon":139.78195},{"name":"うぃず町屋保育園","province":"東京都","city":"荒川区","address":"東京都荒川区町屋2-10-3","lat":35.74424,"lon":139.77926},{"name":"うぃず南千住駅前保育園","province":"東京都","city":"荒川区","address":"東京都荒川区南千住5-23-14","lat":35.73247,"lon":139.79612},{"name":"大空と大地のなーさりぃ荒川西尾久園","province":"東京都","city":"荒川区","address":"東京都荒川区西尾久1-28-10","lat":35.74631,"lon":139.76211},{"name":"尾久隣保館保育園","province":"東京都","city":"荒川区","address":"東京都荒川区町屋6-28-11","lat":35.75223,"lon":139.7837},{"name":"小台橋保育園","province":"東京都","city":"荒川区","address":"東京都荒川区西尾久6-9-7","lat":35.75353,"lon":139.76048},{"name":"小台ここわ保育園","province":"東京都","city":"荒川区","address":"東京都荒川区西尾久3-21-12水島ビル2F","lat":35.75097,"lon":139.76178},{"name":"おはな保育室","province":"東京都","city":"荒川区","address":"東京都荒川区荒川1-37-4","lat":35.73341,"lon":139.78762},{"name":"オランジェナーサリー","province":"東京都","city":"荒川区","address":"東京都荒川区西尾久4-27-1ヴェルデ西尾久1F","lat":35.74556,"lon":139.75801},{"name":"オランジェナーサリー分園","province":"東京都","city":"荒川区","address":"東京都荒川区西尾久6-30-16エスパシオルイヨム1F","lat":35.75094,"lon":139.75849},{"name":"家庭的保育室スノードロップ","province":"東京都","city":"荒川区","address":"東京都荒川区南千住6-50-3","lat":35.73586,"lon":139.79393},{"name":"かんかんもり保育園","province":"東京都","city":"荒川区","address":"東京都荒川区東日暮里2-15-71F","lat":35.72969,"lon":139.78588},{"name":"キッズあおぞら保育園","province":"東京都","city":"荒川区","address":"東京都荒川区荒川2-1-52F","lat":35.73506,"lon":139.78472},{"name":"熊野前保育園","province":"東京都","city":"荒川区","address":"東京都荒川区東尾久8-23-9","lat":35.75177,"lon":139.76939},{"name":"黒川幼稚舎","province":"東京都","city":"荒川区","address":"東京都荒川区荒川7-7-10","lat":35.74161,"lon":139.78402},{"name":"グローバルキッズ日暮里駅前保育園","province":"東京都","city":"荒川区","address":"東京都荒川区西日暮里2-22-1ステーションプラザタワー3F","lat":35.72973,"lon":139.77058},{"name":"グローバルキッズ東日暮里園","province":"東京都","city":"荒川区","address":"東京都荒川区東日暮里5-16-3リーデンスタワー1・2F","lat":35.72618,"lon":139.77642},{"name":"グローバルキッズ町屋保育園","province":"東京都","city":"荒川区","address":"東京都荒川区町屋2-2-15","lat":35.74384,"lon":139.78105},{"name":"子供の家愛育保育園","province":"東京都","city":"荒川区","address":"東京都荒川区西尾久7-26-4","lat":35.74824,"lon":139.75529},{"name":"コンビプラザ南千住保育園","province":"東京都","city":"荒川区","address":"東京都荒川区南千住4-9-1リバーハープタワー南千住1棟1F","lat":35.73566,"lon":139.80332},{"name":"さくらさくみらい西日暮里","province":"東京都","city":"荒川区","address":"東京都荒川区西日暮里4-10-12","lat":35.73303,"lon":139.76232},{"name":"汐入こども園","province":"東京都","city":"荒川区","address":"東京都荒川区南千住8-9-3","lat":35.73892,"lon":139.8116},{"name":"汐入とちのき保育園","province":"東京都","city":"荒川区","address":"東京都荒川区南千住8-3-3","lat":35.73603,"lon":139.80558},{"name":"上智聖ローザ保育園","province":"東京都","city":"荒川区","address":"東京都荒川区西日暮里6-7-1","lat":35.73724,"lon":139.77246},{"name":"上智厚生館保育園","province":"東京都","city":"荒川区","address":"東京都荒川区町屋4-9-10","lat":35.74696,"lon":139.77679},{"name":"上智厚生館保育園分園","province":"東京都","city":"荒川区","address":"東京都荒川区町屋4-14-7","lat":35.74656,"lon":139.77763},{"name":"仁風保育園","province":"東京都","city":"荒川区","address":"東京都荒川区荒川2-41-1","lat":35.73937,"lon":139.78324},{"name":"太陽の子わかば保育園","province":"東京都","city":"荒川区","address":"東京都荒川区南千住5-44-16","lat":35.736,"lon":139.79673},{"name":"タムスわんぱく保育園荒川","province":"東京都","city":"荒川区","address":"東京都荒川区荒川5-31-73?4F","lat":35.73972,"lon":139.77374},{"name":"タムスわんぱく保育園東日暮里","province":"東京都","city":"荒川区","address":"東京都荒川区東日暮里3-9-10","lat":35.72829,"lon":139.78273},{"name":"第二東日暮里保育園","province":"東京都","city":"荒川区","address":"東京都荒川区東日暮里1-17-21","lat":35.73011,"lon":139.78944},{"name":"第二南千住保育園","province":"東京都","city":"荒川区","address":"東京都荒川区南千住2-21-6","lat":35.73037,"lon":139.79742},{"name":"ドン・ボスコ保育園","province":"東京都","city":"荒川区","address":"東京都荒川区荒川3-11-1","lat":35.73439,"lon":139.78375},{"name":"なかよし保育園","province":"東京都","city":"荒川区","address":"東京都荒川区東日暮里1-17-2","lat":35.73044,"lon":139.78952},{"name":"西尾久みどり保育園","province":"東京都","city":"荒川区","address":"東京都荒川区西尾久4-6-19","lat":35.74423,"lon":139.76106},{"name":"西日暮里保育園","province":"東京都","city":"荒川区","address":"東京都荒川区西日暮里6-25-3","lat":35.73668,"lon":139.77064},{"name":"にじの樹保育園","province":"東京都","city":"荒川区","address":"東京都荒川区南千住8-5-2","lat":35.73905,"lon":139.80715},{"name":"にじの森保育園","province":"東京都","city":"荒川区","address":"東京都荒川区南千住8-13-1","lat":35.73624,"lon":139.80931},{"name":"日暮里きらきら保育園","province":"東京都","city":"荒川区","address":"東京都荒川区西日暮里2-30-41?4F","lat":35.73032,"lon":139.77221},{"name":"日暮里保育園","province":"東京都","city":"荒川区","address":"東京都荒川区西日暮里2-2-7","lat":35.73286,"lon":139.77415},{"name":"はなみずき保育園","province":"東京都","city":"荒川区","address":"東京都荒川区南千住8-5-5","lat":35.73839,"lon":139.80735},{"name":"原保育園","province":"東京都","city":"荒川区","address":"東京都荒川区町屋5-11-16","lat":35.75111,"lon":139.77882},{"name":"ハローフレンズ保育園","province":"東京都","city":"荒川区","address":"東京都荒川区西日暮里1-57-13","lat":35.73563,"lon":139.77191},{"name":"東尾久保育園","province":"東京都","city":"荒川区","address":"東京都荒川区東尾久2-28-3","lat":35.74192,"lon":139.77186},{"name":"ひぐらし保育園","province":"東京都","city":"荒川区","address":"東京都荒川区西日暮里5-35-9","lat":35.73325,"lon":139.76739},{"name":"聖華ひなた保育園","province":"東京都","city":"荒川区","address":"東京都荒川区東日暮里6-28-13","lat":35.73308,"lon":139.77577},{"name":"ピノキオ幼児舎東尾久保育園","province":"東京都","city":"荒川区","address":"東京都荒川区東尾久3-27-72F","lat":35.7458,"lon":139.76968},{"name":"フレンズ保育園","province":"東京都","city":"荒川区","address":"東京都荒川区東日暮里3-11-26","lat":35.73014,"lon":139.78195},{"name":"ぽけっとランド南千住瑞光保育園","province":"東京都","city":"荒川区","address":"東京都荒川区南千住7-30-1","lat":35.73471,"lon":139.79963},{"name":"ポポラー東京東日暮里園","province":"東京都","city":"荒川区","address":"東京都荒川区東日暮里6-1-1アトラスブランズタワー三河島2F","lat":35.73272,"lon":139.77825},{"name":"町屋保育園","province":"東京都","city":"荒川区","address":"東京都荒川区町屋1-35-9","lat":35.74441,"lon":139.78585},{"name":"まなびの森保育園西日暮里","province":"東京都","city":"荒川区","address":"東京都荒川区西日暮里6-21-2","lat":35.73533,"lon":139.77095},{"name":"まなびの森保育園町屋","province":"東京都","city":"荒川区","address":"東京都荒川区荒川7-41-8","lat":35.74126,"lon":139.78013},{"name":"まなびの森保育園三河島","province":"東京都","city":"荒川区","address":"東京都荒川区東日暮里6-2-145F","lat":35.73234,"lon":139.77809},{"name":"三河島保育園","province":"東京都","city":"荒川区","address":"東京都荒川区荒川3-54-1","lat":35.73556,"lon":139.78016},{"name":"南千住駅前保育所","province":"東京都","city":"荒川区","address":"東京都荒川区南千住4-3-2","lat":35.73279,"lon":139.79888},{"name":"南千住さくら保育園","province":"東京都","city":"荒川区","address":"東京都荒川区南千住4-9-4","lat":35.73685,"lon":139.80456},{"name":"南千住七丁目保育園","province":"東京都","city":"荒川区","address":"東京都荒川区南千住7-20-13","lat":35.73823,"lon":139.79872},{"name":"南千住保育園","province":"東京都","city":"荒川区","address":"東京都荒川区南千住6-35-3","lat":35.73819,"lon":139.79155},{"name":"宮前　花と緑の保育園","province":"東京都","city":"荒川区","address":"東京都荒川区東尾久8-45-24","lat":35.75186,"lon":139.76637},{"name":"夕やけこやけ保育園","province":"東京都","city":"荒川区","address":"東京都荒川区東日暮里3-11-19","lat":35.72993,"lon":139.78146},{"name":"ワタナベ学園","province":"東京都","city":"荒川区","address":"東京都荒川区町屋2-15-5","lat":35.74371,"lon":139.77839},{"name":"ワタナベ学園分園","province":"東京都","city":"荒川区","address":"東京都荒川区町屋2-17-21F","lat":35.74379,"lon":139.77725},{"name":"東京女子医科大学東医療センター","province":"東京都","city":"荒川区","address":"東京都荒川区西尾久2丁目1-10","lat":35.74831628,"lon":139.7653279},{"name":"町屋斎場","province":"東京都","city":"荒川区","address":"東京都荒川区町屋1丁目23-4","lat":35.74417616,"lon":139.78429088},{"name":"南千住給水所","province":"東京都","city":"荒川区","address":"東京都荒川区南千住8丁目2-6","lat":35.73577514,"lon":139.80766775},{"name":"東尾久運動場多目的広場","province":"東京都","city":"荒川区","address":"東京都荒川区東尾久6丁目46","lat":35.74849157,"lon":139.77175799},{"name":"都立尾久の原公園多目的広場第二サッカーグラウンド","province":"東京都","city":"荒川区","address":"東京都荒川区東尾久7丁目1-1","lat":35.75213275,"lon":139.77513791},{"name":"都立汐入公園多目的広場","province":"東京都","city":"荒川区","address":"東京都荒川区南千住8丁目13","lat":35.73642518,"lon":139.81024806},{"name":"荒川区立南千住野球場","province":"東京都","city":"荒川区","address":"東京都荒川区南千住6丁目45","lat":35.73607733,"lon":139.79205464},{"name":"荒川区選挙管理委員会","province":"東京都","city":"荒川区","address":"荒川区荒川2-2-3","lat":35.736056,"lon":139.783364},{"name":"まちや","province":"東京都","city":"荒川区","address":"荒川区町屋4-9-5","lat":35.747117,"lon":139.776586},{"name":"荒川区保健所","province":"東京都","city":"荒川区","address":"東京都荒川区荒川2丁目11-1","lat":35.73706089,"lon":139.78338914},{"name":"首都大学東京荒川キャンパス","province":"東京都","city":"荒川区","address":"東京都荒川区東尾久7丁目2-10","lat":35.74998303,"lon":139.77211339},{"name":"荒川都税事務所","province":"東京都","city":"荒川区","address":"東京都荒川区西日暮里2丁目25-1","lat":35.7295939,"lon":139.77148686},{"name":"荒川工業高等学校","province":"東京都","city":"荒川区","address":"東京都荒川区南千住6丁目42-1","lat":35.7373272,"lon":139.79221569},{"name":"竹台高等学校","province":"東京都","city":"荒川区","address":"東京都荒川区東日暮里5丁目14-1","lat":35.72586666,"lon":139.7777754},{"name":"サンパール荒川","province":"東京都","city":"荒川区","address":"東京都荒川区荒川1丁目1-1","lat":35.73521383,"lon":139.78510844},{"name":"荒川区本庁舎","province":"東京都","city":"荒川区","address":"荒川区荒川2-2-3","lat":35.736083,"lon":139.783372},{"name":"東京ガス（株）千住ビル","province":"東京都","city":"荒川区","address":"荒川区南千住3-13-1","lat":35.73191,"lon":139.8083},{"name":"ワタナベ学園","province":"東京都","city":"荒川区","address":"荒川区町屋2-15-5","lat":35.743718,"lon":139.778389},{"name":"上智厚生館保育園","province":"東京都","city":"荒川区","address":"荒川区町屋4-9-10","lat":35.747231,"lon":139.776805},{"name":"尾久隣保館保育園","province":"東京都","city":"荒川区","address":"荒川区町屋6-28-11","lat":35.752155,"lon":139.783726},{"name":"町屋保育園","province":"東京都","city":"荒川区","address":"荒川区町屋1-35-9","lat":35.744396,"lon":139.785821},{"name":"原保育園","province":"東京都","city":"荒川区","address":"荒川区町屋5-11-16","lat":35.751441,"lon":139.779051},{"name":"うぃず町屋保育園","province":"東京都","city":"荒川区","address":"荒川区町屋2-10-3","lat":35.74424,"lon":139.779266},{"name":"仁風保育園","province":"東京都","city":"荒川区","address":"荒川区荒川2-41-1","lat":35.739391,"lon":139.783208},{"name":"ドン・ボスコ保育園","province":"東京都","city":"荒川区","address":"荒川区荒川3-11-1","lat":35.7347,"lon":139.783728},{"name":"荒川さつき保育園","province":"東京都","city":"荒川区","address":"荒川区荒川8-25-4","lat":35.737352,"lon":139.786192},{"name":"荒川保育園","province":"東京都","city":"荒川区","address":"荒川区荒川5-50-15","lat":35.740196,"lon":139.774942},{"name":"三河島保育園","province":"東京都","city":"荒川区","address":"荒川区荒川3-54-1","lat":35.73555,"lon":139.780136},{"name":"キッズあおぞら保育園","province":"東京都","city":"荒川区","address":"荒川区荒川2-1-5セントラル荒川ビルディング2階","lat":35.735078,"lon":139.784731},{"name":"まなびの森保育園町屋","province":"東京都","city":"荒川区","address":"荒川区荒川7-41-8","lat":35.74164,"lon":139.780628},{"name":"第二南千住保育園","province":"東京都","city":"荒川区","address":"荒川区南千住2-21-6","lat":35.730477,"lon":139.796823},{"name":"南千住さくら保育園","province":"東京都","city":"荒川区","address":"荒川区南千住4-9-4","lat":35.736955,"lon":139.804534},{"name":"南千住駅前保育所（おひさま保育園）","province":"東京都","city":"荒川区","address":"荒川区南千住4-3-2","lat":35.732783,"lon":139.798918},{"name":"南千住保育園","province":"東京都","city":"荒川区","address":"荒川区南千住6-35-3","lat":35.73813,"lon":139.791574},{"name":"南千住七丁目保育園","province":"東京都","city":"荒川区","address":"荒川区南千住7-20-13","lat":35.738233,"lon":139.798704},{"name":"にじの樹保育園","province":"東京都","city":"荒川区","address":"荒川区南千住8-5-2","lat":35.739025,"lon":139.807137},{"name":"ぽけっとランド南千住瑞光保育園","province":"東京都","city":"荒川区","address":"荒川区南千住7-30-1","lat":35.735005,"lon":139.799723},{"name":"はなみずき保育園","province":"東京都","city":"荒川区","address":"荒川区南千住8-5-5","lat":35.738386,"lon":139.807354},{"name":"汐入こども園","province":"東京都","city":"荒川区","address":"荒川区南千住8-9-3","lat":35.73895,"lon":139.811625},{"name":"汐入とちのき保育園","province":"東京都","city":"荒川区","address":"荒川区南千住8-3-3","lat":35.736017,"lon":139.80569},{"name":"コンビプラザ南千住保育園","province":"東京都","city":"荒川区","address":"荒川区南千住4-9-1リバーハープタワー南千住","lat":35.735728,"lon":139.803321},{"name":"ピノキオ幼児舎南千住保育園","province":"東京都","city":"荒川区","address":"荒川区南千住8-4-5けやき通り北参番館204","lat":35.737239,"lon":139.807234},{"name":"太陽の子わかば保育園","province":"東京都","city":"荒川区","address":"荒川区南千住5-44-16ライオンズマンション1階","lat":35.735974,"lon":139.796754},{"name":"にじの森保育園","province":"東京都","city":"荒川区","address":"荒川区南千住8-13-1","lat":35.7366,"lon":139.809226},{"name":"うぃず南千住駅前保育園","province":"東京都","city":"荒川区","address":"荒川区南千住5-23-14","lat":35.732699,"lon":139.796054},{"name":"上尾久保育園","province":"東京都","city":"荒川区","address":"荒川区西尾久8-10-12","lat":35.752351,"lon":139.756573},{"name":"西尾久みどり保育園","province":"東京都","city":"荒川区","address":"荒川区西尾久4-6-19","lat":35.744244,"lon":139.761015},{"name":"西尾久保育園","province":"東京都","city":"荒川区","address":"荒川区西尾久5-3-17","lat":35.74893,"lon":139.761225},{"name":"子供の家愛育保育園","province":"東京都","city":"荒川区","address":"荒川区西尾久7-26-4","lat":35.748257,"lon":139.755306},{"name":"小台橋保育園","province":"東京都","city":"荒川区","address":"荒川区西尾久6-9-7","lat":35.753704,"lon":139.760806},{"name":"小台ここわ保育園","province":"東京都","city":"荒川区","address":"荒川区西尾久3-21-12水島ビル2階","lat":35.750966,"lon":139.761725},{"name":"東尾久保育園","province":"東京都","city":"荒川区","address":"荒川区東尾久2-28-3","lat":35.741879,"lon":139.771836},{"name":"熊野前保育園","province":"東京都","city":"荒川区","address":"荒川区東尾久8-23-9","lat":35.751783,"lon":139.7694},{"name":"至誠会第二保育園","province":"東京都","city":"荒川区","address":"荒川区東尾久5-34-6","lat":35.747075,"lon":139.767242},{"name":"あいあい保育園新三河島園","province":"東京都","city":"荒川区","address":"荒川区東尾久1-1-4小澤ビル3階4階","lat":35.738138,"lon":139.772867},{"name":"西日暮里保育園","province":"東京都","city":"荒川区","address":"荒川区西日暮里6-25-3","lat":35.736599,"lon":139.770628},{"name":"グローバルキッズ日暮里駅前保育園","province":"東京都","city":"荒川区","address":"荒川区西日暮里2-22-1ステーションプラザタワー3F","lat":35.729742,"lon":139.770568},{"name":"ひぐらし保育園","province":"東京都","city":"荒川区","address":"荒川区西日暮里5-35-9","lat":35.733266,"lon":139.767393},{"name":"日暮里きらきら保育園","province":"東京都","city":"荒川区","address":"荒川区西日暮里2-30-4","lat":35.730347,"lon":139.772217},{"name":"あい・あい保育園　西日暮里一丁目園","province":"東京都","city":"荒川区","address":"荒川区西日暮里1-1-1パレスいしかわ2階","lat":35.736874,"lon":139.775906},{"name":"第二東日暮里保育園","province":"東京都","city":"荒川区","address":"荒川区東日暮里1-17-21","lat":35.730111,"lon":139.789427},{"name":"東日暮里保育園","province":"東京都","city":"荒川区","address":"荒川区東日暮里6-28-15","lat":35.733002,"lon":139.775884},{"name":"夕やけこやけ保育園","province":"東京都","city":"荒川区","address":"荒川区東日暮里3-11-19","lat":35.729964,"lon":139.781378},{"name":"うぃず東日暮里保育園","province":"東京都","city":"荒川区","address":"荒川区東日暮里4-11-6","lat":35.727411,"lon":139.781942},{"name":"グローバルキッズ東日暮里園","province":"東京都","city":"荒川区","address":"荒川区東日暮里5-16-3リーデンスタワー1・2F","lat":35.72623,"lon":139.776273},{"name":"ポポラー東京東日暮里園","province":"東京都","city":"荒川区","address":"荒川区東日暮里6-1-1アトラスブランズタワー三河島2F","lat":35.732736,"lon":139.778136},{"name":"東日暮里わんぱく保育園","province":"東京都","city":"荒川区","address":"荒川区東日暮里3-9-10","lat":35.728303,"lon":139.782719},{"name":"荒川区保健所（生活衛生課）","province":"東京都","city":"荒川区","address":"荒川区荒川2-11-1","lat":35.737061,"lon":139.783389},{"name":"荒川区保健所（健康推進課）","province":"東京都","city":"荒川区","address":"荒川区荒川2-11-1","lat":35.737061,"lon":139.783389},{"name":"荒川区保健所（保健予防課）","province":"東京都","city":"荒川区","address":"荒川区荒川2-11-1","lat":35.737061,"lon":139.783389},{"name":"彰義隊戦死者墓","province":"東京都","city":"荒川区","address":"東京都荒川区南千住1-59-11","lat":35.73403,"lon":139.79286},{"name":"延命院のシイ","province":"東京都","city":"荒川区","address":"東京都荒川区西日暮里3-10-1","lat":35.72818,"lon":139.767723},{"name":"町屋保育園","province":"東京都","city":"荒川区","address":"荒川区町屋1-35-9","lat":35.74443,"lon":139.78592},{"name":"うぃず町屋保育園","province":"東京都","city":"荒川区","address":"荒川区町屋2-10-3","lat":35.74438,"lon":139.77937},{"name":"グローバルキッズ町屋保育園","province":"東京都","city":"荒川区","address":"荒川区町屋2-2-15","lat":35.7433,"lon":139.78041},{"name":"上智厚生館保育園","province":"東京都","city":"荒川区","address":"荒川区町屋4-9-10","lat":35.7471,"lon":139.77679},{"name":"原保育園","province":"東京都","city":"荒川区","address":"荒川区町屋5-11-16","lat":35.75109,"lon":139.77882},{"name":"尾久隣保館保育園","province":"東京都","city":"荒川区","address":"荒川区町屋6-28-11","lat":35.7522,"lon":139.7836},{"name":"キッズあおぞら保育園","province":"東京都","city":"荒川区","address":"荒川区荒川2-1-5セントラル荒川ビルディング2階","lat":35.73488,"lon":139.78474},{"name":"仁風保育園","province":"東京都","city":"荒川区","address":"荒川区荒川2-41-1","lat":35.73935,"lon":139.78325},{"name":"ドン・ボスコ保育園","province":"東京都","city":"荒川区","address":"荒川区荒川3-11-1","lat":35.73463,"lon":139.78378},{"name":"三河島保育園","province":"東京都","city":"荒川区","address":"荒川区荒川3-54-1","lat":35.73545,"lon":139.78017},{"name":"タムスわんぱく保育園荒川","province":"東京都","city":"荒川区","address":"荒川区荒川5-31-7","lat":35.73972,"lon":139.77371},{"name":"まなびの森保育園町屋","province":"東京都","city":"荒川区","address":"荒川区荒川7-41-8","lat":35.74149,"lon":139.7804},{"name":"黒川幼稚舎","province":"東京都","city":"荒川区","address":"荒川区荒川7-7-10","lat":35.7416208,"lon":139.7840197},{"name":"荒川さつき保育園","province":"東京都","city":"荒川区","address":"荒川区荒川8-25-4","lat":35.74152,"lon":139.78897},{"name":"第二南千住保育園","province":"東京都","city":"荒川区","address":"荒川区南千住2-21-6","lat":35.7305,"lon":139.79735},{"name":"南千住駅前保育所（おひさま保育園）","province":"東京都","city":"荒川区","address":"荒川区南千住4-3-2","lat":35.7322,"lon":139.7988},{"name":"コンビプラザ南千住保育園","province":"東京都","city":"荒川区","address":"荒川区南千住4-9-1リバーハープタワー南千住","lat":35.73629,"lon":139.80386},{"name":"南千住さくら保育園","province":"東京都","city":"荒川区","address":"荒川区南千住4-9-4","lat":35.73629,"lon":139.80386},{"name":"うぃず南千住駅前保育園","province":"東京都","city":"荒川区","address":"荒川区南千住5-23-14","lat":35.73261,"lon":139.79546},{"name":"太陽の子わかば保育園","province":"東京都","city":"荒川区","address":"荒川区南千住5-44-16ライオンズマンション1階","lat":35.73613,"lon":139.79652},{"name":"南千住保育園","province":"東京都","city":"荒川区","address":"荒川区南千住6-35-3","lat":35.73815,"lon":139.79155},{"name":"南千住七丁目保育園","province":"東京都","city":"荒川区","address":"荒川区南千住7-20-13","lat":35.73794,"lon":139.79846},{"name":"ぽけっとランド南千住瑞光保育園","province":"東京都","city":"荒川区","address":"荒川区南千住7-30-1","lat":35.73541,"lon":139.79979},{"name":"にじの森保育園","province":"東京都","city":"荒川区","address":"荒川区南千住8-13-1","lat":35.73654,"lon":139.80865},{"name":"汐入とちのき保育園","province":"東京都","city":"荒川区","address":"荒川区南千住8-3-3","lat":35.73655,"lon":139.80554},{"name":"にじの樹保育園","province":"東京都","city":"荒川区","address":"荒川区南千住8-5-2","lat":35.73819,"lon":139.80527},{"name":"はなみずき保育園","province":"東京都","city":"荒川区","address":"荒川区南千住8-5-5","lat":35.73819,"lon":139.80527},{"name":"汐入こども園","province":"東京都","city":"荒川区","address":"荒川区南千住8-9-3","lat":35.73887,"lon":139.81073},{"name":"大空と大地のなーさりぃ荒川西尾久園","province":"東京都","city":"荒川区","address":"荒川区西尾久1-28-10","lat":35.74627,"lon":139.76224},{"name":"小台ここわ保育園","province":"東京都","city":"荒川区","address":"荒川区西尾久3-21-12水島ビル2階","lat":35.75087,"lon":139.76157},{"name":"オランジェナーサリー","province":"東京都","city":"荒川区","address":"荒川区西尾久4-27-1ヴェルデ西尾久1F","lat":35.74561,"lon":139.75786},{"name":"西尾久みどり保育園","province":"東京都","city":"荒川区","address":"荒川区西尾久4-6-19","lat":35.74428,"lon":139.76088},{"name":"小台橋保育園","province":"東京都","city":"荒川区","address":"荒川区西尾久6-9-7","lat":35.75359,"lon":139.76082},{"name":"子供の家愛育保育園","province":"東京都","city":"荒川区","address":"荒川区西尾久7-26-4","lat":35.74834,"lon":139.75539},{"name":"上尾久保育園","province":"東京都","city":"荒川区","address":"荒川区西尾久8-10-12","lat":35.75256,"lon":139.75705},{"name":"AIAI NURSERY新三河島","province":"東京都","city":"荒川区","address":"荒川区東尾久1-1-4小澤ビル3階4階","lat":35.73801,"lon":139.77281},{"name":"東尾久保育園","province":"東京都","city":"荒川区","address":"荒川区東尾久2-28-3","lat":35.74192,"lon":139.77206},{"name":"ピノキオ幼児舎東尾久保育園","province":"東京都","city":"荒川区","address":"荒川区東尾久3-27-7","lat":35.74581,"lon":139.76979},{"name":"至誠会第二保育園","province":"東京都","city":"荒川区","address":"荒川区東尾久5-34-6","lat":35.74704,"lon":139.76726},{"name":"熊野前保育園","province":"東京都","city":"荒川区","address":"荒川区東尾久8-23-9","lat":35.75175,"lon":139.76941},{"name":"宮前　花と緑の保育園","province":"東京都","city":"荒川区","address":"荒川区東尾久8-45-24","lat":35.75112,"lon":139.76639},{"name":"AIAI NURSERY西日暮里一丁目","province":"東京都","city":"荒川区","address":"荒川区西日暮里1-1-1パレス石川2階","lat":35.73687,"lon":139.77606},{"name":"グローバルキッズ日暮里駅前保育園","province":"東京都","city":"荒川区","address":"荒川区西日暮里2-22-1ステーションプラザタワー3F","lat":35.72969,"lon":139.77057},{"name":"日暮里保育園","province":"東京都","city":"荒川区","address":"荒川区西日暮里2-2-7","lat":35.73326,"lon":139.77374},{"name":"日暮里きらきら保育園","province":"東京都","city":"荒川区","address":"荒川区西日暮里2-30-4ウェステリアXI1~4F","lat":35.73057,"lon":139.77222},{"name":"さくらさくみらい西日暮里","province":"東京都","city":"荒川区","address":"荒川区西日暮里4-10-12","lat":35.7331,"lon":139.76202},{"name":"ひぐらし保育園","province":"東京都","city":"荒川区","address":"荒川区西日暮里5-35-9","lat":35.73316,"lon":139.76733},{"name":"まなびの森保育園西日暮里","province":"東京都","city":"荒川区","address":"荒川区西日暮里6-21-2","lat":35.73534,"lon":139.77097},{"name":"西日暮里保育園","province":"東京都","city":"荒川区","address":"荒川区西日暮里6-25-3","lat":35.73668,"lon":139.77061},{"name":"上智聖ローザ保育園","province":"東京都","city":"荒川区","address":"荒川区西日暮里6-7-1","lat":35.73707,"lon":139.77254},{"name":"なかよし保育園","province":"東京都","city":"荒川区","address":"荒川区東日暮里1-17-2","lat":35.72997,"lon":139.78955},{"name":"第二東日暮里保育園","province":"東京都","city":"荒川区","address":"荒川区東日暮里1-17-21","lat":35.72997,"lon":139.78955},{"name":"夕やけこやけ保育園","province":"東京都","city":"荒川区","address":"荒川区東日暮里3-11-19","lat":35.72988,"lon":139.78169},{"name":"タムスわんぱく保育園東日暮里","province":"東京都","city":"荒川区","address":"荒川区東日暮里3-9-10","lat":35.72863,"lon":139.78262},{"name":"うぃず東日暮里保育園","province":"東京都","city":"荒川区","address":"荒川区東日暮里4-11-6","lat":35.72736,"lon":139.78215},{"name":"グローバルキッズ東日暮里園","province":"東京都","city":"荒川区","address":"荒川区東日暮里5-16-3リーデンスタワー1・2F","lat":35.72601,"lon":139.77615},{"name":"ポポラー東京東日暮里園","province":"東京都","city":"荒川区","address":"荒川区東日暮里6-1-1アトラスブランズタワー三河島2F","lat":35.73275,"lon":139.77827},{"name":"まなびの森保育園三河島","province":"東京都","city":"荒川区","address":"荒川区東日暮里6-2-14Frespo東日暮里5階","lat":35.73223,"lon":139.77808},{"name":"聖華ひなた保育園","province":"東京都","city":"荒川区","address":"荒川区東日暮里6-28-13","lat":35.73305,"lon":139.77603},{"name":"荒川保育園","province":"東京都","city":"荒川区","address":"荒川区荒川5-50-15","lat":35.74051,"lon":139.7746},{"name":"荒川区立心身障害者福祉センター（荒川たんぽぽセンター）","province":"東京都","city":"荒川区","address":"東京都荒川区荒川1丁目53-20","lat":35.73304722,"lon":139.78448621},{"name":"ピノキオ幼児舎南千住保育園","province":"東京都","city":"荒川区","address":"荒川区南千住8-4-5けやき通り北参番館204","lat":35.73752,"lon":139.80653},{"name":"AIAI　NURSERY　新三河島","province":"東京都","city":"荒川区","address":"荒川区東尾久1-1-4小澤ビル3階4階","lat":35.73801,"lon":139.77281},{"name":"西尾久保育園","province":"東京都","city":"荒川区","address":"荒川区東尾久8-45-24","lat":35.75112,"lon":139.76639},{"name":"AIAI　NURSERY　西日暮里一丁目","province":"東京都","city":"荒川区","address":"荒川区西日暮里1-1-1パレス石川2階","lat":35.73687,"lon":139.77606},{"name":"AIAI NURSERY 新三河島","province":"東京都","city":"荒川区","address":"荒川区東尾久1-1-4小澤ビル3階4階","lat":35.73801,"lon":139.77281},{"name":"AIAI NURSERY 西日暮里一丁目","province":"東京都","city":"荒川区","address":"荒川区西日暮里1-1-1パレス石川2階","lat":35.73687,"lon":139.77606},{"name":"東日暮里わんぱく保育園","province":"東京都","city":"荒川区","address":"荒川区東日暮里3-9-10","lat":35.72863,"lon":139.78262},{"name":"西尾久保育園","province":"東京都","city":"荒川区","address":"荒川区西尾久5-3-17","lat":35.74855,"lon":139.76099},{"name":"小台橋保育園","province":"東京都","city":"荒川区","address":"荒川区西尾久6-9-7","lat":35.75112,"lon":139.76639},{"name":"あいあい保育園新三河島園","province":"東京都","city":"荒川区","address":"荒川区東尾久1-1-4小澤ビル3・4階","lat":35.73801,"lon":139.77281},{"name":"あい・あい保育園　西日暮里一丁目園","province":"東京都","city":"荒川区","address":"荒川区西日暮里1-1-1パレス石川2階","lat":35.73687,"lon":139.77606},{"name":"原保育園","province":"東京都","city":"荒川区","address":"荒川区町屋5-11-16","lat":35.7511,"lon":139.77882},{"name":"にじの森保育園","province":"東京都","city":"荒川区","address":"荒川区南千住8-13-1","lat":35.73654,"lon":139.80866},{"name":"熊野前保育園","province":"東京都","city":"荒川区","address":"荒川区東尾久8-23-9","lat":35.75176,"lon":139.76941},{"name":"西日暮里保育園","province":"東京都","city":"荒川区","address":"荒川区西日暮里6-25-3","lat":35.73668,"lon":139.77062},{"name":"日暮里保育園","province":"東京都","city":"荒川区","address":"荒川区西日暮里2-2-7","lat":35.73327,"lon":139.77374},{"name":"ポポラー東京東日暮里園","province":"東京都","city":"荒川区","address":"荒川区東日暮里6-1-1アトラスブランズタワー三河島2F","lat":35.73275,"lon":139.77828},{"name":"太陽の子わかば保育園","province":"東京都","city":"荒川区","address":"荒川区南千住5-44-16ライオンズマンション1階","lat":35.73289,"lon":139.80272},{"name":"AIAI　NURSERY新三河島","province":"東京都","city":"荒川区","address":"東京都荒川区東尾久1-1-43F・4F","lat":35.73811,"lon":139.77284},{"name":"AIAI　NURSERY西日暮里一丁目","province":"東京都","city":"荒川区","address":"東京都荒川区西日暮里1-1-12F","lat":35.73686,"lon":139.77592},{"name":"MIRATZ東尾久保育園","province":"東京都","city":"荒川区","address":"東京都荒川区東尾久4-1-131F","lat":35.74007,"lon":139.76849},{"name":"上尾久保育園","province":"東京都","city":"荒川区","address":"東京都荒川区西尾久8-10-12","lat":35.75241,"lon":139.75657},{"name":"荒川さつき保育園","province":"東京都","city":"荒川区","address":"東京都荒川区荒川8-25-4","lat":35.73737,"lon":139.78613},{"name":"荒川保育園","province":"東京都","city":"荒川区","address":"東京都荒川区荒川5-50-15","lat":35.74015,"lon":139.77493},{"name":"至誠会第二保育園","province":"東京都","city":"荒川区","address":"東京都荒川区東尾久5-34-6","lat":35.74708,"lon":139.76725},{"name":"うぃず東日暮里保育園","province":"東京都","city":"荒川区","address":"東京都荒川区東日暮里4-11-6","lat":35.7274,"lon":139.78195},{"name":"うぃず町屋保育園","province":"東京都","city":"荒川区","address":"東京都荒川区町屋2-10-3","lat":35.74424,"lon":139.77926},{"name":"うぃず南千住駅前保育園","province":"東京都","city":"荒川区","address":"東京都荒川区南千住5-23-14","lat":35.73247,"lon":139.79612},{"name":"大空と大地のなーさりぃ荒川西尾久園","province":"東京都","city":"荒川区","address":"東京都荒川区西尾久1-28-10","lat":35.74631,"lon":139.76211},{"name":"尾久隣保館保育園","province":"東京都","city":"荒川区","address":"東京都荒川区町屋6-28-11","lat":35.75223,"lon":139.7837},{"name":"小台橋保育園","province":"東京都","city":"荒川区","address":"東京都荒川区西尾久6-9-7","lat":35.75353,"lon":139.76048},{"name":"小台ここわ保育園","province":"東京都","city":"荒川区","address":"東京都荒川区西尾久3-21-12水島ビル2F","lat":35.75097,"lon":139.76178},{"name":"おはな保育室","province":"東京都","city":"荒川区","address":"東京都荒川区荒川1-37-4","lat":35.73341,"lon":139.78762},{"name":"オランジェナーサリー","province":"東京都","city":"荒川区","address":"東京都荒川区西尾久4-27-1ヴェルデ西尾久1F","lat":35.74556,"lon":139.75801},{"name":"オランジェナーサリー分園","province":"東京都","city":"荒川区","address":"東京都荒川区西尾久6-30-16エスパシオルイヨム1F","lat":35.75094,"lon":139.75849},{"name":"家庭的保育室スノードロップ","province":"東京都","city":"荒川区","address":"東京都荒川区南千住6-50-3","lat":35.73586,"lon":139.79393},{"name":"かんかんもり保育園","province":"東京都","city":"荒川区","address":"東京都荒川区東日暮里2-15-71F","lat":35.72969,"lon":139.78588},{"name":"キッズあおぞら保育園","province":"東京都","city":"荒川区","address":"東京都荒川区荒川2-1-52F","lat":35.73506,"lon":139.78472},{"name":"熊野前保育園","province":"東京都","city":"荒川区","address":"東京都荒川区東尾久8-23-9","lat":35.75177,"lon":139.76939},{"name":"黒川幼稚舎","province":"東京都","city":"荒川区","address":"東京都荒川区荒川7-7-10","lat":35.74161,"lon":139.78402},{"name":"グローバルキッズ日暮里駅前保育園","province":"東京都","city":"荒川区","address":"東京都荒川区西日暮里2-22-1ステーションプラザタワー3F","lat":35.72973,"lon":139.77058},{"name":"グローバルキッズ東日暮里園","province":"東京都","city":"荒川区","address":"東京都荒川区東日暮里5-16-3リーデンスタワー1・2F","lat":35.72618,"lon":139.77642},{"name":"グローバルキッズ町屋保育園","province":"東京都","city":"荒川区","address":"東京都荒川区町屋2-2-15","lat":35.74384,"lon":139.78105},{"name":"子供の家愛育保育園","province":"東京都","city":"荒川区","address":"東京都荒川区西尾久7-26-4","lat":35.74824,"lon":139.75529},{"name":"コンビプラザ南千住保育園","province":"東京都","city":"荒川区","address":"東京都荒川区南千住4-9-1リバーハープタワー南千住1棟1F","lat":35.73566,"lon":139.80332},{"name":"さくらさくみらい西日暮里","province":"東京都","city":"荒川区","address":"東京都荒川区西日暮里4-10-12","lat":35.73303,"lon":139.76232},{"name":"汐入こども園","province":"東京都","city":"荒川区","address":"東京都荒川区南千住8-9-3","lat":35.73892,"lon":139.8116},{"name":"汐入とちのき保育園","province":"東京都","city":"荒川区","address":"東京都荒川区南千住8-3-3","lat":35.73603,"lon":139.80558},{"name":"上智聖ローザ保育園","province":"東京都","city":"荒川区","address":"東京都荒川区西日暮里6-7-1","lat":35.73724,"lon":139.77246},{"name":"上智厚生館保育園","province":"東京都","city":"荒川区","address":"東京都荒川区町屋4-9-10","lat":35.74696,"lon":139.77679},{"name":"上智厚生館保育園分園","province":"東京都","city":"荒川区","address":"東京都荒川区町屋4-14-7","lat":35.74656,"lon":139.77763},{"name":"仁風保育園","province":"東京都","city":"荒川区","address":"東京都荒川区荒川2-41-1","lat":35.73937,"lon":139.78324},{"name":"太陽の子わかば保育園","province":"東京都","city":"荒川区","address":"東京都荒川区南千住5-44-16","lat":35.736,"lon":139.79673},{"name":"タムスわんぱく保育園荒川","province":"東京都","city":"荒川区","address":"東京都荒川区荒川5-31-73?4F","lat":35.73972,"lon":139.77374},{"name":"タムスわんぱく保育園東日暮里","province":"東京都","city":"荒川区","address":"東京都荒川区東日暮里3-9-10","lat":35.72829,"lon":139.78273},{"name":"第二東日暮里保育園","province":"東京都","city":"荒川区","address":"東京都荒川区東日暮里1-17-21","lat":35.73011,"lon":139.78944},{"name":"第二南千住保育園","province":"東京都","city":"荒川区","address":"東京都荒川区南千住2-21-6","lat":35.73037,"lon":139.79742},{"name":"ドン・ボスコ保育園","province":"東京都","city":"荒川区","address":"東京都荒川区荒川3-11-1","lat":35.73439,"lon":139.78375},{"name":"なかよし保育園","province":"東京都","city":"荒川区","address":"東京都荒川区東日暮里1-17-2","lat":35.73044,"lon":139.78952},{"name":"西尾久みどり保育園","province":"東京都","city":"荒川区","address":"東京都荒川区西尾久4-6-19","lat":35.74423,"lon":139.76106},{"name":"西日暮里保育園","province":"東京都","city":"荒川区","address":"東京都荒川区西日暮里6-25-3","lat":35.73668,"lon":139.77064},{"name":"にじの樹保育園","province":"東京都","city":"荒川区","address":"東京都荒川区南千住8-5-2","lat":35.73905,"lon":139.80715},{"name":"にじの森保育園","province":"東京都","city":"荒川区","address":"東京都荒川区南千住8-13-1","lat":35.73624,"lon":139.80931},{"name":"日暮里きらきら保育園","province":"東京都","city":"荒川区","address":"東京都荒川区西日暮里2-30-41?4F","lat":35.73032,"lon":139.77221},{"name":"日暮里保育園","province":"東京都","city":"荒川区","address":"東京都荒川区西日暮里2-2-7","lat":35.73286,"lon":139.77415},{"name":"はなみずき保育園","province":"東京都","city":"荒川区","address":"東京都荒川区南千住8-5-5","lat":35.73839,"lon":139.80735},{"name":"原保育園","province":"東京都","city":"荒川区","address":"東京都荒川区町屋5-11-16","lat":35.75111,"lon":139.77882},{"name":"ハローフレンズ保育園","province":"東京都","city":"荒川区","address":"東京都荒川区西日暮里1-57-13","lat":35.73563,"lon":139.77191},{"name":"東尾久保育園","province":"東京都","city":"荒川区","address":"東京都荒川区東尾久2-28-3","lat":35.74192,"lon":139.77186},{"name":"ひぐらし保育園","province":"東京都","city":"荒川区","address":"東京都荒川区西日暮里5-35-9","lat":35.73325,"lon":139.76739},{"name":"聖華ひなた保育園","province":"東京都","city":"荒川区","address":"東京都荒川区東日暮里6-28-13","lat":35.73308,"lon":139.77577},{"name":"ピノキオ幼児舎東尾久保育園","province":"東京都","city":"荒川区","address":"東京都荒川区東尾久3-27-72F","lat":35.7458,"lon":139.76968},{"name":"フレンズ保育園","province":"東京都","city":"荒川区","address":"東京都荒川区東日暮里3-11-26","lat":35.73014,"lon":139.78195},{"name":"ぽけっとランド南千住瑞光保育園","province":"東京都","city":"荒川区","address":"東京都荒川区南千住7-30-1","lat":35.73471,"lon":139.79963},{"name":"ポポラー東京東日暮里園","province":"東京都","city":"荒川区","address":"東京都荒川区東日暮里6-1-1アトラスブランズタワー三河島2F","lat":35.73272,"lon":139.77825},{"name":"町屋保育園","province":"東京都","city":"荒川区","address":"東京都荒川区町屋1-35-9","lat":35.74441,"lon":139.78585},{"name":"まなびの森保育園西日暮里","province":"東京都","city":"荒川区","address":"東京都荒川区西日暮里6-21-2","lat":35.73533,"lon":139.77095},{"name":"まなびの森保育園町屋","province":"東京都","city":"荒川区","address":"東京都荒川区荒川7-41-8","lat":35.74126,"lon":139.78013},{"name":"まなびの森保育園三河島","province":"東京都","city":"荒川区","address":"東京都荒川区東日暮里6-2-145F","lat":35.73234,"lon":139.77809},{"name":"三河島保育園","province":"東京都","city":"荒川区","address":"東京都荒川区荒川3-54-1","lat":35.73556,"lon":139.78016},{"name":"南千住駅前保育所","province":"東京都","city":"荒川区","address":"東京都荒川区南千住4-3-2","lat":35.73279,"lon":139.79888},{"name":"南千住さくら保育園","province":"東京都","city":"荒川区","address":"東京都荒川区南千住4-9-4","lat":35.73685,"lon":139.80456},{"name":"南千住七丁目保育園","province":"東京都","city":"荒川区","address":"東京都荒川区南千住7-20-13","lat":35.73823,"lon":139.79872},{"name":"南千住保育園","province":"東京都","city":"荒川区","address":"東京都荒川区南千住6-35-3","lat":35.73819,"lon":139.79155},{"name":"宮前　花と緑の保育園","province":"東京都","city":"荒川区","address":"東京都荒川区東尾久8-45-24","lat":35.75186,"lon":139.76637},{"name":"夕やけこやけ保育園","province":"東京都","city":"荒川区","address":"東京都荒川区東日暮里3-11-19","lat":35.72993,"lon":139.78146},{"name":"ワタナベ学園","province":"東京都","city":"荒川区","address":"東京都荒川区町屋2-15-5","lat":35.74371,"lon":139.77839},{"name":"ワタナベ学園分園","province":"東京都","city":"荒川区","address":"東京都荒川区町屋2-17-21F","lat":35.74379,"lon":139.77725},{"name":"南千住給水所","province":"東京都","city":"荒川区","address":"東京都荒川区南千住8丁目2-6","lat":35.73577514,"lon":139.80766775},{"name":"東尾久運動場多目的広場","province":"東京都","city":"荒川区","address":"東京都荒川区東尾久6丁目46","lat":35.74849157,"lon":139.77175799},{"name":"都立尾久の原公園多目的広場第二サッカーグラウンド","province":"東京都","city":"荒川区","address":"東京都荒川区東尾久7丁目1-1","lat":35.75213275,"lon":139.77513791},{"name":"都立汐入公園多目的広場","province":"東京都","city":"荒川区","address":"東京都荒川区南千住8丁目13","lat":35.73642518,"lon":139.81024806},{"name":"荒川区立南千住野球場","province":"東京都","city":"荒川区","address":"東京都荒川区南千住6丁目45","lat":35.73607733,"lon":139.79205464},{"name":"荒川区選挙管理委員会","province":"東京都","city":"荒川区","address":"荒川区荒川2-2-3","lat":35.736056,"lon":139.783364},{"name":"首都大学東京荒川キャンパス","province":"東京都","city":"荒川区","address":"東京都荒川区東尾久7丁目2-10","lat":35.74998303,"lon":139.77211339},{"name":"荒川都税事務所","province":"東京都","city":"荒川区","address":"東京都荒川区西日暮里2丁目25-1","lat":35.7295939,"lon":139.77148686},{"name":"荒川工業高等学校","province":"東京都","city":"荒川区","address":"東京都荒川区南千住6丁目42-1","lat":35.7373272,"lon":139.79221569},{"name":"竹台高等学校","province":"東京都","city":"荒川区","address":"東京都荒川区東日暮里5丁目14-1","lat":35.72586666,"lon":139.7777754},{"name":"サンパール荒川","province":"東京都","city":"荒川区","address":"東京都荒川区荒川1丁目1-1","lat":35.73521383,"lon":139.78510844},{"name":"荒川区本庁舎","province":"東京都","city":"荒川区","address":"荒川区荒川2-2-3","lat":35.736083,"lon":139.783372},{"name":"東京ガス（株）千住ビル","province":"東京都","city":"荒川区","address":"荒川区南千住3-13-1","lat":35.73191,"lon":139.8083},{"name":"ワタナベ学園","province":"東京都","city":"荒川区","address":"荒川区町屋2-15-5","lat":35.743718,"lon":139.778389},{"name":"上智厚生館保育園","province":"東京都","city":"荒川区","address":"荒川区町屋4-9-10","lat":35.747231,"lon":139.776805},{"name":"尾久隣保館保育園","province":"東京都","city":"荒川区","address":"荒川区町屋6-28-11","lat":35.752155,"lon":139.783726},{"name":"町屋保育園","province":"東京都","city":"荒川区","address":"荒川区町屋1-35-9","lat":35.744396,"lon":139.785821},{"name":"原保育園","province":"東京都","city":"荒川区","address":"荒川区町屋5-11-16","lat":35.751441,"lon":139.779051},{"name":"うぃず町屋保育園","province":"東京都","city":"荒川区","address":"荒川区町屋2-10-3","lat":35.74424,"lon":139.779266},{"name":"仁風保育園","province":"東京都","city":"荒川区","address":"荒川区荒川2-41-1","lat":35.739391,"lon":139.783208},{"name":"ドン・ボスコ保育園","province":"東京都","city":"荒川区","address":"荒川区荒川3-11-1","lat":35.7347,"lon":139.783728},{"name":"荒川さつき保育園","province":"東京都","city":"荒川区","address":"荒川区荒川8-25-4","lat":35.737352,"lon":139.786192},{"name":"荒川保育園","province":"東京都","city":"荒川区","address":"荒川区荒川5-50-15","lat":35.740196,"lon":139.774942},{"name":"三河島保育園","province":"東京都","city":"荒川区","address":"荒川区荒川3-54-1","lat":35.73555,"lon":139.780136},{"name":"キッズあおぞら保育園","province":"東京都","city":"荒川区","address":"荒川区荒川2-1-5セントラル荒川ビルディング2階","lat":35.735078,"lon":139.784731},{"name":"まなびの森保育園町屋","province":"東京都","city":"荒川区","address":"荒川区荒川7-41-8","lat":35.74164,"lon":139.780628},{"name":"第二南千住保育園","province":"東京都","city":"荒川区","address":"荒川区南千住2-21-6","lat":35.730477,"lon":139.796823},{"name":"南千住さくら保育園","province":"東京都","city":"荒川区","address":"荒川区南千住4-9-4","lat":35.736955,"lon":139.804534},{"name":"南千住駅前保育所（おひさま保育園）","province":"東京都","city":"荒川区","address":"荒川区南千住4-3-2","lat":35.732783,"lon":139.798918},{"name":"南千住保育園","province":"東京都","city":"荒川区","address":"荒川区南千住6-35-3","lat":35.73813,"lon":139.791574},{"name":"南千住七丁目保育園","province":"東京都","city":"荒川区","address":"荒川区南千住7-20-13","lat":35.738233,"lon":139.798704},{"name":"にじの樹保育園","province":"東京都","city":"荒川区","address":"荒川区南千住8-5-2","lat":35.739025,"lon":139.807137},{"name":"ぽけっとランド南千住瑞光保育園","province":"東京都","city":"荒川区","address":"荒川区南千住7-30-1","lat":35.735005,"lon":139.799723},{"name":"はなみずき保育園","province":"東京都","city":"荒川区","address":"荒川区南千住8-5-5","lat":35.738386,"lon":139.807354},{"name":"汐入こども園","province":"東京都","city":"荒川区","address":"荒川区南千住8-9-3","lat":35.73895,"lon":139.811625},{"name":"汐入とちのき保育園","province":"東京都","city":"荒川区","address":"荒川区南千住8-3-3","lat":35.736017,"lon":139.80569},{"name":"コンビプラザ南千住保育園","province":"東京都","city":"荒川区","address":"荒川区南千住4-9-1リバーハープタワー南千住","lat":35.735728,"lon":139.803321},{"name":"ピノキオ幼児舎南千住保育園","province":"東京都","city":"荒川区","address":"荒川区南千住8-4-5けやき通り北参番館204","lat":35.737239,"lon":139.807234},{"name":"太陽の子わかば保育園","province":"東京都","city":"荒川区","address":"荒川区南千住5-44-16ライオンズマンション1階","lat":35.735974,"lon":139.796754},{"name":"にじの森保育園","province":"東京都","city":"荒川区","address":"荒川区南千住8-13-1","lat":35.7366,"lon":139.809226},{"name":"うぃず南千住駅前保育園","province":"東京都","city":"荒川区","address":"荒川区南千住5-23-14","lat":35.732699,"lon":139.796054},{"name":"上尾久保育園","province":"東京都","city":"荒川区","address":"荒川区西尾久8-10-12","lat":35.752351,"lon":139.756573},{"name":"西尾久みどり保育園","province":"東京都","city":"荒川区","address":"荒川区西尾久4-6-19","lat":35.744244,"lon":139.761015},{"name":"西尾久保育園","province":"東京都","city":"荒川区","address":"荒川区西尾久5-3-17","lat":35.74893,"lon":139.761225},{"name":"子供の家愛育保育園","province":"東京都","city":"荒川区","address":"荒川区西尾久7-26-4","lat":35.748257,"lon":139.755306},{"name":"小台橋保育園","province":"東京都","city":"荒川区","address":"荒川区西尾久6-9-7","lat":35.753704,"lon":139.760806},{"name":"小台ここわ保育園","province":"東京都","city":"荒川区","address":"荒川区西尾久3-21-12水島ビル2階","lat":35.750966,"lon":139.761725},{"name":"東尾久保育園","province":"東京都","city":"荒川区","address":"荒川区東尾久2-28-3","lat":35.741879,"lon":139.771836},{"name":"熊野前保育園","province":"東京都","city":"荒川区","address":"荒川区東尾久8-23-9","lat":35.751783,"lon":139.7694},{"name":"至誠会第二保育園","province":"東京都","city":"荒川区","address":"荒川区東尾久5-34-6","lat":35.747075,"lon":139.767242},{"name":"あいあい保育園新三河島園","province":"東京都","city":"荒川区","address":"荒川区東尾久1-1-4小澤ビル3階4階","lat":35.738138,"lon":139.772867},{"name":"西日暮里保育園","province":"東京都","city":"荒川区","address":"荒川区西日暮里6-25-3","lat":35.736599,"lon":139.770628},{"name":"グローバルキッズ日暮里駅前保育園","province":"東京都","city":"荒川区","address":"荒川区西日暮里2-22-1ステーションプラザタワー3F","lat":35.729742,"lon":139.770568},{"name":"ひぐらし保育園","province":"東京都","city":"荒川区","address":"荒川区西日暮里5-35-9","lat":35.733266,"lon":139.767393},{"name":"日暮里きらきら保育園","province":"東京都","city":"荒川区","address":"荒川区西日暮里2-30-4","lat":35.730347,"lon":139.772217},{"name":"あい・あい保育園　西日暮里一丁目園","province":"東京都","city":"荒川区","address":"荒川区西日暮里1-1-1パレスいしかわ2階","lat":35.736874,"lon":139.775906},{"name":"第二東日暮里保育園","province":"東京都","city":"荒川区","address":"荒川区東日暮里1-17-21","lat":35.730111,"lon":139.789427},{"name":"東日暮里保育園","province":"東京都","city":"荒川区","address":"荒川区東日暮里6-28-15","lat":35.733002,"lon":139.775884},{"name":"夕やけこやけ保育園","province":"東京都","city":"荒川区","address":"荒川区東日暮里3-11-19","lat":35.729964,"lon":139.781378},{"name":"うぃず東日暮里保育園","province":"東京都","city":"荒川区","address":"荒川区東日暮里4-11-6","lat":35.727411,"lon":139.781942},{"name":"グローバルキッズ東日暮里園","province":"東京都","city":"荒川区","address":"荒川区東日暮里5-16-3リーデンスタワー1・2F","lat":35.72623,"lon":139.776273},{"name":"ポポラー東京東日暮里園","province":"東京都","city":"荒川区","address":"荒川区東日暮里6-1-1アトラスブランズタワー三河島2F","lat":35.732736,"lon":139.778136},{"name":"東日暮里わんぱく保育園","province":"東京都","city":"荒川区","address":"荒川区東日暮里3-9-10","lat":35.728303,"lon":139.782719},{"name":"荒川区保健所（生活衛生課）","province":"東京都","city":"荒川区","address":"荒川区荒川2-11-1","lat":35.737061,"lon":139.783389},{"name":"荒川区保健所（健康推進課）","province":"東京都","city":"荒川区","address":"荒川区荒川2-11-1","lat":35.737061,"lon":139.783389},{"name":"荒川区保健所（保健予防課）","province":"東京都","city":"荒川区","address":"荒川区荒川2-11-1","lat":35.737061,"lon":139.783389},{"name":"彰義隊戦死者墓","province":"東京都","city":"荒川区","address":"東京都荒川区南千住1-59-11","lat":35.73403,"lon":139.79286},{"name":"延命院のシイ","province":"東京都","city":"荒川区","address":"東京都荒川区西日暮里3-10-1","lat":35.72818,"lon":139.767723},{"name":"町屋保育園","province":"東京都","city":"荒川区","address":"荒川区町屋1-35-9","lat":35.74443,"lon":139.78592},{"name":"うぃず町屋保育園","province":"東京都","city":"荒川区","address":"荒川区町屋2-10-3","lat":35.74438,"lon":139.77937},{"name":"グローバルキッズ町屋保育園","province":"東京都","city":"荒川区","address":"荒川区町屋2-2-15","lat":35.7433,"lon":139.78041},{"name":"上智厚生館保育園","province":"東京都","city":"荒川区","address":"荒川区町屋4-9-10","lat":35.7471,"lon":139.77679},{"name":"原保育園","province":"東京都","city":"荒川区","address":"荒川区町屋5-11-16","lat":35.75109,"lon":139.77882},{"name":"尾久隣保館保育園","province":"東京都","city":"荒川区","address":"荒川区町屋6-28-11","lat":35.7522,"lon":139.7836},{"name":"キッズあおぞら保育園","province":"東京都","city":"荒川区","address":"荒川区荒川2-1-5セントラル荒川ビルディング2階","lat":35.73488,"lon":139.78474},{"name":"仁風保育園","province":"東京都","city":"荒川区","address":"荒川区荒川2-41-1","lat":35.73935,"lon":139.78325},{"name":"ドン・ボスコ保育園","province":"東京都","city":"荒川区","address":"荒川区荒川3-11-1","lat":35.73463,"lon":139.78378},{"name":"三河島保育園","province":"東京都","city":"荒川区","address":"荒川区荒川3-54-1","lat":35.73545,"lon":139.78017},{"name":"タムスわんぱく保育園荒川","province":"東京都","city":"荒川区","address":"荒川区荒川5-31-7","lat":35.73972,"lon":139.77371},{"name":"まなびの森保育園町屋","province":"東京都","city":"荒川区","address":"荒川区荒川7-41-8","lat":35.74149,"lon":139.7804},{"name":"黒川幼稚舎","province":"東京都","city":"荒川区","address":"荒川区荒川7-7-10","lat":35.7416208,"lon":139.7840197},{"name":"荒川さつき保育園","province":"東京都","city":"荒川区","address":"荒川区荒川8-25-4","lat":35.74152,"lon":139.78897},{"name":"第二南千住保育園","province":"東京都","city":"荒川区","address":"荒川区南千住2-21-6","lat":35.7305,"lon":139.79735},{"name":"南千住駅前保育所（おひさま保育園）","province":"東京都","city":"荒川区","address":"荒川区南千住4-3-2","lat":35.7322,"lon":139.7988},{"name":"コンビプラザ南千住保育園","province":"東京都","city":"荒川区","address":"荒川区南千住4-9-1リバーハープタワー南千住","lat":35.73629,"lon":139.80386},{"name":"南千住さくら保育園","province":"東京都","city":"荒川区","address":"荒川区南千住4-9-4","lat":35.73629,"lon":139.80386},{"name":"うぃず南千住駅前保育園","province":"東京都","city":"荒川区","address":"荒川区南千住5-23-14","lat":35.73261,"lon":139.79546},{"name":"太陽の子わかば保育園","province":"東京都","city":"荒川区","address":"荒川区南千住5-44-16ライオンズマンション1階","lat":35.73613,"lon":139.79652},{"name":"南千住保育園","province":"東京都","city":"荒川区","address":"荒川区南千住6-35-3","lat":35.73815,"lon":139.79155},{"name":"南千住七丁目保育園","province":"東京都","city":"荒川区","address":"荒川区南千住7-20-13","lat":35.73794,"lon":139.79846},{"name":"ぽけっとランド南千住瑞光保育園","province":"東京都","city":"荒川区","address":"荒川区南千住7-30-1","lat":35.73541,"lon":139.79979},{"name":"にじの森保育園","province":"東京都","city":"荒川区","address":"荒川区南千住8-13-1","lat":35.73654,"lon":139.80865},{"name":"汐入とちのき保育園","province":"東京都","city":"荒川区","address":"荒川区南千住8-3-3","lat":35.73655,"lon":139.80554},{"name":"にじの樹保育園","province":"東京都","city":"荒川区","address":"荒川区南千住8-5-2","lat":35.73819,"lon":139.80527},{"name":"はなみずき保育園","province":"東京都","city":"荒川区","address":"荒川区南千住8-5-5","lat":35.73819,"lon":139.80527},{"name":"汐入こども園","province":"東京都","city":"荒川区","address":"荒川区南千住8-9-3","lat":35.73887,"lon":139.81073},{"name":"大空と大地のなーさりぃ荒川西尾久園","province":"東京都","city":"荒川区","address":"荒川区西尾久1-28-10","lat":35.74627,"lon":139.76224},{"name":"小台ここわ保育園","province":"東京都","city":"荒川区","address":"荒川区西尾久3-21-12水島ビル2階","lat":35.75087,"lon":139.76157},{"name":"オランジェナーサリー","province":"東京都","city":"荒川区","address":"荒川区西尾久4-27-1ヴェルデ西尾久1F","lat":35.74561,"lon":139.75786},{"name":"西尾久みどり保育園","province":"東京都","city":"荒川区","address":"荒川区西尾久4-6-19","lat":35.74428,"lon":139.76088},{"name":"小台橋保育園","province":"東京都","city":"荒川区","address":"荒川区西尾久6-9-7","lat":35.75359,"lon":139.76082},{"name":"子供の家愛育保育園","province":"東京都","city":"荒川区","address":"荒川区西尾久7-26-4","lat":35.74834,"lon":139.75539},{"name":"上尾久保育園","province":"東京都","city":"荒川区","address":"荒川区西尾久8-10-12","lat":35.75256,"lon":139.75705},{"name":"AIAI NURSERY新三河島","province":"東京都","city":"荒川区","address":"荒川区東尾久1-1-4小澤ビル3階4階","lat":35.73801,"lon":139.77281},{"name":"東尾久保育園","province":"東京都","city":"荒川区","address":"荒川区東尾久2-28-3","lat":35.74192,"lon":139.77206},{"name":"ピノキオ幼児舎東尾久保育園","province":"東京都","city":"荒川区","address":"荒川区東尾久3-27-7","lat":35.74581,"lon":139.76979},{"name":"至誠会第二保育園","province":"東京都","city":"荒川区","address":"荒川区東尾久5-34-6","lat":35.74704,"lon":139.76726},{"name":"熊野前保育園","province":"東京都","city":"荒川区","address":"荒川区東尾久8-23-9","lat":35.75175,"lon":139.76941},{"name":"宮前　花と緑の保育園","province":"東京都","city":"荒川区","address":"荒川区東尾久8-45-24","lat":35.75112,"lon":139.76639},{"name":"AIAI NURSERY西日暮里一丁目","province":"東京都","city":"荒川区","address":"荒川区西日暮里1-1-1パレス石川2階","lat":35.73687,"lon":139.77606},{"name":"グローバルキッズ日暮里駅前保育園","province":"東京都","city":"荒川区","address":"荒川区西日暮里2-22-1ステーションプラザタワー3F","lat":35.72969,"lon":139.77057},{"name":"日暮里保育園","province":"東京都","city":"荒川区","address":"荒川区西日暮里2-2-7","lat":35.73326,"lon":139.77374},{"name":"日暮里きらきら保育園","province":"東京都","city":"荒川区","address":"荒川区西日暮里2-30-4ウェステリアXI1~4F","lat":35.73057,"lon":139.77222},{"name":"さくらさくみらい西日暮里","province":"東京都","city":"荒川区","address":"荒川区西日暮里4-10-12","lat":35.7331,"lon":139.76202},{"name":"ひぐらし保育園","province":"東京都","city":"荒川区","address":"荒川区西日暮里5-35-9","lat":35.73316,"lon":139.76733},{"name":"まなびの森保育園西日暮里","province":"東京都","city":"荒川区","address":"荒川区西日暮里6-21-2","lat":35.73534,"lon":139.77097},{"name":"西日暮里保育園","province":"東京都","city":"荒川区","address":"荒川区西日暮里6-25-3","lat":35.73668,"lon":139.77061},{"name":"上智聖ローザ保育園","province":"東京都","city":"荒川区","address":"荒川区西日暮里6-7-1","lat":35.73707,"lon":139.77254},{"name":"なかよし保育園","province":"東京都","city":"荒川区","address":"荒川区東日暮里1-17-2","lat":35.72997,"lon":139.78955},{"name":"第二東日暮里保育園","province":"東京都","city":"荒川区","address":"荒川区東日暮里1-17-21","lat":35.72997,"lon":139.78955},{"name":"夕やけこやけ保育園","province":"東京都","city":"荒川区","address":"荒川区東日暮里3-11-19","lat":35.72988,"lon":139.78169},{"name":"タムスわんぱく保育園東日暮里","province":"東京都","city":"荒川区","address":"荒川区東日暮里3-9-10","lat":35.72863,"lon":139.78262},{"name":"うぃず東日暮里保育園","province":"東京都","city":"荒川区","address":"荒川区東日暮里4-11-6","lat":35.72736,"lon":139.78215},{"name":"グローバルキッズ東日暮里園","province":"東京都","city":"荒川区","address":"荒川区東日暮里5-16-3リーデンスタワー1・2F","lat":35.72601,"lon":139.77615},{"name":"ポポラー東京東日暮里園","province":"東京都","city":"荒川区","address":"荒川区東日暮里6-1-1アトラスブランズタワー三河島2F","lat":35.73275,"lon":139.77827},{"name":"まなびの森保育園三河島","province":"東京都","city":"荒川区","address":"荒川区東日暮里6-2-14Frespo東日暮里5階","lat":35.73223,"lon":139.77808},{"name":"聖華ひなた保育園","province":"東京都","city":"荒川区","address":"荒川区東日暮里6-28-13","lat":35.73305,"lon":139.77603},{"name":"荒川保育園","province":"東京都","city":"荒川区","address":"荒川区荒川5-50-15","lat":35.74051,"lon":139.7746},{"name":"荒川区立心身障害者福祉センター（荒川たんぽぽセンター）","province":"東京都","city":"荒川区","address":"東京都荒川区荒川1丁目53-20","lat":35.73304722,"lon":139.78448621},{"name":"ピノキオ幼児舎南千住保育園","province":"東京都","city":"荒川区","address":"荒川区南千住8-4-5けやき通り北参番館204","lat":35.73752,"lon":139.80653},{"name":"AIAI　NURSERY　新三河島","province":"東京都","city":"荒川区","address":"荒川区東尾久1-1-4小澤ビル3階4階","lat":35.73801,"lon":139.77281},{"name":"西尾久保育園","province":"東京都","city":"荒川区","address":"荒川区東尾久8-45-24","lat":35.75112,"lon":139.76639},{"name":"AIAI　NURSERY　西日暮里一丁目","province":"東京都","city":"荒川区","address":"荒川区西日暮里1-1-1パレス石川2階","lat":35.73687,"lon":139.77606},{"name":"AIAI NURSERY 新三河島","province":"東京都","city":"荒川区","address":"荒川区東尾久1-1-4小澤ビル3階4階","lat":35.73801,"lon":139.77281},{"name":"AIAI NURSERY 西日暮里一丁目","province":"東京都","city":"荒川区","address":"荒川区西日暮里1-1-1パレス石川2階","lat":35.73687,"lon":139.77606},{"name":"東日暮里わんぱく保育園","province":"東京都","city":"荒川区","address":"荒川区東日暮里3-9-10","lat":35.72863,"lon":139.78262},{"name":"西尾久保育園","province":"東京都","city":"荒川区","address":"荒川区西尾久5-3-17","lat":35.74855,"lon":139.76099},{"name":"小台橋保育園","province":"東京都","city":"荒川区","address":"荒川区西尾久6-9-7","lat":35.75112,"lon":139.76639},{"name":"あいあい保育園新三河島園","province":"東京都","city":"荒川区","address":"荒川区東尾久1-1-4小澤ビル3・4階","lat":35.73801,"lon":139.77281},{"name":"あい・あい保育園　西日暮里一丁目園","province":"東京都","city":"荒川区","address":"荒川区西日暮里1-1-1パレス石川2階","lat":35.73687,"lon":139.77606},{"name":"原保育園","province":"東京都","city":"荒川区","address":"荒川区町屋5-11-16","lat":35.7511,"lon":139.77882},{"name":"にじの森保育園","province":"東京都","city":"荒川区","address":"荒川区南千住8-13-1","lat":35.73654,"lon":139.80866},{"name":"熊野前保育園","province":"東京都","city":"荒川区","address":"荒川区東尾久8-23-9","lat":35.75176,"lon":139.76941},{"name":"西日暮里保育園","province":"東京都","city":"荒川区","address":"荒川区西日暮里6-25-3","lat":35.73668,"lon":139.77062},{"name":"日暮里保育園","province":"東京都","city":"荒川区","address":"荒川区西日暮里2-2-7","lat":35.73327,"lon":139.77374},{"name":"ポポラー東京東日暮里園","province":"東京都","city":"荒川区","address":"荒川区東日暮里6-1-1アトラスブランズタワー三河島2F","lat":35.73275,"lon":139.77828},{"name":"太陽の子わかば保育園","province":"東京都","city":"荒川区","address":"荒川区南千住5-44-16ライオンズマンション1階","lat":35.73289,"lon":139.80272},{"name":"AIAI　NURSERY新三河島","province":"東京都","city":"荒川区","address":"東京都荒川区東尾久1-1-43F・4F","lat":35.73811,"lon":139.77284},{"name":"AIAI　NURSERY西日暮里一丁目","province":"東京都","city":"荒川区","address":"東京都荒川区西日暮里1-1-12F","lat":35.73686,"lon":139.77592},{"name":"MIRATZ東尾久保育園","province":"東京都","city":"荒川区","address":"東京都荒川区東尾久4-1-131F","lat":35.74007,"lon":139.76849},{"name":"上尾久保育園","province":"東京都","city":"荒川区","address":"東京都荒川区西尾久8-10-12","lat":35.75241,"lon":139.75657},{"name":"荒川さつき保育園","province":"東京都","city":"荒川区","address":"東京都荒川区荒川8-25-4","lat":35.73737,"lon":139.78613},{"name":"荒川保育園","province":"東京都","city":"荒川区","address":"東京都荒川区荒川5-50-15","lat":35.74015,"lon":139.77493},{"name":"至誠会第二保育園","province":"東京都","city":"荒川区","address":"東京都荒川区東尾久5-34-6","lat":35.74708,"lon":139.76725},{"name":"うぃず東日暮里保育園","province":"東京都","city":"荒川区","address":"東京都荒川区東日暮里4-11-6","lat":35.7274,"lon":139.78195},{"name":"うぃず町屋保育園","province":"東京都","city":"荒川区","address":"東京都荒川区町屋2-10-3","lat":35.74424,"lon":139.77926},{"name":"うぃず南千住駅前保育園","province":"東京都","city":"荒川区","address":"東京都荒川区南千住5-23-14","lat":35.73247,"lon":139.79612},{"name":"大空と大地のなーさりぃ荒川西尾久園","province":"東京都","city":"荒川区","address":"東京都荒川区西尾久1-28-10","lat":35.74631,"lon":139.76211},{"name":"尾久隣保館保育園","province":"東京都","city":"荒川区","address":"東京都荒川区町屋6-28-11","lat":35.75223,"lon":139.7837},{"name":"小台橋保育園","province":"東京都","city":"荒川区","address":"東京都荒川区西尾久6-9-7","lat":35.75353,"lon":139.76048},{"name":"小台ここわ保育園","province":"東京都","city":"荒川区","address":"東京都荒川区西尾久3-21-12水島ビル2F","lat":35.75097,"lon":139.76178},{"name":"おはな保育室","province":"東京都","city":"荒川区","address":"東京都荒川区荒川1-37-4","lat":35.73341,"lon":139.78762},{"name":"オランジェナーサリー","province":"東京都","city":"荒川区","address":"東京都荒川区西尾久4-27-1ヴェルデ西尾久1F","lat":35.74556,"lon":139.75801},{"name":"オランジェナーサリー分園","province":"東京都","city":"荒川区","address":"東京都荒川区西尾久6-30-16エスパシオルイヨム1F","lat":35.75094,"lon":139.75849},{"name":"家庭的保育室スノードロップ","province":"東京都","city":"荒川区","address":"東京都荒川区南千住6-50-3","lat":35.73586,"lon":139.79393},{"name":"かんかんもり保育園","province":"東京都","city":"荒川区","address":"東京都荒川区東日暮里2-15-71F","lat":35.72969,"lon":139.78588},{"name":"キッズあおぞら保育園","province":"東京都","city":"荒川区","address":"東京都荒川区荒川2-1-52F","lat":35.73506,"lon":139.78472},{"name":"熊野前保育園","province":"東京都","city":"荒川区","address":"東京都荒川区東尾久8-23-9","lat":35.75177,"lon":139.76939},{"name":"黒川幼稚舎","province":"東京都","city":"荒川区","address":"東京都荒川区荒川7-7-10","lat":35.74161,"lon":139.78402},{"name":"グローバルキッズ日暮里駅前保育園","province":"東京都","city":"荒川区","address":"東京都荒川区西日暮里2-22-1ステーションプラザタワー3F","lat":35.72973,"lon":139.77058},{"name":"グローバルキッズ東日暮里園","province":"東京都","city":"荒川区","address":"東京都荒川区東日暮里5-16-3リーデンスタワー1・2F","lat":35.72618,"lon":139.77642},{"name":"グローバルキッズ町屋保育園","province":"東京都","city":"荒川区","address":"東京都荒川区町屋2-2-15","lat":35.74384,"lon":139.78105},{"name":"子供の家愛育保育園","province":"東京都","city":"荒川区","address":"東京都荒川区西尾久7-26-4","lat":35.74824,"lon":139.75529},{"name":"コンビプラザ南千住保育園","province":"東京都","city":"荒川区","address":"東京都荒川区南千住4-9-1リバーハープタワー南千住1棟1F","lat":35.73566,"lon":139.80332},{"name":"さくらさくみらい西日暮里","province":"東京都","city":"荒川区","address":"東京都荒川区西日暮里4-10-12","lat":35.73303,"lon":139.76232},{"name":"汐入こども園","province":"東京都","city":"荒川区","address":"東京都荒川区南千住8-9-3","lat":35.73892,"lon":139.8116},{"name":"汐入とちのき保育園","province":"東京都","city":"荒川区","address":"東京都荒川区南千住8-3-3","lat":35.73603,"lon":139.80558},{"name":"上智聖ローザ保育園","province":"東京都","city":"荒川区","address":"東京都荒川区西日暮里6-7-1","lat":35.73724,"lon":139.77246},{"name":"上智厚生館保育園","province":"東京都","city":"荒川区","address":"東京都荒川区町屋4-9-10","lat":35.74696,"lon":139.77679},{"name":"上智厚生館保育園分園","province":"東京都","city":"荒川区","address":"東京都荒川区町屋4-14-7","lat":35.74656,"lon":139.77763},{"name":"仁風保育園","province":"東京都","city":"荒川区","address":"東京都荒川区荒川2-41-1","lat":35.73937,"lon":139.78324},{"name":"太陽の子わかば保育園","province":"東京都","city":"荒川区","address":"東京都荒川区南千住5-44-16","lat":35.736,"lon":139.79673},{"name":"タムスわんぱく保育園荒川","province":"東京都","city":"荒川区","address":"東京都荒川区荒川5-31-73?4F","lat":35.73972,"lon":139.77374},{"name":"タムスわんぱく保育園東日暮里","province":"東京都","city":"荒川区","address":"東京都荒川区東日暮里3-9-10","lat":35.72829,"lon":139.78273},{"name":"第二東日暮里保育園","province":"東京都","city":"荒川区","address":"東京都荒川区東日暮里1-17-21","lat":35.73011,"lon":139.78944},{"name":"第二南千住保育園","province":"東京都","city":"荒川区","address":"東京都荒川区南千住2-21-6","lat":35.73037,"lon":139.79742},{"name":"ドン・ボスコ保育園","province":"東京都","city":"荒川区","address":"東京都荒川区荒川3-11-1","lat":35.73439,"lon":139.78375},{"name":"なかよし保育園","province":"東京都","city":"荒川区","address":"東京都荒川区東日暮里1-17-2","lat":35.73044,"lon":139.78952},{"name":"西尾久みどり保育園","province":"東京都","city":"荒川区","address":"東京都荒川区西尾久4-6-19","lat":35.74423,"lon":139.76106},{"name":"西日暮里保育園","province":"東京都","city":"荒川区","address":"東京都荒川区西日暮里6-25-3","lat":35.73668,"lon":139.77064},{"name":"にじの樹保育園","province":"東京都","city":"荒川区","address":"東京都荒川区南千住8-5-2","lat":35.73905,"lon":139.80715},{"name":"にじの森保育園","province":"東京都","city":"荒川区","address":"東京都荒川区南千住8-13-1","lat":35.73624,"lon":139.80931},{"name":"日暮里きらきら保育園","province":"東京都","city":"荒川区","address":"東京都荒川区西日暮里2-30-41?4F","lat":35.73032,"lon":139.77221},{"name":"日暮里保育園","province":"東京都","city":"荒川区","address":"東京都荒川区西日暮里2-2-7","lat":35.73286,"lon":139.77415},{"name":"はなみずき保育園","province":"東京都","city":"荒川区","address":"東京都荒川区南千住8-5-5","lat":35.73839,"lon":139.80735},{"name":"原保育園","province":"東京都","city":"荒川区","address":"東京都荒川区町屋5-11-16","lat":35.75111,"lon":139.77882},{"name":"ハローフレンズ保育園","province":"東京都","city":"荒川区","address":"東京都荒川区西日暮里1-57-13","lat":35.73563,"lon":139.77191},{"name":"東尾久保育園","province":"東京都","city":"荒川区","address":"東京都荒川区東尾久2-28-3","lat":35.74192,"lon":139.77186},{"name":"ひぐらし保育園","province":"東京都","city":"荒川区","address":"東京都荒川区西日暮里5-35-9","lat":35.73325,"lon":139.76739},{"name":"聖華ひなた保育園","province":"東京都","city":"荒川区","address":"東京都荒川区東日暮里6-28-13","lat":35.73308,"lon":139.77577},{"name":"ピノキオ幼児舎東尾久保育園","province":"東京都","city":"荒川区","address":"東京都荒川区東尾久3-27-72F","lat":35.7458,"lon":139.76968},{"name":"フレンズ保育園","province":"東京都","city":"荒川区","address":"東京都荒川区東日暮里3-11-26","lat":35.73014,"lon":139.78195},{"name":"ぽけっとランド南千住瑞光保育園","province":"東京都","city":"荒川区","address":"東京都荒川区南千住7-30-1","lat":35.73471,"lon":139.79963},{"name":"ポポラー東京東日暮里園","province":"東京都","city":"荒川区","address":"東京都荒川区東日暮里6-1-1アトラスブランズタワー三河島2F","lat":35.73272,"lon":139.77825},{"name":"町屋保育園","province":"東京都","city":"荒川区","address":"東京都荒川区町屋1-35-9","lat":35.74441,"lon":139.78585},{"name":"まなびの森保育園西日暮里","province":"東京都","city":"荒川区","address":"東京都荒川区西日暮里6-21-2","lat":35.73533,"lon":139.77095},{"name":"まなびの森保育園町屋","province":"東京都","city":"荒川区","address":"東京都荒川区荒川7-41-8","lat":35.74126,"lon":139.78013},{"name":"まなびの森保育園三河島","province":"東京都","city":"荒川区","address":"東京都荒川区東日暮里6-2-145F","lat":35.73234,"lon":139.77809},{"name":"三河島保育園","province":"東京都","city":"荒川区","address":"東京都荒川区荒川3-54-1","lat":35.73556,"lon":139.78016},{"name":"南千住駅前保育所","province":"東京都","city":"荒川区","address":"東京都荒川区南千住4-3-2","lat":35.73279,"lon":139.79888},{"name":"南千住さくら保育園","province":"東京都","city":"荒川区","address":"東京都荒川区南千住4-9-4","lat":35.73685,"lon":139.80456},{"name":"南千住七丁目保育園","province":"東京都","city":"荒川区","address":"東京都荒川区南千住7-20-13","lat":35.73823,"lon":139.79872},{"name":"南千住保育園","province":"東京都","city":"荒川区","address":"東京都荒川区南千住6-35-3","lat":35.73819,"lon":139.79155},{"name":"宮前　花と緑の保育園","province":"東京都","city":"荒川区","address":"東京都荒川区東尾久8-45-24","lat":35.75186,"lon":139.76637},{"name":"夕やけこやけ保育園","province":"東京都","city":"荒川区","address":"東京都荒川区東日暮里3-11-19","lat":35.72993,"lon":139.78146},{"name":"ワタナベ学園","province":"東京都","city":"荒川区","address":"東京都荒川区町屋2-15-5","lat":35.74371,"lon":139.77839},{"name":"ワタナベ学園分園","province":"東京都","city":"荒川区","address":"東京都荒川区町屋2-17-21F","lat":35.74379,"lon":139.77725},{"name":"サンパール荒川","province":"東京都","city":"荒川区","address":"東京都荒川区荒川1丁目1-1","lat":35.73521383,"lon":139.78510844},{"name":"荒川区本庁舎","province":"東京都","city":"荒川区","address":"荒川区荒川2-2-3","lat":35.736083,"lon":139.783372},{"name":"東京ガス（株）千住ビル","province":"東京都","city":"荒川区","address":"荒川区南千住3-13-1","lat":35.73191,"lon":139.8083},{"name":"ワタナベ学園","province":"東京都","city":"荒川区","address":"荒川区町屋2-15-5","lat":35.743718,"lon":139.778389},{"name":"上智厚生館保育園","province":"東京都","city":"荒川区","address":"荒川区町屋4-9-10","lat":35.747231,"lon":139.776805},{"name":"尾久隣保館保育園","province":"東京都","city":"荒川区","address":"荒川区町屋6-28-11","lat":35.752155,"lon":139.783726},{"name":"町屋保育園","province":"東京都","city":"荒川区","address":"荒川区町屋1-35-9","lat":35.744396,"lon":139.785821},{"name":"原保育園","province":"東京都","city":"荒川区","address":"荒川区町屋5-11-16","lat":35.751441,"lon":139.779051},{"name":"うぃず町屋保育園","province":"東京都","city":"荒川区","address":"荒川区町屋2-10-3","lat":35.74424,"lon":139.779266},{"name":"仁風保育園","province":"東京都","city":"荒川区","address":"荒川区荒川2-41-1","lat":35.739391,"lon":139.783208},{"name":"ドン・ボスコ保育園","province":"東京都","city":"荒川区","address":"荒川区荒川3-11-1","lat":35.7347,"lon":139.783728},{"name":"荒川さつき保育園","province":"東京都","city":"荒川区","address":"荒川区荒川8-25-4","lat":35.737352,"lon":139.786192},{"name":"荒川保育園","province":"東京都","city":"荒川区","address":"荒川区荒川5-50-15","lat":35.740196,"lon":139.774942},{"name":"三河島保育園","province":"東京都","city":"荒川区","address":"荒川区荒川3-54-1","lat":35.73555,"lon":139.780136},{"name":"キッズあおぞら保育園","province":"東京都","city":"荒川区","address":"荒川区荒川2-1-5セントラル荒川ビルディング2階","lat":35.735078,"lon":139.784731},{"name":"まなびの森保育園町屋","province":"東京都","city":"荒川区","address":"荒川区荒川7-41-8","lat":35.74164,"lon":139.780628},{"name":"第二南千住保育園","province":"東京都","city":"荒川区","address":"荒川区南千住2-21-6","lat":35.730477,"lon":139.796823},{"name":"南千住さくら保育園","province":"東京都","city":"荒川区","address":"荒川区南千住4-9-4","lat":35.736955,"lon":139.804534},{"name":"南千住駅前保育所（おひさま保育園）","province":"東京都","city":"荒川区","address":"荒川区南千住4-3-2","lat":35.732783,"lon":139.798918},{"name":"南千住保育園","province":"東京都","city":"荒川区","address":"荒川区南千住6-35-3","lat":35.73813,"lon":139.791574},{"name":"南千住七丁目保育園","province":"東京都","city":"荒川区","address":"荒川区南千住7-20-13","lat":35.738233,"lon":139.798704},{"name":"にじの樹保育園","province":"東京都","city":"荒川区","address":"荒川区南千住8-5-2","lat":35.739025,"lon":139.807137},{"name":"ぽけっとランド南千住瑞光保育園","province":"東京都","city":"荒川区","address":"荒川区南千住7-30-1","lat":35.735005,"lon":139.799723},{"name":"はなみずき保育園","province":"東京都","city":"荒川区","address":"荒川区南千住8-5-5","lat":35.738386,"lon":139.807354},{"name":"汐入こども園","province":"東京都","city":"荒川区","address":"荒川区南千住8-9-3","lat":35.73895,"lon":139.811625},{"name":"汐入とちのき保育園","province":"東京都","city":"荒川区","address":"荒川区南千住8-3-3","lat":35.736017,"lon":139.80569},{"name":"コンビプラザ南千住保育園","province":"東京都","city":"荒川区","address":"荒川区南千住4-9-1リバーハープタワー南千住","lat":35.735728,"lon":139.803321},{"name":"ピノキオ幼児舎南千住保育園","province":"東京都","city":"荒川区","address":"荒川区南千住8-4-5けやき通り北参番館204","lat":35.737239,"lon":139.807234},{"name":"太陽の子わかば保育園","province":"東京都","city":"荒川区","address":"荒川区南千住5-44-16ライオンズマンション1階","lat":35.735974,"lon":139.796754},{"name":"にじの森保育園","province":"東京都","city":"荒川区","address":"荒川区南千住8-13-1","lat":35.7366,"lon":139.809226},{"name":"うぃず南千住駅前保育園","province":"東京都","city":"荒川区","address":"荒川区南千住5-23-14","lat":35.732699,"lon":139.796054},{"name":"上尾久保育園","province":"東京都","city":"荒川区","address":"荒川区西尾久8-10-12","lat":35.752351,"lon":139.756573},{"name":"西尾久みどり保育園","province":"東京都","city":"荒川区","address":"荒川区西尾久4-6-19","lat":35.744244,"lon":139.761015},{"name":"西尾久保育園","province":"東京都","city":"荒川区","address":"荒川区西尾久5-3-17","lat":35.74893,"lon":139.761225},{"name":"子供の家愛育保育園","province":"東京都","city":"荒川区","address":"荒川区西尾久7-26-4","lat":35.748257,"lon":139.755306},{"name":"小台橋保育園","province":"東京都","city":"荒川区","address":"荒川区西尾久6-9-7","lat":35.753704,"lon":139.760806},{"name":"小台ここわ保育園","province":"東京都","city":"荒川区","address":"荒川区西尾久3-21-12水島ビル2階","lat":35.750966,"lon":139.761725},{"name":"東尾久保育園","province":"東京都","city":"荒川区","address":"荒川区東尾久2-28-3","lat":35.741879,"lon":139.771836},{"name":"熊野前保育園","province":"東京都","city":"荒川区","address":"荒川区東尾久8-23-9","lat":35.751783,"lon":139.7694},{"name":"至誠会第二保育園","province":"東京都","city":"荒川区","address":"荒川区東尾久5-34-6","lat":35.747075,"lon":139.767242},{"name":"あいあい保育園新三河島園","province":"東京都","city":"荒川区","address":"荒川区東尾久1-1-4小澤ビル3階4階","lat":35.738138,"lon":139.772867},{"name":"西日暮里保育園","province":"東京都","city":"荒川区","address":"荒川区西日暮里6-25-3","lat":35.736599,"lon":139.770628},{"name":"グローバルキッズ日暮里駅前保育園","province":"東京都","city":"荒川区","address":"荒川区西日暮里2-22-1ステーションプラザタワー3F","lat":35.729742,"lon":139.770568},{"name":"ひぐらし保育園","province":"東京都","city":"荒川区","address":"荒川区西日暮里5-35-9","lat":35.733266,"lon":139.767393},{"name":"日暮里きらきら保育園","province":"東京都","city":"荒川区","address":"荒川区西日暮里2-30-4","lat":35.730347,"lon":139.772217},{"name":"あい・あい保育園　西日暮里一丁目園","province":"東京都","city":"荒川区","address":"荒川区西日暮里1-1-1パレスいしかわ2階","lat":35.736874,"lon":139.775906},{"name":"第二東日暮里保育園","province":"東京都","city":"荒川区","address":"荒川区東日暮里1-17-21","lat":35.730111,"lon":139.789427},{"name":"東日暮里保育園","province":"東京都","city":"荒川区","address":"荒川区東日暮里6-28-15","lat":35.733002,"lon":139.775884},{"name":"夕やけこやけ保育園","province":"東京都","city":"荒川区","address":"荒川区東日暮里3-11-19","lat":35.729964,"lon":139.781378},{"name":"うぃず東日暮里保育園","province":"東京都","city":"荒川区","address":"荒川区東日暮里4-11-6","lat":35.727411,"lon":139.781942},{"name":"グローバルキッズ東日暮里園","province":"東京都","city":"荒川区","address":"荒川区東日暮里5-16-3リーデンスタワー1・2F","lat":35.72623,"lon":139.776273},{"name":"ポポラー東京東日暮里園","province":"東京都","city":"荒川区","address":"荒川区東日暮里6-1-1アトラスブランズタワー三河島2F","lat":35.732736,"lon":139.778136},{"name":"東日暮里わんぱく保育園","province":"東京都","city":"荒川区","address":"荒川区東日暮里3-9-10","lat":35.728303,"lon":139.782719},{"name":"彰義隊戦死者墓","province":"東京都","city":"荒川区","address":"東京都荒川区南千住1-59-11","lat":35.73403,"lon":139.79286},{"name":"延命院のシイ","province":"東京都","city":"荒川区","address":"東京都荒川区西日暮里3-10-1","lat":35.72818,"lon":139.767723},{"name":"町屋保育園","province":"東京都","city":"荒川区","address":"荒川区町屋1-35-9","lat":35.74443,"lon":139.78592},{"name":"うぃず町屋保育園","province":"東京都","city":"荒川区","address":"荒川区町屋2-10-3","lat":35.74438,"lon":139.77937},{"name":"グローバルキッズ町屋保育園","province":"東京都","city":"荒川区","address":"荒川区町屋2-2-15","lat":35.7433,"lon":139.78041},{"name":"上智厚生館保育園","province":"東京都","city":"荒川区","address":"荒川区町屋4-9-10","lat":35.7471,"lon":139.77679},{"name":"原保育園","province":"東京都","city":"荒川区","address":"荒川区町屋5-11-16","lat":35.75109,"lon":139.77882},{"name":"尾久隣保館保育園","province":"東京都","city":"荒川区","address":"荒川区町屋6-28-11","lat":35.7522,"lon":139.7836},{"name":"キッズあおぞら保育園","province":"東京都","city":"荒川区","address":"荒川区荒川2-1-5セントラル荒川ビルディング2階","lat":35.73488,"lon":139.78474},{"name":"仁風保育園","province":"東京都","city":"荒川区","address":"荒川区荒川2-41-1","lat":35.73935,"lon":139.78325},{"name":"ドン・ボスコ保育園","province":"東京都","city":"荒川区","address":"荒川区荒川3-11-1","lat":35.73463,"lon":139.78378},{"name":"三河島保育園","province":"東京都","city":"荒川区","address":"荒川区荒川3-54-1","lat":35.73545,"lon":139.78017},{"name":"タムスわんぱく保育園荒川","province":"東京都","city":"荒川区","address":"荒川区荒川5-31-7","lat":35.73972,"lon":139.77371},{"name":"まなびの森保育園町屋","province":"東京都","city":"荒川区","address":"荒川区荒川7-41-8","lat":35.74149,"lon":139.7804},{"name":"黒川幼稚舎","province":"東京都","city":"荒川区","address":"荒川区荒川7-7-10","lat":35.7416208,"lon":139.7840197},{"name":"荒川さつき保育園","province":"東京都","city":"荒川区","address":"荒川区荒川8-25-4","lat":35.74152,"lon":139.78897},{"name":"第二南千住保育園","province":"東京都","city":"荒川区","address":"荒川区南千住2-21-6","lat":35.7305,"lon":139.79735},{"name":"南千住駅前保育所（おひさま保育園）","province":"東京都","city":"荒川区","address":"荒川区南千住4-3-2","lat":35.7322,"lon":139.7988},{"name":"コンビプラザ南千住保育園","province":"東京都","city":"荒川区","address":"荒川区南千住4-9-1リバーハープタワー南千住","lat":35.73629,"lon":139.80386},{"name":"南千住さくら保育園","province":"東京都","city":"荒川区","address":"荒川区南千住4-9-4","lat":35.73629,"lon":139.80386},{"name":"うぃず南千住駅前保育園","province":"東京都","city":"荒川区","address":"荒川区南千住5-23-14","lat":35.73261,"lon":139.79546},{"name":"太陽の子わかば保育園","province":"東京都","city":"荒川区","address":"荒川区南千住5-44-16ライオンズマンション1階","lat":35.73613,"lon":139.79652},{"name":"南千住保育園","province":"東京都","city":"荒川区","address":"荒川区南千住6-35-3","lat":35.73815,"lon":139.79155},{"name":"南千住七丁目保育園","province":"東京都","city":"荒川区","address":"荒川区南千住7-20-13","lat":35.73794,"lon":139.79846},{"name":"ぽけっとランド南千住瑞光保育園","province":"東京都","city":"荒川区","address":"荒川区南千住7-30-1","lat":35.73541,"lon":139.79979},{"name":"にじの森保育園","province":"東京都","city":"荒川区","address":"荒川区南千住8-13-1","lat":35.73654,"lon":139.80865},{"name":"汐入とちのき保育園","province":"東京都","city":"荒川区","address":"荒川区南千住8-3-3","lat":35.73655,"lon":139.80554},{"name":"にじの樹保育園","province":"東京都","city":"荒川区","address":"荒川区南千住8-5-2","lat":35.73819,"lon":139.80527},{"name":"はなみずき保育園","province":"東京都","city":"荒川区","address":"荒川区南千住8-5-5","lat":35.73819,"lon":139.80527},{"name":"汐入こども園","province":"東京都","city":"荒川区","address":"荒川区南千住8-9-3","lat":35.73887,"lon":139.81073},{"name":"大空と大地のなーさりぃ荒川西尾久園","province":"東京都","city":"荒川区","address":"荒川区西尾久1-28-10","lat":35.74627,"lon":139.76224},{"name":"小台ここわ保育園","province":"東京都","city":"荒川区","address":"荒川区西尾久3-21-12水島ビル2階","lat":35.75087,"lon":139.76157},{"name":"オランジェナーサリー","province":"東京都","city":"荒川区","address":"荒川区西尾久4-27-1ヴェルデ西尾久1F","lat":35.74561,"lon":139.75786},{"name":"西尾久みどり保育園","province":"東京都","city":"荒川区","address":"荒川区西尾久4-6-19","lat":35.74428,"lon":139.76088},{"name":"小台橋保育園","province":"東京都","city":"荒川区","address":"荒川区西尾久6-9-7","lat":35.75359,"lon":139.76082},{"name":"子供の家愛育保育園","province":"東京都","city":"荒川区","address":"荒川区西尾久7-26-4","lat":35.74834,"lon":139.75539},{"name":"上尾久保育園","province":"東京都","city":"荒川区","address":"荒川区西尾久8-10-12","lat":35.75256,"lon":139.75705},{"name":"AIAI NURSERY新三河島","province":"東京都","city":"荒川区","address":"荒川区東尾久1-1-4小澤ビル3階4階","lat":35.73801,"lon":139.77281},{"name":"東尾久保育園","province":"東京都","city":"荒川区","address":"荒川区東尾久2-28-3","lat":35.74192,"lon":139.77206},{"name":"ピノキオ幼児舎東尾久保育園","province":"東京都","city":"荒川区","address":"荒川区東尾久3-27-7","lat":35.74581,"lon":139.76979},{"name":"至誠会第二保育園","province":"東京都","city":"荒川区","address":"荒川区東尾久5-34-6","lat":35.74704,"lon":139.76726},{"name":"熊野前保育園","province":"東京都","city":"荒川区","address":"荒川区東尾久8-23-9","lat":35.75175,"lon":139.76941},{"name":"宮前　花と緑の保育園","province":"東京都","city":"荒川区","address":"荒川区東尾久8-45-24","lat":35.75112,"lon":139.76639},{"name":"AIAI NURSERY西日暮里一丁目","province":"東京都","city":"荒川区","address":"荒川区西日暮里1-1-1パレス石川2階","lat":35.73687,"lon":139.77606},{"name":"グローバルキッズ日暮里駅前保育園","province":"東京都","city":"荒川区","address":"荒川区西日暮里2-22-1ステーションプラザタワー3F","lat":35.72969,"lon":139.77057},{"name":"日暮里保育園","province":"東京都","city":"荒川区","address":"荒川区西日暮里2-2-7","lat":35.73326,"lon":139.77374},{"name":"日暮里きらきら保育園","province":"東京都","city":"荒川区","address":"荒川区西日暮里2-30-4ウェステリアXI1~4F","lat":35.73057,"lon":139.77222},{"name":"さくらさくみらい西日暮里","province":"東京都","city":"荒川区","address":"荒川区西日暮里4-10-12","lat":35.7331,"lon":139.76202},{"name":"ひぐらし保育園","province":"東京都","city":"荒川区","address":"荒川区西日暮里5-35-9","lat":35.73316,"lon":139.76733},{"name":"まなびの森保育園西日暮里","province":"東京都","city":"荒川区","address":"荒川区西日暮里6-21-2","lat":35.73534,"lon":139.77097},{"name":"西日暮里保育園","province":"東京都","city":"荒川区","address":"荒川区西日暮里6-25-3","lat":35.73668,"lon":139.77061},{"name":"上智聖ローザ保育園","province":"東京都","city":"荒川区","address":"荒川区西日暮里6-7-1","lat":35.73707,"lon":139.77254},{"name":"なかよし保育園","province":"東京都","city":"荒川区","address":"荒川区東日暮里1-17-2","lat":35.72997,"lon":139.78955},{"name":"第二東日暮里保育園","province":"東京都","city":"荒川区","address":"荒川区東日暮里1-17-21","lat":35.72997,"lon":139.78955},{"name":"夕やけこやけ保育園","province":"東京都","city":"荒川区","address":"荒川区東日暮里3-11-19","lat":35.72988,"lon":139.78169},{"name":"タムスわんぱく保育園東日暮里","province":"東京都","city":"荒川区","address":"荒川区東日暮里3-9-10","lat":35.72863,"lon":139.78262},{"name":"うぃず東日暮里保育園","province":"東京都","city":"荒川区","address":"荒川区東日暮里4-11-6","lat":35.72736,"lon":139.78215},{"name":"グローバルキッズ東日暮里園","province":"東京都","city":"荒川区","address":"荒川区東日暮里5-16-3リーデンスタワー1・2F","lat":35.72601,"lon":139.77615},{"name":"ポポラー東京東日暮里園","province":"東京都","city":"荒川区","address":"荒川区東日暮里6-1-1アトラスブランズタワー三河島2F","lat":35.73275,"lon":139.77827},{"name":"まなびの森保育園三河島","province":"東京都","city":"荒川区","address":"荒川区東日暮里6-2-14Frespo東日暮里5階","lat":35.73223,"lon":139.77808},{"name":"聖華ひなた保育園","province":"東京都","city":"荒川区","address":"荒川区東日暮里6-28-13","lat":35.73305,"lon":139.77603},{"name":"荒川保育園","province":"東京都","city":"荒川区","address":"荒川区荒川5-50-15","lat":35.74051,"lon":139.7746},{"name":"荒川区立心身障害者福祉センター（荒川たんぽぽセンター）","province":"東京都","city":"荒川区","address":"東京都荒川区荒川1丁目53-20","lat":35.73304722,"lon":139.78448621},{"name":"ピノキオ幼児舎南千住保育園","province":"東京都","city":"荒川区","address":"荒川区南千住8-4-5けやき通り北参番館204","lat":35.73752,"lon":139.80653},{"name":"AIAI　NURSERY　新三河島","province":"東京都","city":"荒川区","address":"荒川区東尾久1-1-4小澤ビル3階4階","lat":35.73801,"lon":139.77281},{"name":"西尾久保育園","province":"東京都","city":"荒川区","address":"荒川区東尾久8-45-24","lat":35.75112,"lon":139.76639},{"name":"AIAI　NURSERY　西日暮里一丁目","province":"東京都","city":"荒川区","address":"荒川区西日暮里1-1-1パレス石川2階","lat":35.73687,"lon":139.77606},{"name":"AIAI NURSERY 新三河島","province":"東京都","city":"荒川区","address":"荒川区東尾久1-1-4小澤ビル3階4階","lat":35.73801,"lon":139.77281},{"name":"AIAI NURSERY 西日暮里一丁目","province":"東京都","city":"荒川区","address":"荒川区西日暮里1-1-1パレス石川2階","lat":35.73687,"lon":139.77606},{"name":"東日暮里わんぱく保育園","province":"東京都","city":"荒川区","address":"荒川区東日暮里3-9-10","lat":35.72863,"lon":139.78262},{"name":"西尾久保育園","province":"東京都","city":"荒川区","address":"荒川区西尾久5-3-17","lat":35.74855,"lon":139.76099},{"name":"小台橋保育園","province":"東京都","city":"荒川区","address":"荒川区西尾久6-9-7","lat":35.75112,"lon":139.76639},{"name":"あいあい保育園新三河島園","province":"東京都","city":"荒川区","address":"荒川区東尾久1-1-4小澤ビル3・4階","lat":35.73801,"lon":139.77281},{"name":"あい・あい保育園　西日暮里一丁目園","province":"東京都","city":"荒川区","address":"荒川区西日暮里1-1-1パレス石川2階","lat":35.73687,"lon":139.77606},{"name":"原保育園","province":"東京都","city":"荒川区","address":"荒川区町屋5-11-16","lat":35.7511,"lon":139.77882},{"name":"にじの森保育園","province":"東京都","city":"荒川区","address":"荒川区南千住8-13-1","lat":35.73654,"lon":139.80866},{"name":"熊野前保育園","province":"東京都","city":"荒川区","address":"荒川区東尾久8-23-9","lat":35.75176,"lon":139.76941},{"name":"西日暮里保育園","province":"東京都","city":"荒川区","address":"荒川区西日暮里6-25-3","lat":35.73668,"lon":139.77062},{"name":"日暮里保育園","province":"東京都","city":"荒川区","address":"荒川区西日暮里2-2-7","lat":35.73327,"lon":139.77374},{"name":"ポポラー東京東日暮里園","province":"東京都","city":"荒川区","address":"荒川区東日暮里6-1-1アトラスブランズタワー三河島2F","lat":35.73275,"lon":139.77828},{"name":"太陽の子わかば保育園","province":"東京都","city":"荒川区","address":"荒川区南千住5-44-16ライオンズマンション1階","lat":35.73289,"lon":139.80272},{"name":"AIAI　NURSERY新三河島","province":"東京都","city":"荒川区","address":"東京都荒川区東尾久1-1-43F・4F","lat":35.73811,"lon":139.77284},{"name":"AIAI　NURSERY西日暮里一丁目","province":"東京都","city":"荒川区","address":"東京都荒川区西日暮里1-1-12F","lat":35.73686,"lon":139.77592},{"name":"MIRATZ東尾久保育園","province":"東京都","city":"荒川区","address":"東京都荒川区東尾久4-1-131F","lat":35.74007,"lon":139.76849},{"name":"上尾久保育園","province":"東京都","city":"荒川区","address":"東京都荒川区西尾久8-10-12","lat":35.75241,"lon":139.75657},{"name":"荒川さつき保育園","province":"東京都","city":"荒川区","address":"東京都荒川区荒川8-25-4","lat":35.73737,"lon":139.78613},{"name":"荒川保育園","province":"東京都","city":"荒川区","address":"東京都荒川区荒川5-50-15","lat":35.74015,"lon":139.77493},{"name":"至誠会第二保育園","province":"東京都","city":"荒川区","address":"東京都荒川区東尾久5-34-6","lat":35.74708,"lon":139.76725},{"name":"うぃず東日暮里保育園","province":"東京都","city":"荒川区","address":"東京都荒川区東日暮里4-11-6","lat":35.7274,"lon":139.78195},{"name":"うぃず町屋保育園","province":"東京都","city":"荒川区","address":"東京都荒川区町屋2-10-3","lat":35.74424,"lon":139.77926},{"name":"うぃず南千住駅前保育園","province":"東京都","city":"荒川区","address":"東京都荒川区南千住5-23-14","lat":35.73247,"lon":139.79612},{"name":"大空と大地のなーさりぃ荒川西尾久園","province":"東京都","city":"荒川区","address":"東京都荒川区西尾久1-28-10","lat":35.74631,"lon":139.76211},{"name":"尾久隣保館保育園","province":"東京都","city":"荒川区","address":"東京都荒川区町屋6-28-11","lat":35.75223,"lon":139.7837},{"name":"小台橋保育園","province":"東京都","city":"荒川区","address":"東京都荒川区西尾久6-9-7","lat":35.75353,"lon":139.76048},{"name":"小台ここわ保育園","province":"東京都","city":"荒川区","address":"東京都荒川区西尾久3-21-12水島ビル2F","lat":35.75097,"lon":139.76178},{"name":"おはな保育室","province":"東京都","city":"荒川区","address":"東京都荒川区荒川1-37-4","lat":35.73341,"lon":139.78762},{"name":"オランジェナーサリー","province":"東京都","city":"荒川区","address":"東京都荒川区西尾久4-27-1ヴェルデ西尾久1F","lat":35.74556,"lon":139.75801},{"name":"オランジェナーサリー分園","province":"東京都","city":"荒川区","address":"東京都荒川区西尾久6-30-16エスパシオルイヨム1F","lat":35.75094,"lon":139.75849},{"name":"家庭的保育室スノードロップ","province":"東京都","city":"荒川区","address":"東京都荒川区南千住6-50-3","lat":35.73586,"lon":139.79393},