{"keyword":"再生","data":[{"name":"(株)大久保  本店倉庫","province":"東京都","city":"荒川区","address":"荒川区東日暮里2-45-2","lat":35.730141,"lon":139.783768},{"name":"(株)須賀","province":"東京都","city":"荒川区","address":"荒川区東日暮里2-28-11","lat":35.728958,"lon":139.785263},{"name":"(株)久保田商店","province":"東京都","city":"荒川区","address":"荒川区東日暮里4-16-5","lat":35.727699,"lon":139.78067},{"name":"(株)小湊","province":"東京都","city":"荒川区","address":"荒川区西日暮里6-20-4","lat":35.735748,"lon":139.771347},{"name":"(有)斎民商店","province":"東京都","city":"荒川区","address":"荒川区東日暮里2-31-7","lat":35.727909,"lon":139.785217},{"name":"丸八金属(株)","province":"東京都","city":"荒川区","address":"荒川区東日暮里1-12-3","lat":35.731064,"lon":139.787979},{"name":"(有)杉沢正直商店","province":"東京都","city":"荒川区","address":"荒川区東日暮里2-25-7","lat":35.730213,"lon":139.785141},{"name":"(株)ワタコー","province":"東京都","city":"荒川区","address":"荒川区東日暮里2-39-4","lat":35.730667,"lon":139.784515},{"name":"(有)野村ゴム商店","province":"東京都","city":"荒川区","address":"荒川区東日暮里2-38-5","lat":35.73016,"lon":139.784485},{"name":"(株)大島商店","province":"東京都","city":"荒川区","address":"荒川区東尾久1-5-6","lat":35.739014,"lon":139.772705},{"name":"(有)那須野商店","province":"東京都","city":"荒川区","address":"荒川区東日暮里3-3-17","lat":35.73138,"lon":139.78273},{"name":"近藤紙業","province":"東京都","city":"荒川区","address":"荒川区南千住6-51-3","lat":35.735886,"lon":139.793427},{"name":"(株)シムラ  荒川工場","province":"東京都","city":"荒川区","address":"荒川区荒川8-23-3","lat":35.740128,"lon":139.789902},{"name":"(株)マンモスエコロジー  本社営業所","province":"東京都","city":"荒川区","address":"荒川区東日暮里2-33-14","lat":35.728275,"lon":139.784332},{"name":"(株)廣田","province":"東京都","city":"荒川区","address":"荒川区東日暮里2-28-3","lat":35.728958,"lon":139.785263}]}