{"keyword":"区","data":[{"name":"荒川区保健所（生活衛生課）","province":"東京都","city":"荒川区","address":"荒川区荒川2-11-1","lat":35.737061,"lon":139.783389},{"name":"荒川区保健所（健康推進課）","province":"東京都","city":"荒川区","address":"荒川区荒川2-11-1","lat":35.737061,"lon":139.783389},{"name":"荒川区保健所（保健予防課）","province":"東京都","city":"荒川区","address":"荒川区荒川2-11-1","lat":35.737061,"lon":139.783389},{"name":"荒川区保健所（生活衛生課）","province":"東京都","city":"荒川区","address":"東京都荒川区荒川2丁目11-1","lat":35.73706089,"lon":139.78338914},{"name":"荒川区保健所（健康推進課）","province":"東京都","city":"荒川区","address":"東京都荒川区荒川2丁目11-1","lat":35.73706089,"lon":139.78338914},{"name":"荒川区保健所（保健予防課）","province":"東京都","city":"荒川区","address":"東京都荒川区荒川2丁目11-1","lat":35.73706089,"lon":139.78338914},{"name":"荒川区保健所（生活衛生課）","province":"東京都","city":"荒川区","address":"荒川区荒川2-11-1","lat":35.73694,"lon":139.78354},{"name":"荒川区保健所（健康推進課）","province":"東京都","city":"荒川区","address":"荒川区荒川2-11-1","lat":35.73694,"lon":139.78354},{"name":"荒川区保健所（保健予防課）","province":"東京都","city":"荒川区","address":"荒川区荒川2-11-1","lat":35.73694,"lon":139.78354}]}