{"keyword":"収蔵","data":[{"name":"南千住給水所","province":"東京都","city":"荒川区","address":"東京都荒川区南千住8-2-6","lat":35.735711,"lon":139.807672},{"name":"区立日暮里南公園","province":"東京都","city":"荒川区","address":"東京都荒川区東日暮里5-19-1","lat":35.7270315,"lon":139.7773452},{"name":"東京女子医科大学東医療センター","province":"東京都","city":"荒川区","address":"東京都荒川区西尾久2丁目1-10","lat":35.74831628,"lon":139.7653279},{"name":"南千住給水所","province":"東京都","city":"荒川区","address":"東京都荒川区南千住8丁目2-6","lat":35.73577514,"lon":139.80766775},{"name":"東尾久運動場多目的広場","province":"東京都","city":"荒川区","address":"東京都荒川区東尾久6丁目46","lat":35.74849157,"lon":139.77175799},{"name":"都立尾久の原公園多目的広場第二サッカーグラウンド","province":"東京都","city":"荒川区","address":"東京都荒川区東尾久7丁目1-1","lat":35.75213275,"lon":139.77513791},{"name":"都立汐入公園多目的広場","province":"東京都","city":"荒川区","address":"東京都荒川区南千住8丁目13","lat":35.73642518,"lon":139.81024806},{"name":"荒川区立南千住野球場","province":"東京都","city":"荒川区","address":"東京都荒川区南千住6丁目45","lat":35.73607733,"lon":139.79205464},{"name":"荒川区","province":"東京都","city":"荒川区","address":"荒川区荒川2-5-2","lat":35.73597,"lon":139.7826},{"name":"アルフレッサ（株）荒川医薬品センター","province":"東京都","city":"荒川区","address":"荒川区西日暮里6-65-1","lat":35.73578,"lon":139.7663},{"name":"南千住給水所","province":"東京都","city":"荒川区","address":"東京都荒川区南千住8-2-6","lat":35.735711,"lon":139.807672},{"name":"区立日暮里南公園","province":"東京都","city":"荒川区","address":"東京都荒川区東日暮里5-19-1","lat":35.7270315,"lon":139.7773452},{"name":"東京女子医科大学東医療センター","province":"東京都","city":"荒川区","address":"東京都荒川区西尾久2丁目1-10","lat":35.74831628,"lon":139.7653279},{"name":"南千住給水所","province":"東京都","city":"荒川区","address":"東京都荒川区南千住8丁目2-6","lat":35.73577514,"lon":139.80766775},{"name":"東尾久運動場多目的広場","province":"東京都","city":"荒川区","address":"東京都荒川区東尾久6丁目46","lat":35.74849157,"lon":139.77175799},{"name":"都立尾久の原公園多目的広場第二サッカーグラウンド","province":"東京都","city":"荒川区","address":"東京都荒川区東尾久7丁目1-1","lat":35.75213275,"lon":139.77513791},{"name":"都立汐入公園多目的広場","province":"東京都","city":"荒川区","address":"東京都荒川区南千住8丁目13","lat":35.73642518,"lon":139.81024806},{"name":"荒川区立南千住野球場","province":"東京都","city":"荒川区","address":"東京都荒川区南千住6丁目45","lat":35.73607733,"lon":139.79205464},{"name":"荒川区","province":"東京都","city":"荒川区","address":"荒川区荒川2-5-2","lat":35.73597,"lon":139.7826},{"name":"アルフレッサ（株）荒川医薬品センター","province":"東京都","city":"荒川区","address":"荒川区西日暮里6-65-1","lat":35.73578,"lon":139.7663},{"name":"南千住給水所","province":"東京都","city":"荒川区","address":"東京都荒川区南千住8-2-6","lat":35.735711,"lon":139.807672},{"name":"区立日暮里南公園","province":"東京都","city":"荒川区","address":"東京都荒川区東日暮里5-19-1","lat":35.7270315,"lon":139.7773452},{"name":"東京女子医科大学東医療センター","province":"東京都","city":"荒川区","address":"東京都荒川区西尾久2丁目1-10","lat":35.74831628,"lon":139.7653279},{"name":"南千住給水所","province":"東京都","city":"荒川区","address":"東京都荒川区南千住8丁目2-6","lat":35.73577514,"lon":139.80766775},{"name":"東尾久運動場多目的広場","province":"東京都","city":"荒川区","address":"東京都荒川区東尾久6丁目46","lat":35.74849157,"lon":139.77175799},{"name":"都立尾久の原公園多目的広場第二サッカーグラウンド","province":"東京都","city":"荒川区","address":"東京都荒川区東尾久7丁目1-1","lat":35.75213275,"lon":139.77513791},{"name":"都立汐入公園多目的広場","province":"東京都","city":"荒川区","address":"東京都荒川区南千住8丁目13","lat":35.73642518,"lon":139.81024806},{"name":"荒川区立南千住野球場","province":"東京都","city":"荒川区","address":"東京都荒川区南千住6丁目45","lat":35.73607733,"lon":139.79205464},{"name":"荒川区","province":"東京都","city":"荒川区","address":"荒川区荒川2-5-2","lat":35.73597,"lon":139.7826},{"name":"アルフレッサ（株）荒川医薬品センター","province":"東京都","city":"荒川区","address":"荒川区西日暮里6-65-1","lat":35.73578,"lon":139.7663},{"name":"南千住給水所","province":"東京都","city":"荒川区","address":"東京都荒川区南千住8-2-6","lat":35.735711,"lon":139.807672},{"name":"区立日暮里南公園","province":"東京都","city":"荒川区","address":"東京都荒川区東日暮里5-19-1","lat":35.7270315,"lon":139.7773452},{"name":"東京女子医科大学東医療センター","province":"東京都","city":"荒川区","address":"東京都荒川区西尾久2丁目1-10","lat":35.74831628,"lon":139.7653279},{"name":"東尾久運動場多目的広場","province":"東京都","city":"荒川区","address":"東京都荒川区東尾久6丁目46","lat":35.74849157,"lon":139.77175799},{"name":"都立尾久の原公園多目的広場第二サッカーグラウンド","province":"東京都","city":"荒川区","address":"東京都荒川区東尾久7丁目1-1","lat":35.75213275,"lon":139.77513791},{"name":"都立汐入公園多目的広場","province":"東京都","city":"荒川区","address":"東京都荒川区南千住8丁目13","lat":35.73642518,"lon":139.81024806},{"name":"荒川区立南千住野球場","province":"東京都","city":"荒川区","address":"東京都荒川区南千住6丁目45","lat":35.73607733,"lon":139.79205464},{"name":"荒川区","province":"東京都","city":"荒川区","address":"荒川区荒川2-5-2","lat":35.73597,"lon":139.7826},{"name":"アルフレッサ（株）荒川医薬品センター","province":"東京都","city":"荒川区","address":"荒川区西日暮里6-65-1","lat":35.73578,"lon":139.7663},{"name":"南千住給水所","province":"東京都","city":"荒川区","address":"東京都荒川区南千住8-2-6","lat":35.735711,"lon":139.807672},{"name":"区立日暮里南公園","province":"東京都","city":"荒川区","address":"東京都荒川区東日暮里5-19-1","lat":35.7270315,"lon":139.7773452},{"name":"東京女子医科大学東医療センター","province":"東京都","city":"荒川区","address":"東京都荒川区西尾久2丁目1-10","lat":35.74831628,"lon":139.7653279},{"name":"荒川区","province":"東京都","city":"荒川区","address":"荒川区荒川2-5-2","lat":35.73597,"lon":139.7826},{"name":"アルフレッサ（株）荒川医薬品センター","province":"東京都","city":"荒川区","address":"荒川区西日暮里6-65-1","lat":35.73578,"lon":139.7663},{"name":"南千住給水所","province":"東京都","city":"荒川区","address":"東京都荒川区南千住8-2-6","lat":35.735711,"lon":139.807672},{"name":"区立日暮里南公園","province":"東京都","city":"荒川区","address":"東京都荒川区東日暮里5-19-1","lat":35.7270315,"lon":139.7773452},{"name":"東京女子医科大学東医療センター","province":"東京都","city":"荒川区","address":"東京都荒川区西尾久2丁目1-10","lat":35.74831628,"lon":139.7653279},{"name":"荒川区","province":"東京都","city":"荒川区","address":"荒川区荒川2-5-2","lat":35.73597,"lon":139.7826},{"name":"アルフレッサ（株）荒川医薬品センター","province":"東京都","city":"荒川区","address":"荒川区西日暮里6-65-1","lat":35.73578,"lon":139.7663},{"name":"南千住給水所","province":"東京都","city":"荒川区","address":"東京都荒川区南千住8-2-6","lat":35.735711,"lon":139.807672},{"name":"区立日暮里南公園","province":"東京都","city":"荒川区","address":"東京都荒川区東日暮里5-19-1","lat":35.7270315,"lon":139.7773452},{"name":"東京女子医科大学東医療センター","province":"東京都","city":"荒川区","address":"東京都荒川区西尾久2丁目1-10","lat":35.74831628,"lon":139.7653279},{"name":"荒川区","province":"東京都","city":"荒川区","address":"荒川区荒川2-5-2","lat":35.73597,"lon":139.7826},{"name":"アルフレッサ（株）荒川医薬品センター","province":"東京都","city":"荒川区","address":"荒川区西日暮里6-65-1","lat":35.73578,"lon":139.7663},{"name":"南千住給水所","province":"東京都","city":"荒川区","address":"東京都荒川区南千住8-2-6","lat":35.735711,"lon":139.807672},{"name":"区立日暮里南公園","province":"東京都","city":"荒川区","address":"東京都荒川区東日暮里5-19-1","lat":35.7270315,"lon":139.7773452},{"name":"東京女子医科大学東医療センター","province":"東京都","city":"荒川区","address":"東京都荒川区西尾久2丁目1-10","lat":35.74831628,"lon":139.7653279},{"name":"荒川区","province":"東京都","city":"荒川区","address":"荒川区荒川2-5-2","lat":35.73597,"lon":139.7826},{"name":"アルフレッサ（株）荒川医薬品センター","province":"東京都","city":"荒川区","address":"荒川区西日暮里6-65-1","lat":35.73578,"lon":139.7663},{"name":"南千住給水所","province":"東京都","city":"荒川区","address":"東京都荒川区南千住8-2-6","lat":35.735711,"lon":139.807672},{"name":"区立日暮里南公園","province":"東京都","city":"荒川区","address":"東京都荒川区東日暮里5-19-1","lat":35.7270315,"lon":139.7773452},{"name":"東京女子医科大学東医療センター","province":"東京都","city":"荒川区","address":"東京都荒川区西尾久2丁目1-10","lat":35.74831628,"lon":139.7653279},{"name":"荒川区","province":"東京都","city":"荒川区","address":"荒川区荒川2-5-2","lat":35.73597,"lon":139.7826},{"name":"アルフレッサ（株）荒川医薬品センター","province":"東京都","city":"荒川区","address":"荒川区西日暮里6-65-1","lat":35.73578,"lon":139.7663},{"name":"南千住給水所","province":"東京都","city":"荒川区","address":"東京都荒川区南千住8-2-6","lat":35.735711,"lon":139.807672},{"name":"区立日暮里南公園","province":"東京都","city":"荒川区","address":"東京都荒川区東日暮里5-19-1","lat":35.7270315,"lon":139.7773452},{"name":"東京女子医科大学東医療センター","province":"東京都","city":"荒川区","address":"東京都荒川区西尾久2丁目1-10","lat":35.74831628,"lon":139.7653279},{"name":"荒川区","province":"東京都","city":"荒川区","address":"荒川区荒川2-5-2","lat":35.73597,"lon":139.7826},{"name":"アルフレッサ（株）荒川医薬品センター","province":"東京都","city":"荒川区","address":"荒川区西日暮里6-65-1","lat":35.73578,"lon":139.7663},{"name":"南千住給水所","province":"東京都","city":"荒川区","address":"東京都荒川区南千住8-2-6","lat":35.735711,"lon":139.807672},{"name":"区立日暮里南公園","province":"東京都","city":"荒川区","address":"東京都荒川区東日暮里5-19-1","lat":35.7270315,"lon":139.7773452},{"name":"荒川区","province":"東京都","city":"荒川区","address":"荒川区荒川2-5-2","lat":35.73597,"lon":139.7826},{"name":"アルフレッサ（株）荒川医薬品センター","province":"東京都","city":"荒川区","address":"荒川区西日暮里6-65-1","lat":35.73578,"lon":139.7663},{"name":"南千住給水所","province":"東京都","city":"荒川区","address":"東京都荒川区南千住8-2-6","lat":35.735711,"lon":139.807672},{"name":"区立日暮里南公園","province":"東京都","city":"荒川区","address":"東京都荒川区東日暮里5-19-1","lat":35.7270315,"lon":139.7773452},{"name":"荒川区","province":"東京都","city":"荒川区","address":"荒川区荒川2-5-2","lat":35.73597,"lon":139.7826},{"name":"アルフレッサ（株）荒川医薬品センター","province":"東京都","city":"荒川区","address":"荒川区西日暮里6-65-1","lat":35.73578,"lon":139.7663},{"name":"南千住給水所","province":"東京都","city":"荒川区","address":"東京都荒川区南千住8-2-6","lat":35.735711,"lon":139.807672},{"name":"区立日暮里南公園","province":"東京都","city":"荒川区","address":"東京都荒川区東日暮里5-19-1","lat":35.7270315,"lon":139.7773452},{"name":"荒川区","province":"東京都","city":"荒川区","address":"荒川区荒川2-5-2","lat":35.73597,"lon":139.7826},{"name":"アルフレッサ（株）荒川医薬品センター","province":"東京都","city":"荒川区","address":"荒川区西日暮里6-65-1","lat":35.73578,"lon":139.7663},{"name":"南千住給水所","province":"東京都","city":"荒川区","address":"東京都荒川区南千住8-2-6","lat":35.735711,"lon":139.807672},{"name":"区立日暮里南公園","province":"東京都","city":"荒川区","address":"東京都荒川区東日暮里5-19-1","lat":35.7270315,"lon":139.7773452},{"name":"荒川区","province":"東京都","city":"荒川区","address":"荒川区荒川2-5-2","lat":35.73597,"lon":139.7826},{"name":"アルフレッサ（株）荒川医薬品センター","province":"東京都","city":"荒川区","address":"荒川区西日暮里6-65-1","lat":35.73578,"lon":139.7663},{"name":"南千住給水所","province":"東京都","city":"荒川区","address":"東京都荒川区南千住8-2-6","lat":35.735711,"lon":139.807672},{"name":"区立日暮里南公園","province":"東京都","city":"荒川区","address":"東京都荒川区東日暮里5-19-1","lat":35.7270315,"lon":139.7773452},{"name":"荒川区","province":"東京都","city":"荒川区","address":"荒川区荒川2-5-2","lat":35.73597,"lon":139.7826},{"name":"アルフレッサ（株）荒川医薬品センター","province":"東京都","city":"荒川区","address":"荒川区西日暮里6-65-1","lat":35.73578,"lon":139.7663},{"name":"南千住給水所","province":"東京都","city":"荒川区","address":"東京都荒川区南千住8-2-6","lat":35.735711,"lon":139.807672},{"name":"区立日暮里南公園","province":"東京都","city":"荒川区","address":"東京都荒川区東日暮里5-19-1","lat":35.7270315,"lon":139.7773452},{"name":"荒川区","province":"東京都","city":"荒川区","address":"荒川区荒川2-5-2","lat":35.73597,"lon":139.7826},{"name":"アルフレッサ（株）荒川医薬品センター","province":"東京都","city":"荒川区","address":"荒川区西日暮里6-65-1","lat":35.73578,"lon":139.7663},{"name":"南千住給水所","province":"東京都","city":"荒川区","address":"東京都荒川区南千住8-2-6","lat":35.735711,"lon":139.807672},{"name":"区立日暮里南公園","province":"東京都","city":"荒川区","address":"東京都荒川区東日暮里5-19-1","lat":35.7270315,"lon":139.7773452},{"name":"荒川区","province":"東京都","city":"荒川区","address":"荒川区荒川2-5-2","lat":35.73597,"lon":139.7826},{"name":"アルフレッサ（株）荒川医薬品センター","province":"東京都","city":"荒川区","address":"荒川区西日暮里6-65-1","lat":35.73578,"lon":139.7663},{"name":"南千住給水所","province":"東京都","city":"荒川区","address":"東京都荒川区南千住8-2-6","lat":35.735711,"lon":139.807672},{"name":"区立日暮里南公園","province":"東京都","city":"荒川区","address":"東京都荒川区東日暮里5-19-1","lat":35.7270315,"lon":139.7773452},{"name":"荒川区","province":"東京都","city":"荒川区","address":"荒川区荒川2-5-2","lat":35.73597,"lon":139.7826},{"name":"アルフレッサ（株）荒川医薬品センター","province":"東京都","city":"荒川区","address":"荒川区西日暮里6-65-1","lat":35.73578,"lon":139.7663},{"name":"南千住給水所","province":"東京都","city":"荒川区","address":"東京都荒川区南千住8-2-6","lat":35.735711,"lon":139.807672},{"name":"区立日暮里南公園","province":"東京都","city":"荒川区","address":"東京都荒川区東日暮里5-19-1","lat":35.7270315,"lon":139.7773452},{"name":"荒川区","province":"東京都","city":"荒川区","address":"荒川区荒川2-5-2","lat":35.73597,"lon":139.7826},{"name":"アルフレッサ（株）荒川医薬品センター","province":"東京都","city":"荒川区","address":"荒川区西日暮里6-65-1","lat":35.73578,"lon":139.7663},{"name":"南千住給水所","province":"東京都","city":"荒川区","address":"東京都荒川区南千住8-2-6","lat":35.735711,"lon":139.807672},{"name":"区立日暮里南公園","province":"東京都","city":"荒川区","address":"東京都荒川区東日暮里5-19-1","lat":35.7270315,"lon":139.7773452},{"name":"荒川区","province":"東京都","city":"荒川区","address":"荒川区荒川2-5-2","lat":35.73597,"lon":139.7826},{"name":"アルフレッサ（株）荒川医薬品センター","province":"東京都","city":"荒川区","address":"荒川区西日暮里6-65-1","lat":35.73578,"lon":139.7663},{"name":"南千住給水所","province":"東京都","city":"荒川区","address":"東京都荒川区南千住8-2-6","lat":35.735711,"lon":139.807672},{"name":"区立日暮里南公園","province":"東京都","city":"荒川区","address":"東京都荒川区東日暮里5-19-1","lat":35.7270315,"lon":139.7773452},{"name":"荒川区","province":"東京都","city":"荒川区","address":"荒川区荒川2-5-2","lat":35.73597,"lon":139.7826},{"name":"アルフレッサ（株）荒川医薬品センター","province":"東京都","city":"荒川区","address":"荒川区西日暮里6-65-1","lat":35.73578,"lon":139.7663},{"name":"南千住給水所","province":"東京都","city":"荒川区","address":"東京都荒川区南千住8-2-6","lat":35.735711,"lon":139.807672},{"name":"区立日暮里南公園","province":"東京都","city":"荒川区","address":"東京都荒川区東日暮里5-19-1","lat":35.7270315,"lon":139.7773452},{"name":"荒川区","province":"東京都","city":"荒川区","address":"荒川区荒川2-5-2","lat":35.73597,"lon":139.7826},{"name":"アルフレッサ（株）荒川医薬品センター","province":"東京都","city":"荒川区","address":"荒川区西日暮里6-65-1","lat":35.73578,"lon":139.7663},{"name":"南千住給水所","province":"東京都","city":"荒川区","address":"東京都荒川区南千住8-2-6","lat":35.735711,"lon":139.807672},{"name":"区立日暮里南公園","province":"東京都","city":"荒川区","address":"東京都荒川区東日暮里5-19-1","lat":35.7270315,"lon":139.7773452},{"name":"荒川区","province":"東京都","city":"荒川区","address":"荒川区荒川2-5-2","lat":35.73597,"lon":139.7826},{"name":"アルフレッサ（株）荒川医薬品センター","province":"東京都","city":"荒川区","address":"荒川区西日暮里6-65-1","lat":35.73578,"lon":139.7663},{"name":"南千住給水所","province":"東京都","city":"荒川区","address":"東京都荒川区南千住8-2-6","lat":35.735711,"lon":139.807672},{"name":"区立日暮里南公園","province":"東京都","city":"荒川区","address":"東京都荒川区東日暮里5-19-1","lat":35.7270315,"lon":139.7773452},{"name":"荒川区","province":"東京都","city":"荒川区","address":"荒川区荒川2-5-2","lat":35.73597,"lon":139.7826},{"name":"アルフレッサ（株）荒川医薬品センター","province":"東京都","city":"荒川区","address":"荒川区西日暮里6-65-1","lat":35.73578,"lon":139.7663},{"name":"南千住給水所","province":"東京都","city":"荒川区","address":"東京都荒川区南千住8-2-6","lat":35.735711,"lon":139.807672},{"name":"区立日暮里南公園","province":"東京都","city":"荒川区","address":"東京都荒川区東日暮里5-19-1","lat":35.7270315,"lon":139.7773452},{"name":"荒川区","province":"東京都","city":"荒川区","address":"荒川区荒川2-5-2","lat":35.73597,"lon":139.7826},{"name":"アルフレッサ（株）荒川医薬品センター","province":"東京都","city":"荒川区","address":"荒川区西日暮里6-65-1","lat":35.73578,"lon":139.7663},{"name":"南千住給水所","province":"東京都","city":"荒川区","address":"東京都荒川区南千住8-2-6","lat":35.735711,"lon":139.807672},{"name":"区立日暮里南公園","province":"東京都","city":"荒川区","address":"東京都荒川区東日暮里5-19-1","lat":35.7270315,"lon":139.7773452},{"name":"荒川区","province":"東京都","city":"荒川区","address":"荒川区荒川2-5-2","lat":35.73597,"lon":139.7826},{"name":"アルフレッサ（株）荒川医薬品センター","province":"東京都","city":"荒川区","address":"荒川区西日暮里6-65-1","lat":35.73578,"lon":139.7663},{"name":"南千住給水所","province":"東京都","city":"荒川区","address":"東京都荒川区南千住8-2-6","lat":35.735711,"lon":139.807672},{"name":"区立日暮里南公園","province":"東京都","city":"荒川区","address":"東京都荒川区東日暮里5-19-1","lat":35.7270315,"lon":139.7773452},{"name":"荒川区","province":"東京都","city":"荒川区","address":"荒川区荒川2-5-2","lat":35.73597,"lon":139.7826},{"name":"アルフレッサ（株）荒川医薬品センター","province":"東京都","city":"荒川区","address":"荒川区西日暮里6-65-1","lat":35.73578,"lon":139.7663},{"name":"南千住給水所","province":"東京都","city":"荒川区","address":"東京都荒川区南千住8-2-6","lat":35.735711,"lon":139.807672},{"name":"区立日暮里南公園","province":"東京都","city":"荒川区","address":"東京都荒川区東日暮里5-19-1","lat":35.7270315,"lon":139.7773452},{"name":"荒川区","province":"東京都","city":"荒川区","address":"荒川区荒川2-5-2","lat":35.73597,"lon":139.7826},{"name":"アルフレッサ（株）荒川医薬品センター","province":"東京都","city":"荒川区","address":"荒川区西日暮里6-65-1","lat":35.73578,"lon":139.7663},{"name":"南千住給水所","province":"東京都","city":"荒川区","address":"東京都荒川区南千住8-2-6","lat":35.735711,"lon":139.807672},{"name":"区立日暮里南公園","province":"東京都","city":"荒川区","address":"東京都荒川区東日暮里5-19-1","lat":35.7270315,"lon":139.7773452},{"name":"荒川区","province":"東京都","city":"荒川区","address":"荒川区荒川2-5-2","lat":35.73597,"lon":139.7826},{"name":"アルフレッサ（株）荒川医薬品センター","province":"東京都","city":"荒川区","address":"荒川区西日暮里6-65-1","lat":35.73578,"lon":139.7663},{"name":"南千住給水所","province":"東京都","city":"荒川区","address":"東京都荒川区南千住8-2-6","lat":35.735711,"lon":139.807672},{"name":"区立日暮里南公園","province":"東京都","city":"荒川区","address":"東京都荒川区東日暮里5-19-1","lat":35.7270315,"lon":139.7773452},{"name":"荒川区","province":"東京都","city":"荒川区","address":"荒川区荒川2-5-2","lat":35.73597,"lon":139.7826},{"name":"アルフレッサ（株）荒川医薬品センター","province":"東京都","city":"荒川区","address":"荒川区西日暮里6-65-1","lat":35.73578,"lon":139.7663},{"name":"南千住給水所","province":"東京都","city":"荒川区","address":"東京都荒川区南千住8-2-6","lat":35.735711,"lon":139.807672},{"name":"区立日暮里南公園","province":"東京都","city":"荒川区","address":"東京都荒川区東日暮里5-19-1","lat":35.7270315,"lon":139.7773452},{"name":"荒川区","province":"東京都","city":"荒川区","address":"荒川区荒川2-5-2","lat":35.73597,"lon":139.7826},{"name":"アルフレッサ（株）荒川医薬品センター","province":"東京都","city":"荒川区","address":"荒川区西日暮里6-65-1","lat":35.73578,"lon":139.7663},{"name":"南千住給水所","province":"東京都","city":"荒川区","address":"東京都荒川区南千住8-2-6","lat":35.735711,"lon":139.807672},{"name":"区立日暮里南公園","province":"東京都","city":"荒川区","address":"東京都荒川区東日暮里5-19-1","lat":35.7270315,"lon":139.7773452},{"name":"荒川区","province":"東京都","city":"荒川区","address":"荒川区荒川2-5-2","lat":35.73597,"lon":139.7826},{"name":"アルフレッサ（株）荒川医薬品センター","province":"東京都","city":"荒川区","address":"荒川区西日暮里6-65-1","lat":35.73578,"lon":139.7663},{"name":"南千住給水所","province":"東京都","city":"荒川区","address":"東京都荒川区南千住8-2-6","lat":35.735711,"lon":139.807672},{"name":"区立日暮里南公園","province":"東京都","city":"荒川区","address":"東京都荒川区東日暮里5-19-1","lat":35.7270315,"lon":139.7773452},{"name":"南千住給水所","province":"東京都","city":"荒川区","address":"東京都荒川区南千住8-2-6","lat":35.735711,"lon":139.807672},{"name":"区立日暮里南公園","province":"東京都","city":"荒川区","address":"東京都荒川区東日暮里5-19-1","lat":35.7270315,"lon":139.7773452},{"name":"南千住給水所","province":"東京都","city":"荒川区","address":"東京都荒川区南千住8-2-6","lat":35.735711,"lon":139.807672},{"name":"区立日暮里南公園","province":"東京都","city":"荒川区","address":"東京都荒川区東日暮里5-19-1","lat":35.7270315,"lon":139.7773452},{"name":"南千住給水所","province":"東京都","city":"荒川区","address":"東京都荒川区南千住8-2-6","lat":35.735711,"lon":139.807672},{"name":"区立日暮里南公園","province":"東京都","city":"荒川区","address":"東京都荒川区東日暮里5-19-1","lat":35.7270315,"lon":139.7773452},{"name":"南千住給水所","province":"東京都","city":"荒川区","address":"東京都荒川区南千住8-2-6","lat":35.735711,"lon":139.807672},{"name":"区立日暮里南公園","province":"東京都","city":"荒川区","address":"東京都荒川区東日暮里5-19-1","lat":35.7270315,"lon":139.7773452},{"name":"南千住給水所","province":"東京都","city":"荒川区","address":"東京都荒川区南千住8-2-6","lat":35.735711,"lon":139.807672},{"name":"区立日暮里南公園","province":"東京都","city":"荒川区","address":"東京都荒川区東日暮里5-19-1","lat":35.7270315,"lon":139.7773452},{"name":"南千住給水所","province":"東京都","city":"荒川区","address":"東京都荒川区南千住8-2-6","lat":35.735711,"lon":139.807672},{"name":"区立日暮里南公園","province":"東京都","city":"荒川区","address":"東京都荒川区東日暮里5-19-1","lat":35.7270315,"lon":139.7773452},{"name":"南千住給水所","province":"東京都","city":"荒川区","address":"東京都荒川区南千住8-2-6","lat":35.735711,"lon":139.807672},{"name":"区立日暮里南公園","province":"東京都","city":"荒川区","address":"東京都荒川区東日暮里5-19-1","lat":35.7270315,"lon":139.7773452},{"name":"南千住給水所","province":"東京都","city":"荒川区","address":"東京都荒川区南千住8-2-6","lat":35.735711,"lon":139.807672},{"name":"区立日暮里南公園","province":"東京都","city":"荒川区","address":"東京都荒川区東日暮里5-19-1","lat":35.7270315,"lon":139.7773452},{"name":"南千住給水所","province":"東京都","city":"荒川区","address":"東京都荒川区南千住8-2-6","lat":35.735711,"lon":139.807672},{"name":"区立日暮里南公園","province":"東京都","city":"荒川区","address":"東京都荒川区東日暮里5-19-1","lat":35.7270315,"lon":139.7773452},{"name":"南千住給水所","province":"東京都","city":"荒川区","address":"東京都荒川区南千住8-2-6","lat":35.735711,"lon":139.807672},{"name":"区立日暮里南公園","province":"東京都","city":"荒川区","address":"東京都荒川区東日暮里5-19-1","lat":35.7270315,"lon":139.7773452},{"name":"南千住給水所","province":"東京都","city":"荒川区","address":"東京都荒川区南千住8-2-6","lat":35.735711,"lon":139.807672},{"name":"区立日暮里南公園","province":"東京都","city":"荒川区","address":"東京都荒川区東日暮里5-19-1","lat":35.7270315,"lon":139.7773452},{"name":"南千住給水所","province":"東京都","city":"荒川区","address":"東京都荒川区南千住8-2-6","lat":35.735711,"lon":139.807672},{"name":"区立日暮里南公園","province":"東京都","city":"荒川区","address":"東京都荒川区東日暮里5-19-1","lat":35.7270315,"lon":139.7773452}]}