{"keyword":"商品","data":[{"name":"荒木田ふれあい館","province":"東京都","city":"荒川区","address":"荒川区町屋6-13-2","lat":35.750405,"lon":139.783398},{"name":"町屋ふれあい館","province":"東京都","city":"荒川区","address":"荒川区町屋1-35-8","lat":35.744087,"lon":139.785824},{"name":"花の木ひろば館","province":"東京都","city":"荒川区","address":"荒川区荒川5-50-5","lat":35.740215,"lon":139.7748},{"name":"峡田ふれあい館","province":"東京都","city":"荒川区","address":"荒川区荒川3-3-10","lat":35.733786,"lon":139.784164},{"name":"荒川山吹ふれあい館","province":"東京都","city":"荒川区","address":"荒川区荒川7-6-8","lat":35.742546,"lon":139.783986},{"name":"汐入ふれあい館","province":"東京都","city":"荒川区","address":"荒川区南千住8-2-2","lat":35.735222,"lon":139.807354},{"name":"南千住ふれあい館","province":"東京都","city":"荒川区","address":"荒川区南千住6-36-13","lat":35.738133,"lon":139.791013},{"name":"南千住駅前ふれあい館","province":"東京都","city":"荒川区","address":"荒川区南千住7-1-1-208","lat":35.73308,"lon":139.798215},{"name":"石浜ふれあい館","province":"東京都","city":"荒川区","address":"荒川区南千住3-28-2","lat":35.73129,"lon":139.806446},{"name":"尾久ふれあい館","province":"東京都","city":"荒川区","address":"荒川区西尾久2-25-13","lat":35.750308,"lon":139.763303},{"name":"西尾久ふれあい館","province":"東京都","city":"荒川区","address":"荒川区西尾久8-33-31","lat":35.751604,"lon":139.753365},{"name":"熊野前ひろば館","province":"東京都","city":"荒川区","address":"荒川区東尾久5-9-3","lat":35.748255,"lon":139.768922},{"name":"西日暮里二丁目ひろば館","province":"東京都","city":"荒川区","address":"荒川区西日暮里2-32-25","lat":35.731683,"lon":139.772409},{"name":"西日暮里ふれあい館","province":"東京都","city":"荒川区","address":"荒川区西日暮里6-24-4","lat":35.736279,"lon":139.770781},{"name":"東日暮里ふれあい館","province":"東京都","city":"荒川区","address":"荒川区東日暮里1-17-13","lat":35.729666,"lon":139.790188},{"name":"夕やけこやけふれあい館","province":"東京都","city":"荒川区","address":"荒川区東日暮里3-11-19","lat":35.729964,"lon":139.781378},{"name":"荒川区社会福祉協議会","province":"東京都","city":"荒川区","address":"荒川区南千住1-13-20","lat":35.731797,"lon":139.791377},{"name":"荒川区子ども家庭支援センター","province":"東京都","city":"荒川区","address":"荒川区荒川5-12-10","lat":35.739549,"lon":139.778208},{"name":"汐入公園","province":"東京都","city":"荒川区","address":"東京都荒川区南千住8丁目13","lat":35.736681,"lon":139.808731},{"name":"汐入公園","province":"東京都","city":"荒川区","address":"東京都荒川区南千住8丁目13","lat":35.736064,"lon":139.811066},{"name":"汐入公園","province":"東京都","city":"荒川区","address":"東京都荒川区南千住8丁目14","lat":35.739472,"lon":139.812098},{"name":"汐入公園","province":"東京都","city":"荒川区","address":"東京都荒川区南千住8丁目14","lat":35.737716,"lon":139.812982},{"name":"汐入公園","province":"東京都","city":"荒川区","address":"東京都荒川区南千住8丁目13-1","lat":35.736584,"lon":139.809715},{"name":"尾久の原公園","province":"東京都","city":"荒川区","address":"東京都荒川区東尾久7丁目1","lat":35.750785,"lon":139.776688},{"name":"東京都水道局東部第二支所","province":"東京都","city":"荒川区","address":"東京都荒川区南千住6丁目40","lat":35.738232,"lon":139.794079},{"name":"日暮里・舎人ライナー日暮里駅","province":"東京都","city":"荒川区","address":"東京都荒川区西日暮里2丁目25-1","lat":35.729413,"lon":139.771613},{"name":"日暮里・舎人ライナー日暮里駅","province":"東京都","city":"荒川区","address":"東京都荒川区西日暮里2丁目19","lat":35.728776,"lon":139.77097},{"name":"日暮里・舎人ライナー西日暮里駅","province":"東京都","city":"荒川区","address":"東京都荒川区西日暮里5丁目31-7","lat":35.73379,"lon":139.768082},{"name":"日暮里・舎人ライナー赤土小学校前駅","province":"東京都","city":"荒川区","address":"東京都荒川区東尾久4丁目7-7","lat":35.742881,"lon":139.769036},{"name":"日暮里・舎人ライナー熊野前駅","province":"東京都","city":"荒川区","address":"東京都荒川区東尾久3丁目37-6","lat":35.748317,"lon":139.769847},{"name":"荒川区役所本庁舎","province":"東京都","city":"荒川区","address":"東京都荒川区荒川2丁目2-3","lat":35.736144,"lon":139.783303},{"name":"東尾久本町通りふれあい館","province":"東京都","city":"荒川区","address":"東京都荒川区東尾久2丁目37-14","lat":35.744691,"lon":139.771375},{"name":"南千住駅前ふれあい館","province":"東京都","city":"荒川区","address":"東京都荒川区南千住6丁目36-13","lat":35.738168,"lon":139.791052},{"name":"日暮里地域活性化施設（ふらっとにっぽり）","province":"東京都","city":"荒川区","address":"東京都荒川区東日暮里6丁目17-6","lat":35.728931,"lon":139.777413},{"name":"日暮里地域活性化施設（ふらっとにっぽり）","province":"東京都","city":"荒川区","address":"東京都荒川区東日暮里6丁目17-6","lat":35.729024,"lon":139.777394},{"name":"石浜ふれあい館","province":"東京都","city":"荒川区","address":"東京都荒川区南千住3丁目28-2","lat":35.731328,"lon":139.806405},{"name":"南千住ふれあい館","province":"東京都","city":"荒川区","address":"東京都荒川区南千住6丁目36-13","lat":35.738246,"lon":139.791054},{"name":"汐入ふれあい館","province":"東京都","city":"荒川区","address":"東京都荒川区南千住8丁目2-1","lat":35.734643,"lon":139.806996},{"name":"峡田ふれあい館","province":"東京都","city":"荒川区","address":"東京都荒川区荒川3丁目3-10","lat":35.733772,"lon":139.784224},{"name":"荒川山吹ふれあい館","province":"東京都","city":"荒川区","address":"東京都荒川区荒川7丁目6-8","lat":35.742635,"lon":139.783902},{"name":"町屋ふれあい館","province":"東京都","city":"荒川区","address":"東京都荒川区町屋1丁目35-8","lat":35.744143,"lon":139.785876},{"name":"荒木田ふれあい館","province":"東京都","city":"荒川区","address":"東京都荒川区町屋6丁目13-2","lat":35.750408,"lon":139.783345},{"name":"西尾久ふれあい館","province":"東京都","city":"荒川区","address":"東京都荒川区西尾久8丁目33-31","lat":35.751579,"lon":139.753308},{"name":"尾久ふれあい館","province":"東京都","city":"荒川区","address":"東京都荒川区西尾久2丁目25-13","lat":35.750118,"lon":139.763315},{"name":"東日暮里ふれあい館","province":"東京都","city":"荒川区","address":"東京都荒川区東日暮里1丁目17-13","lat":35.729757,"lon":139.789886},{"name":"夕やけこやけふれあい館","province":"東京都","city":"荒川区","address":"東京都荒川区東日暮里3丁目11-19","lat":35.729938,"lon":139.781425},{"name":"西日暮里ふれあい館","province":"東京都","city":"荒川区","address":"東京都荒川区西日暮里6丁目24-4","lat":35.736316,"lon":139.770781},{"name":"ひぐらしふれあい館","province":"東京都","city":"荒川区","address":"東京都荒川区東日暮里6丁目28-15","lat":35.73307,"lon":139.776028},{"name":"荒川区役所北庁舎","province":"東京都","city":"荒川区","address":"東京都荒川区荒川2丁目11-1","lat":35.737082,"lon":139.783407},{"name":"がん予防・健康づくりセンター","province":"東京都","city":"荒川区","address":"東京都荒川区荒川2丁目12-5","lat":35.736785,"lon":139.783731},{"name":"荒川区立南千住図書館","province":"東京都","city":"荒川区","address":"東京都荒川区南千住6丁目63-1","lat":35.737235,"lon":139.795471},{"name":"荒川区立尾久図書館","province":"東京都","city":"荒川区","address":"東京都荒川区東尾久8丁目45","lat":35.750608,"lon":139.765919},{"name":"荒川区立町屋図書館","province":"東京都","city":"荒川区","address":"東京都荒川区町屋5丁目11-19","lat":35.75143,"lon":139.779006},{"name":"荒川区立日暮里図書館","province":"東京都","city":"荒川区","address":"東京都荒川区東日暮里6丁目38-4","lat":35.731195,"lon":139.77507},{"name":"荒川区立冠新道図書サービスステーション","province":"東京都","city":"荒川区","address":"東京都荒川区西日暮里6丁目25-14","lat":35.736868,"lon":139.770724},{"name":"荒川区立ゆいの森あらかわ","province":"東京都","city":"荒川区","address":"東京都荒川区荒川2丁目50-1","lat":35.739418,"lon":139.783954},{"name":"荒川区立生涯学習センター","province":"東京都","city":"荒川区","address":"東京都荒川区荒川3丁目49-1","lat":35.73497,"lon":139.780025},{"name":"荒川区立生涯学習センター","province":"東京都","city":"荒川区","address":"東京都荒川区荒川3丁目49-1","lat":35.734971,"lon":139.780069},{"name":"荒川区立町屋文化センター","province":"東京都","city":"荒川区","address":"東京都荒川区荒川7丁目20-1","lat":35.741766,"lon":139.782408},{"name":"荒川区立荒川ふるさと文化館","province":"東京都","city":"荒川区","address":"東京都荒川区南千住6丁目63-1","lat":35.737219,"lon":139.795495},{"name":"宮前公園","province":"東京都","city":"荒川区","address":"東京都荒川区東尾久8丁目46","lat":35.752209,"lon":139.766365},{"name":"日暮里サニーホール","province":"東京都","city":"荒川区","address":"東京都荒川区東日暮里5丁目50-5","lat":35.728104,"lon":139.773018},{"name":"ムーブ町屋","province":"東京都","city":"荒川区","address":"東京都荒川区荒川7丁目50-9","lat":35.742448,"lon":139.780719},{"name":"荒川区民会館","province":"東京都","city":"荒川区","address":"東京都荒川区荒川1丁目1-1","lat":35.735459,"lon":139.785192},{"name":"荒川区民会館","province":"東京都","city":"荒川区","address":"東京都荒川区荒川1丁目1-1","lat":35.734993,"lon":139.785045},{"name":"南千住三丁目公園","province":"東京都","city":"荒川区","address":"東京都荒川区南千住3丁目28","lat":35.728583,"lon":139.80809},{"name":"リバーハープ公園","province":"東京都","city":"荒川区","address":"東京都荒川区南千住4丁目9","lat":35.736028,"lon":139.804802},{"name":"天王公園","province":"東京都","city":"荒川区","address":"東京都荒川区南千住6丁目67","lat":35.738346,"lon":139.795289},{"name":"瑞光橋公園","province":"東京都","city":"荒川区","address":"東京都荒川区南千住8丁目18","lat":35.733925,"lon":139.808403},{"name":"荒川公園","province":"東京都","city":"荒川区","address":"東京都荒川区荒川2丁目2","lat":35.735246,"lon":139.784014},{"name":"荒川公園","province":"東京都","city":"荒川区","address":"東京都荒川区荒川2丁目13","lat":35.736451,"lon":139.784408},{"name":"三河島公園","province":"東京都","city":"荒川区","address":"東京都荒川区荒川8丁目25","lat":35.737353,"lon":139.78582},{"name":"荒川自然公園","province":"東京都","city":"荒川区","address":"東京都荒川区荒川8丁目25","lat":35.743193,"lon":139.787033},{"name":"荒川自然公園","province":"東京都","city":"荒川区","address":"東京都荒川区荒川8丁目25","lat":35.741098,"lon":139.786989},{"name":"荒川自然公園","province":"東京都","city":"荒川区","address":"東京都荒川区荒川8丁目25","lat":35.741098,"lon":139.786956},{"name":"荒川自然公園","province":"東京都","city":"荒川区","address":"東京都荒川区荒川8丁目25","lat":35.740617,"lon":139.785576},{"name":"町屋二丁目児童遊園","province":"東京都","city":"荒川区","address":"東京都荒川区町屋2丁目19","lat":35.74483,"lon":139.777346},{"name":"町屋六丁目北児童遊園","province":"東京都","city":"荒川区","address":"東京都荒川区町屋6丁目37","lat":35.752549,"lon":139.783838},{"name":"荒川区立荒川遊園","province":"東京都","city":"荒川区","address":"東京都荒川区西尾久8丁目1","lat":35.750942,"lon":139.757493},{"name":"東日暮里一丁目公園","province":"東京都","city":"荒川区","address":"東京都荒川区東日暮里1丁目17","lat":35.730422,"lon":139.78926},{"name":"日暮里南公園","province":"東京都","city":"荒川区","address":"東京都荒川区東日暮里5丁目19","lat":35.726559,"lon":139.777323},{"name":"西日暮里一丁目広場","province":"東京都","city":"荒川区","address":"東京都荒川区西日暮里1丁目6","lat":35.733281,"lon":139.776853},{"name":"町屋七丁目公園","province":"東京都","city":"荒川区","address":"東京都荒川区町屋7丁目16","lat":35.75011,"lon":139.789404},{"name":"西尾久七丁目児童遊園","province":"東京都","city":"荒川区","address":"東京都荒川区西尾久7丁目16","lat":35.749351,"lon":139.756262},{"name":"尾久小公園","province":"東京都","city":"荒川区","address":"東京都荒川区東尾久6丁目42","lat":35.748792,"lon":139.772128},{"name":"宮前公園","province":"東京都","city":"荒川区","address":"東京都荒川区東尾久8丁目45","lat":35.750825,"lon":139.76592},{"name":"宮前公園","province":"東京都","city":"荒川区","address":"東京都荒川区東尾久8丁目45","lat":35.751497,"lon":139.766008},{"name":"南千住第四児童遊園","province":"東京都","city":"荒川区","address":"東京都荒川区南千住1丁目56","lat":35.733443,"lon":139.792248},{"name":"日暮里公園","province":"東京都","city":"荒川区","address":"東京都荒川区東日暮里3丁目11","lat":35.729577,"lon":139.7821014},{"name":"地蔵堀児童遊園","province":"東京都","city":"荒川区","address":"東京都荒川区南千住6丁目11","lat":35.739345,"lon":139.789892},{"name":"ドナウ広場公衆トイレ","province":"東京都","city":"荒川区","address":"東京都荒川区南千住4丁目1","lat":35.732886,"lon":139.799923},{"name":"峡田児童遊園","province":"東京都","city":"荒川区","address":"東京都荒川区荒川1丁目55","lat":35.732989,"lon":139.786078},{"name":"藍染公園","province":"東京都","city":"荒川区","address":"東京都荒川区町屋1丁目34","lat":35.745036,"lon":139.785802},{"name":"町屋六丁目児童遊園","province":"東京都","city":"荒川区","address":"東京都荒川区町屋6丁目22","lat":35.751771,"lon":139.782951},{"name":"原稲荷公衆トイレ","province":"東京都","city":"荒川区","address":"東京都荒川区町屋2丁目8","lat":35.743841,"lon":139.780252},{"name":"あらかわエコセンター・たんぽぽセンター","province":"東京都","city":"荒川区","address":"東京都荒川区荒川1丁目53-20","lat":35.733077,"lon":139.784386},{"name":"日暮里駅東口公衆トイレ","province":"東京都","city":"荒川区","address":"東京都荒川区西日暮里2丁目19-10","lat":35.728849,"lon":139.770749},{"name":"日暮里駅西口公衆トイレ","province":"東京都","city":"荒川区","address":"東京都荒川区西日暮里2丁目19","lat":35.728078,"lon":139.770061},{"name":"南千住一丁目公衆トイレ","province":"東京都","city":"荒川区","address":"東京都荒川区南千住1丁目16","lat":35.73216,"lon":139.791748},{"name":"南千住一丁目公衆トイレ","province":"東京都","city":"荒川区","address":"東京都荒川区南千住1丁目16","lat":35.732149,"lon":139.791789},{"name":"あらかわリサイクルセンター","province":"東京都","city":"荒川区","address":"東京都荒川区南千住3丁目28-69","lat":35.728754,"lon":139.807974},{"name":"荒川さつき会館","province":"東京都","city":"荒川区","address":"東京都荒川区荒川8丁目16-13","lat":35.739382,"lon":139.787018},{"name":"男女平等推進センター（アクト２１）","province":"東京都","city":"荒川区","address":"東京都荒川区東尾久5丁目9","lat":35.748314,"lon":139.768985},{"name":"荒川区立障害者福祉会館（アクロスあらかわ）","province":"東京都","city":"荒川区","address":"東京都荒川区荒川2丁目57-8","lat":35.740538,"lon":139.783154},{"name":"荒川区立障害者福祉会館（アクロスあらかわ）","province":"東京都","city":"荒川区","address":"東京都荒川区荒川2丁目57-8","lat":35.740508,"lon":139.783155},{"name":"荒川総合スポーツセンター","province":"東京都","city":"荒川区","address":"東京都荒川区南千住6丁目45-5","lat":35.735724,"lon":139.79136},{"name":"荒川総合スポーツセンター","province":"東京都","city":"荒川区","address":"東京都荒川区南千住6丁目45-5","lat":35.735681,"lon":139.791366},{"name":"荒川総合スポーツセンター","province":"東京都","city":"荒川区","address":"東京都荒川区南千住6丁目45-5","lat":35.735779,"lon":139.790946},{"name":"荒川総合スポーツセンター","province":"東京都","city":"荒川区","address":"東京都荒川区南千住6丁目45-5","lat":35.735754,"lon":139.791024},{"name":"あらかわ遊園スポーツハウス","province":"東京都","city":"荒川区","address":"東京都荒川区西尾久8丁目3-1","lat":35.751875,"lon":139.757041},{"name":"区民運動場","province":"東京都","city":"荒川区","address":"東京都荒川区西尾久3丁目13","lat":35.753128,"lon":139.764926},{"name":"旧真土小学校跡地広場（真土小思い出広場）","province":"東京都","city":"荒川区","address":"東京都荒川区西日暮里1丁目5","lat":35.733539,"lon":139.777744},{"name":"東尾久運動場","province":"東京都","city":"荒川区","address":"東京都荒川区東尾久7丁目2","lat":35.749836,"lon":139.774345},{"name":"荒川区保健所（生活衛生課）","province":"東京都","city":"荒川区","address":"東京都荒川区荒川2丁目11-1","lat":35.73706089,"lon":139.78338914},{"name":"荒川区保健所（健康推進課）","province":"東京都","city":"荒川区","address":"東京都荒川区荒川2丁目11-1","lat":35.73706089,"lon":139.78338914},{"name":"荒川区保健所（保健予防課）","province":"東京都","city":"荒川区","address":"東京都荒川区荒川2丁目11-1","lat":35.73706089,"lon":139.78338914},{"name":"荒川区立荒川老人福祉センター","province":"東京都","city":"荒川区","address":"荒川区荒川1-34-6","lat":35.73409,"lon":139.78777},{"name":"クリスマス・フォレスト","province":"東京都","city":"荒川区","address":"荒川区荒川8-14-10","lat":35.73973,"lon":139.78888},{"name":"町屋ふれあい館","province":"東京都","city":"荒川区","address":"荒川区町屋1-35-8","lat":35.74443,"lon":139.78592},{"name":"荒木田ふれあい館","province":"東京都","city":"荒川区","address":"荒川区町屋6-13-2","lat":35.75054,"lon":139.78346},{"name":"峡田ふれあい館","province":"東京都","city":"荒川区","address":"荒川区荒川3-3-10","lat":35.73388,"lon":139.78419},{"name":"花の木ひろば館","province":"東京都","city":"荒川区","address":"荒川区荒川5-50-5","lat":35.74051,"lon":139.7746},{"name":"荒川山吹ふれあい館","province":"東京都","city":"荒川区","address":"荒川区荒川7-6-8","lat":35.7424,"lon":139.78409},{"name":"石浜ふれあい館","province":"東京都","city":"荒川区","address":"荒川区南千住3-28-2","lat":35.72975,"lon":139.80701},{"name":"南千住ふれあい館","province":"東京都","city":"荒川区","address":"荒川区南千住6-36-13","lat":35.73845,"lon":139.79112},{"name":"南千住駅前ふれあい館","province":"東京都","city":"荒川区","address":"荒川区南千住7-1-1-208","lat":35.73307,"lon":139.7982},{"name":"汐入ふれあい館","province":"東京都","city":"荒川区","address":"荒川区南千住8-2-2","lat":35.73505,"lon":139.80739},{"name":"尾久ふれあい館","province":"東京都","city":"荒川区","address":"荒川区西尾久2-25-13","lat":35.75004,"lon":139.76363},{"name":"西尾久ふれあい館","province":"東京都","city":"荒川区","address":"荒川区西尾久8-33-31","lat":35.7515,"lon":139.75261},{"name":"熊野前ひろば館","province":"東京都","city":"荒川区","address":"荒川区東尾久5-9-3","lat":35.74841,"lon":139.76884},{"name":"西日暮里二丁目ひろば館","province":"東京都","city":"荒川区","address":"荒川区西日暮里2-32-25","lat":35.73123,"lon":139.77193},{"name":"西日暮里ふれあい館","province":"東京都","city":"荒川区","address":"荒川区西日暮里6-24-4","lat":35.73623,"lon":139.77063},{"name":"東日暮里ふれあい館","province":"東京都","city":"荒川区","address":"荒川区東日暮里1-17-13","lat":35.72997,"lon":139.78955},{"name":"夕やけこやけふれあい館","province":"東京都","city":"荒川区","address":"荒川区東日暮里3-11-19","lat":35.72988,"lon":139.78169},{"name":"自立援助ホーム陽気遊山","province":"東京都","city":"荒川区","address":"東京都荒川区","lat":35.73614432,"lon":139.78333641},{"name":"ダルクホーム","province":"東京都","city":"荒川区","address":"荒川区東日暮里3-10-6","lat":35.72881,"lon":139.78162},{"name":"おぐのあかり","province":"東京都","city":"荒川区","address":"荒川区西尾久5-15-15","lat":35.74823,"lon":139.75977},{"name":"荒川区社会福祉協議会","province":"東京都","city":"荒川区","address":"荒川区南千住1-13-20","lat":35.73191,"lon":139.79115},{"name":"荒川区","province":"東京都","city":"荒川区","address":"荒川区荒川2-2-3","lat":35.73626,"lon":139.78339},{"name":"荒川区保健所（生活衛生課）","province":"東京都","city":"荒川区","address":"荒川区荒川2-11-1","lat":35.73694,"lon":139.78354},{"name":"荒川区保健所（健康推進課）","province":"東京都","city":"荒川区","address":"荒川区荒川2-11-1","lat":35.73694,"lon":139.78354},{"name":"荒川区保健所（保健予防課）","province":"東京都","city":"荒川区","address":"荒川区荒川2-11-1","lat":35.73694,"lon":139.78354},{"name":"荒川区子ども家庭総合センター","province":"東京都","city":"荒川区","address":"荒川区荒川1-50-17","lat":35.73388,"lon":139.78474},{"name":"荒川老人福祉センター","province":"東京都","city":"荒川区","address":"荒川区荒川1-34-6","lat":35.73409,"lon":139.78777},{"name":"荒川老人福祉センター","province":"東京都","city":"荒川区","address":"荒川区荒川1-34-6","lat":35.734258,"lon":139.786944},{"name":"ダルクホーム","province":"東京都","city":"荒川区","address":"荒川区東日暮里3-10-6","lat":35.728475,"lon":139.781986},{"name":"峡田ふれあい館","province":"東京都","city":"荒川区","address":"荒川区荒川3-3-10","lat":35.73388,"lon":139.7842},{"name":"熊野前ひろば館","province":"東京都","city":"荒川区","address":"荒川区東尾久5-9-3","lat":35.74841,"lon":139.76885},{"name":"おぐのあかり","province":"東京都","city":"荒川区","address":"荒川区西尾久5-15-15","lat":35.748185,"lon":139.759173},{"name":"東京女子医科大学東医療センター","province":"東京都","city":"荒川区","address":"東京都荒川区西尾久2丁目1-10","lat":35.74831628,"lon":139.7653279},{"name":"町屋斎場","province":"東京都","city":"荒川区","address":"東京都荒川区町屋1丁目23-4","lat":35.74417616,"lon":139.78429088},{"name":"＊?荒川区立生涯学習センター","province":"東京都","city":"荒川区","address":"荒川区荒川3-49-1","lat":35.734873,"lon":139.779837},{"name":"＊?男女平等推進センター（アクト21）","province":"東京都","city":"荒川区","address":"荒川区東尾久5-9-3","lat":35.748265,"lon":139.768918},{"name":"尾久の原公園","province":"東京都","city":"荒川区","address":"東京都荒川区東尾久7丁目","lat":35.75213275,"lon":139.77513791},{"name":"まちや","province":"東京都","city":"荒川区","address":"荒川区町屋4-9-5","lat":35.747117,"lon":139.776586},{"name":"荒川区","province":"東京都","city":"荒川区","address":"荒川区荒川2-2-3","lat":35.736083,"lon":139.783373},{"name":"荒川区保健所","province":"東京都","city":"荒川区","address":"東京都荒川区荒川2丁目11-1","lat":35.73706089,"lon":139.78338914},{"name":"第二自動車警ら隊南千住分駐所","province":"東京都","city":"荒川区","address":"荒川区南千住8-7-9","lat":35.73935,"lon":139.8066},{"name":"荒川警察署","province":"東京都","city":"荒川区","address":"荒川区荒川3-1-2","lat":35.73443,"lon":139.7845},{"name":"尾久警察署","province":"東京都","city":"荒川区","address":"荒川区西尾久3-8-5","lat":35.75085,"lon":139.7637},{"name":"南千住警察署","province":"東京都","city":"荒川区","address":"荒川区南千住6-45-43","lat":35.73544,"lon":139.7919},{"name":"荒川消防署","province":"東京都","city":"荒川区","address":"荒川区荒川2-1-13","lat":35.73519,"lon":139.7843},{"name":"尾久消防署","province":"東京都","city":"荒川区","address":"荒川区東尾久8-44-4","lat":35.75005,"lon":139.7662},{"name":"荒川区","province":"東京都","city":"荒川区","address":"荒川区荒川2-5-2","lat":35.73597,"lon":139.7826},{"name":"アルフレッサ（株）荒川医薬品センター","province":"東京都","city":"荒川区","address":"荒川区西日暮里6-65-1","lat":35.73578,"lon":139.7663},{"name":"荒川区立東尾久運動場多目的広場","province":"東京都","city":"荒川区","address":"荒川区東尾久7-1-1","lat":35.75207,"lon":139.7752},{"name":"荒川区立東尾久運動場多目的広場第二サッカーグラウンド","province":"東京都","city":"荒川区","address":"荒川区東尾久7-1-1","lat":35.75207,"lon":139.7752},{"name":"荒川遊園","province":"東京都","city":"荒川区","address":"荒川区西尾久6丁目地先","lat":35.75161,"lon":139.7586},{"name":"東尾久","province":"東京都","city":"荒川区","address":"荒川区東尾久7丁目3番地","lat":35.75274,"lon":139.7725},{"name":"荒木田ふれあい館","province":"東京都","city":"荒川区","address":"荒川区町屋6-13-2","lat":35.750405,"lon":139.783398},{"name":"町屋ふれあい館","province":"東京都","city":"荒川区","address":"荒川区町屋1-35-8","lat":35.744087,"lon":139.785824},{"name":"花の木ひろば館","province":"東京都","city":"荒川区","address":"荒川区荒川5-50-5","lat":35.740215,"lon":139.7748},{"name":"峡田ふれあい館","province":"東京都","city":"荒川区","address":"荒川区荒川3-3-10","lat":35.733786,"lon":139.784164},{"name":"荒川山吹ふれあい館","province":"東京都","city":"荒川区","address":"荒川区荒川7-6-8","lat":35.742546,"lon":139.783986},{"name":"汐入ふれあい館","province":"東京都","city":"荒川区","address":"荒川区南千住8-2-2","lat":35.735222,"lon":139.807354},{"name":"南千住ふれあい館","province":"東京都","city":"荒川区","address":"荒川区南千住6-36-13","lat":35.738133,"lon":139.791013},{"name":"南千住駅前ふれあい館","province":"東京都","city":"荒川区","address":"荒川区南千住7-1-1-208","lat":35.73308,"lon":139.798215},{"name":"石浜ふれあい館","province":"東京都","city":"荒川区","address":"荒川区南千住3-28-2","lat":35.73129,"lon":139.806446},{"name":"尾久ふれあい館","province":"東京都","city":"荒川区","address":"荒川区西尾久2-25-13","lat":35.750308,"lon":139.763303},{"name":"西尾久ふれあい館","province":"東京都","city":"荒川区","address":"荒川区西尾久8-33-31","lat":35.751604,"lon":139.753365},{"name":"熊野前ひろば館","province":"東京都","city":"荒川区","address":"荒川区東尾久5-9-3","lat":35.748255,"lon":139.768922},{"name":"西日暮里二丁目ひろば館","province":"東京都","city":"荒川区","address":"荒川区西日暮里2-32-25","lat":35.731683,"lon":139.772409},{"name":"西日暮里ふれあい館","province":"東京都","city":"荒川区","address":"荒川区西日暮里6-24-4","lat":35.736279,"lon":139.770781},{"name":"東日暮里ふれあい館","province":"東京都","city":"荒川区","address":"荒川区東日暮里1-17-13","lat":35.729666,"lon":139.790188},{"name":"夕やけこやけふれあい館","province":"東京都","city":"荒川区","address":"荒川区東日暮里3-11-19","lat":35.729964,"lon":139.781378},{"name":"荒川区子ども家庭支援センター","province":"東京都","city":"荒川区","address":"荒川区荒川5-12-10","lat":35.739549,"lon":139.778208},{"name":"汐入公園","province":"東京都","city":"荒川区","address":"東京都荒川区南千住8丁目13","lat":35.736681,"lon":139.808731},{"name":"汐入公園","province":"東京都","city":"荒川区","address":"東京都荒川区南千住8丁目13","lat":35.736064,"lon":139.811066},{"name":"汐入公園","province":"東京都","city":"荒川区","address":"東京都荒川区南千住8丁目14","lat":35.739472,"lon":139.812098},{"name":"汐入公園","province":"東京都","city":"荒川区","address":"東京都荒川区南千住8丁目14","lat":35.737716,"lon":139.812982},{"name":"汐入公園","province":"東京都","city":"荒川区","address":"東京都荒川区南千住8丁目13-1","lat":35.736584,"lon":139.809715},{"name":"尾久の原公園","province":"東京都","city":"荒川区","address":"東京都荒川区東尾久7丁目1","lat":35.750785,"lon":139.776688},{"name":"東京都水道局東部第二支所","province":"東京都","city":"荒川区","address":"東京都荒川区南千住6丁目40","lat":35.738232,"lon":139.794079},{"name":"日暮里・舎人ライナー日暮里駅","province":"東京都","city":"荒川区","address":"東京都荒川区西日暮里2丁目25-1","lat":35.729413,"lon":139.771613},{"name":"日暮里・舎人ライナー日暮里駅","province":"東京都","city":"荒川区","address":"東京都荒川区西日暮里2丁目19","lat":35.728776,"lon":139.77097},{"name":"日暮里・舎人ライナー西日暮里駅","province":"東京都","city":"荒川区","address":"東京都荒川区西日暮里5丁目31-7","lat":35.73379,"lon":139.768082},{"name":"日暮里・舎人ライナー赤土小学校前駅","province":"東京都","city":"荒川区","address":"東京都荒川区東尾久4丁目7-7","lat":35.742881,"lon":139.769036},{"name":"日暮里・舎人ライナー熊野前駅","province":"東京都","city":"荒川区","address":"東京都荒川区東尾久3丁目37-6","lat":35.748317,"lon":139.769847},{"name":"荒川区役所本庁舎","province":"東京都","city":"荒川区","address":"東京都荒川区荒川2丁目2-3","lat":35.736144,"lon":139.783303},{"name":"東尾久本町通りふれあい館","province":"東京都","city":"荒川区","address":"東京都荒川区東尾久2丁目37-14","lat":35.744691,"lon":139.771375},{"name":"南千住駅前ふれあい館","province":"東京都","city":"荒川区","address":"東京都荒川区南千住6丁目36-13","lat":35.738168,"lon":139.791052},{"name":"日暮里地域活性化施設（ふらっとにっぽり）","province":"東京都","city":"荒川区","address":"東京都荒川区東日暮里6丁目17-6","lat":35.728931,"lon":139.777413},{"name":"日暮里地域活性化施設（ふらっとにっぽり）","province":"東京都","city":"荒川区","address":"東京都荒川区東日暮里6丁目17-6","lat":35.729024,"lon":139.777394},{"name":"石浜ふれあい館","province":"東京都","city":"荒川区","address":"東京都荒川区南千住3丁目28-2","lat":35.731328,"lon":139.806405},{"name":"南千住ふれあい館","province":"東京都","city":"荒川区","address":"東京都荒川区南千住6丁目36-13","lat":35.738246,"lon":139.791054},{"name":"汐入ふれあい館","province":"東京都","city":"荒川区","address":"東京都荒川区南千住8丁目2-1","lat":35.734643,"lon":139.806996},{"name":"峡田ふれあい館","province":"東京都","city":"荒川区","address":"東京都荒川区荒川3丁目3-10","lat":35.733772,"lon":139.784224},{"name":"荒川山吹ふれあい館","province":"東京都","city":"荒川区","address":"東京都荒川区荒川7丁目6-8","lat":35.742635,"lon":139.783902},{"name":"町屋ふれあい館","province":"東京都","city":"荒川区","address":"東京都荒川区町屋1丁目35-8","lat":35.744143,"lon":139.785876},{"name":"荒木田ふれあい館","province":"東京都","city":"荒川区","address":"東京都荒川区町屋6丁目13-2","lat":35.750408,"lon":139.783345},{"name":"西尾久ふれあい館","province":"東京都","city":"荒川区","address":"東京都荒川区西尾久8丁目33-31","lat":35.751579,"lon":139.753308},{"name":"尾久ふれあい館","province":"東京都","city":"荒川区","address":"東京都荒川区西尾久2丁目25-13","lat":35.750118,"lon":139.763315},{"name":"東日暮里ふれあい館","province":"東京都","city":"荒川区","address":"東京都荒川区東日暮里1丁目17-13","lat":35.729757,"lon":139.789886},{"name":"夕やけこやけふれあい館","province":"東京都","city":"荒川区","address":"東京都荒川区東日暮里3丁目11-19","lat":35.729938,"lon":139.781425},{"name":"西日暮里ふれあい館","province":"東京都","city":"荒川区","address":"東京都荒川区西日暮里6丁目24-4","lat":35.736316,"lon":139.770781},{"name":"ひぐらしふれあい館","province":"東京都","city":"荒川区","address":"東京都荒川区東日暮里6丁目28-15","lat":35.73307,"lon":139.776028},{"name":"荒川区役所北庁舎","province":"東京都","city":"荒川区","address":"東京都荒川区荒川2丁目11-1","lat":35.737082,"lon":139.783407},{"name":"がん予防・健康づくりセンター","province":"東京都","city":"荒川区","address":"東京都荒川区荒川2丁目12-5","lat":35.736785,"lon":139.783731},{"name":"荒川区立南千住図書館","province":"東京都","city":"荒川区","address":"東京都荒川区南千住6丁目63-1","lat":35.737235,"lon":139.795471},{"name":"荒川区立尾久図書館","province":"東京都","city":"荒川区","address":"東京都荒川区東尾久8丁目45","lat":35.750608,"lon":139.765919},{"name":"荒川区立町屋図書館","province":"東京都","city":"荒川区","address":"東京都荒川区町屋5丁目11-19","lat":35.75143,"lon":139.779006},{"name":"荒川区立日暮里図書館","province":"東京都","city":"荒川区","address":"東京都荒川区東日暮里6丁目38-4","lat":35.731195,"lon":139.77507},{"name":"荒川区立冠新道図書サービスステーション","province":"東京都","city":"荒川区","address":"東京都荒川区西日暮里6丁目25-14","lat":35.736868,"lon":139.770724},{"name":"荒川区立ゆいの森あらかわ","province":"東京都","city":"荒川区","address":"東京都荒川区荒川2丁目50-1","lat":35.739418,"lon":139.783954},{"name":"荒川区立生涯学習センター","province":"東京都","city":"荒川区","address":"東京都荒川区荒川3丁目49-1","lat":35.73497,"lon":139.780025},{"name":"荒川区立生涯学習センター","province":"東京都","city":"荒川区","address":"東京都荒川区荒川3丁目49-1","lat":35.734971,"lon":139.780069},{"name":"荒川区立町屋文化センター","province":"東京都","city":"荒川区","address":"東京都荒川区荒川7丁目20-1","lat":35.741766,"lon":139.782408},{"name":"荒川区立荒川ふるさと文化館","province":"東京都","city":"荒川区","address":"東京都荒川区南千住6丁目63-1","lat":35.737219,"lon":139.795495},{"name":"宮前公園","province":"東京都","city":"荒川区","address":"東京都荒川区東尾久8丁目46","lat":35.752209,"lon":139.766365},{"name":"日暮里サニーホール","province":"東京都","city":"荒川区","address":"東京都荒川区東日暮里5丁目50-5","lat":35.728104,"lon":139.773018},{"name":"ムーブ町屋","province":"東京都","city":"荒川区","address":"東京都荒川区荒川7丁目50-9","lat":35.742448,"lon":139.780719},{"name":"荒川区民会館","province":"東京都","city":"荒川区","address":"東京都荒川区荒川1丁目1-1","lat":35.735459,"lon":139.785192},{"name":"荒川区民会館","province":"東京都","city":"荒川区","address":"東京都荒川区荒川1丁目1-1","lat":35.734993,"lon":139.785045},{"name":"南千住三丁目公園","province":"東京都","city":"荒川区","address":"東京都荒川区南千住3丁目28","lat":35.728583,"lon":139.80809},{"name":"リバーハープ公園","province":"東京都","city":"荒川区","address":"東京都荒川区南千住4丁目9","lat":35.736028,"lon":139.804802},{"name":"天王公園","province":"東京都","city":"荒川区","address":"東京都荒川区南千住6丁目67","lat":35.738346,"lon":139.795289},{"name":"瑞光橋公園","province":"東京都","city":"荒川区","address":"東京都荒川区南千住8丁目18","lat":35.733925,"lon":139.808403},{"name":"荒川公園","province":"東京都","city":"荒川区","address":"東京都荒川区荒川2丁目2","lat":35.735246,"lon":139.784014},{"name":"荒川公園","province":"東京都","city":"荒川区","address":"東京都荒川区荒川2丁目13","lat":35.736451,"lon":139.784408},{"name":"三河島公園","province":"東京都","city":"荒川区","address":"東京都荒川区荒川8丁目25","lat":35.737353,"lon":139.78582},{"name":"荒川自然公園","province":"東京都","city":"荒川区","address":"東京都荒川区荒川8丁目25","lat":35.743193,"lon":139.787033},{"name":"荒川自然公園","province":"東京都","city":"荒川区","address":"東京都荒川区荒川8丁目25","lat":35.741098,"lon":139.786989},{"name":"荒川自然公園","province":"東京都","city":"荒川区","address":"東京都荒川区荒川8丁目25","lat":35.741098,"lon":139.786956},{"name":"荒川自然公園","province":"東京都","city":"荒川区","address":"東京都荒川区荒川8丁目25","lat":35.740617,"lon":139.785576},{"name":"町屋二丁目児童遊園","province":"東京都","city":"荒川区","address":"東京都荒川区町屋2丁目19","lat":35.74483,"lon":139.777346},{"name":"町屋六丁目北児童遊園","province":"東京都","city":"荒川区","address":"東京都荒川区町屋6丁目37","lat":35.752549,"lon":139.783838},{"name":"荒川区立荒川遊園","province":"東京都","city":"荒川区","address":"東京都荒川区西尾久8丁目1","lat":35.750942,"lon":139.757493},{"name":"東日暮里一丁目公園","province":"東京都","city":"荒川区","address":"東京都荒川区東日暮里1丁目17","lat":35.730422,"lon":139.78926},{"name":"日暮里南公園","province":"東京都","city":"荒川区","address":"東京都荒川区東日暮里5丁目19","lat":35.726559,"lon":139.777323},{"name":"西日暮里一丁目広場","province":"東京都","city":"荒川区","address":"東京都荒川区西日暮里1丁目6","lat":35.733281,"lon":139.776853},{"name":"町屋七丁目公園","province":"東京都","city":"荒川区","address":"東京都荒川区町屋7丁目16","lat":35.75011,"lon":139.789404},{"name":"西尾久七丁目児童遊園","province":"東京都","city":"荒川区","address":"東京都荒川区西尾久7丁目16","lat":35.749351,"lon":139.756262},{"name":"尾久小公園","province":"東京都","city":"荒川区","address":"東京都荒川区東尾久6丁目42","lat":35.748792,"lon":139.772128},{"name":"宮前公園","province":"東京都","city":"荒川区","address":"東京都荒川区東尾久8丁目45","lat":35.750825,"lon":139.76592},{"name":"宮前公園","province":"東京都","city":"荒川区","address":"東京都荒川区東尾久8丁目45","lat":35.751497,"lon":139.766008},{"name":"南千住第四児童遊園","province":"東京都","city":"荒川区","address":"東京都荒川区南千住1丁目56","lat":35.733443,"lon":139.792248},{"name":"日暮里公園","province":"東京都","city":"荒川区","address":"東京都荒川区東日暮里3丁目11","lat":35.729577,"lon":139.7821014},{"name":"地蔵堀児童遊園","province":"東京都","city":"荒川区","address":"東京都荒川区南千住6丁目11","lat":35.739345,"lon":139.789892},{"name":"ドナウ広場公衆トイレ","province":"東京都","city":"荒川区","address":"東京都荒川区南千住4丁目1","lat":35.732886,"lon":139.799923},{"name":"峡田児童遊園","province":"東京都","city":"荒川区","address":"東京都荒川区荒川1丁目55","lat":35.732989,"lon":139.786078},{"name":"藍染公園","province":"東京都","city":"荒川区","address":"東京都荒川区町屋1丁目34","lat":35.745036,"lon":139.785802},{"name":"町屋六丁目児童遊園","province":"東京都","city":"荒川区","address":"東京都荒川区町屋6丁目22","lat":35.751771,"lon":139.782951},{"name":"原稲荷公衆トイレ","province":"東京都","city":"荒川区","address":"東京都荒川区町屋2丁目8","lat":35.743841,"lon":139.780252},{"name":"あらかわエコセンター・たんぽぽセンター","province":"東京都","city":"荒川区","address":"東京都荒川区荒川1丁目53-20","lat":35.733077,"lon":139.784386},{"name":"日暮里駅東口公衆トイレ","province":"東京都","city":"荒川区","address":"東京都荒川区西日暮里2丁目19-10","lat":35.728849,"lon":139.770749},{"name":"日暮里駅西口公衆トイレ","province":"東京都","city":"荒川区","address":"東京都荒川区西日暮里2丁目19","lat":35.728078,"lon":139.770061},{"name":"南千住一丁目公衆トイレ","province":"東京都","city":"荒川区","address":"東京都荒川区南千住1丁目16","lat":35.73216,"lon":139.791748},{"name":"南千住一丁目公衆トイレ","province":"東京都","city":"荒川区","address":"東京都荒川区南千住1丁目16","lat":35.732149,"lon":139.791789},{"name":"あらかわリサイクルセンター","province":"東京都","city":"荒川区","address":"東京都荒川区南千住3丁目28-69","lat":35.728754,"lon":139.807974},{"name":"荒川さつき会館","province":"東京都","city":"荒川区","address":"東京都荒川区荒川8丁目16-13","lat":35.739382,"lon":139.787018},{"name":"男女平等推進センター（アクト２１）","province":"東京都","city":"荒川区","address":"東京都荒川区東尾久5丁目9","lat":35.748314,"lon":139.768985},{"name":"荒川区立障害者福祉会館（アクロスあらかわ）","province":"東京都","city":"荒川区","address":"東京都荒川区荒川2丁目57-8","lat":35.740538,"lon":139.783154},{"name":"荒川区立障害者福祉会館（アクロスあらかわ）","province":"東京都","city":"荒川区","address":"東京都荒川区荒川2丁目57-8","lat":35.740508,"lon":139.783155},{"name":"荒川総合スポーツセンター","province":"東京都","city":"荒川区","address":"東京都荒川区南千住6丁目45-5","lat":35.735724,"lon":139.79136},{"name":"荒川総合スポーツセンター","province":"東京都","city":"荒川区","address":"東京都荒川区南千住6丁目45-5","lat":35.735681,"lon":139.791366},{"name":"荒川総合スポーツセンター","province":"東京都","city":"荒川区","address":"東京都荒川区南千住6丁目45-5","lat":35.735779,"lon":139.790946},{"name":"荒川総合スポーツセンター","province":"東京都","city":"荒川区","address":"東京都荒川区南千住6丁目45-5","lat":35.735754,"lon":139.791024},{"name":"あらかわ遊園スポーツハウス","province":"東京都","city":"荒川区","address":"東京都荒川区西尾久8丁目3-1","lat":35.751875,"lon":139.757041},{"name":"区民運動場","province":"東京都","city":"荒川区","address":"東京都荒川区西尾久3丁目13","lat":35.753128,"lon":139.764926},{"name":"旧真土小学校跡地広場（真土小思い出広場）","province":"東京都","city":"荒川区","address":"東京都荒川区西日暮里1丁目5","lat":35.733539,"lon":139.777744},{"name":"東尾久運動場","province":"東京都","city":"荒川区","address":"東京都荒川区東尾久7丁目2","lat":35.749836,"lon":139.774345},{"name":"荒川区保健所（生活衛生課）","province":"東京都","city":"荒川区","address":"東京都荒川区荒川2丁目11-1","lat":35.73706089,"lon":139.78338914},{"name":"荒川区保健所（健康推進課）","province":"東京都","city":"荒川区","address":"東京都荒川区荒川2丁目11-1","lat":35.73706089,"lon":139.78338914},{"name":"荒川区保健所（保健予防課）","province":"東京都","city":"荒川区","address":"東京都荒川区荒川2丁目11-1","lat":35.73706089,"lon":139.78338914},{"name":"荒川区立荒川老人福祉センター","province":"東京都","city":"荒川区","address":"荒川区荒川1-34-6","lat":35.73409,"lon":139.78777},{"name":"クリスマス・フォレスト","province":"東京都","city":"荒川区","address":"荒川区荒川8-14-10","lat":35.73973,"lon":139.78888},{"name":"町屋ふれあい館","province":"東京都","city":"荒川区","address":"荒川区町屋1-35-8","lat":35.74443,"lon":139.78592},{"name":"荒木田ふれあい館","province":"東京都","city":"荒川区","address":"荒川区町屋6-13-2","lat":35.75054,"lon":139.78346},{"name":"峡田ふれあい館","province":"東京都","city":"荒川区","address":"荒川区荒川3-3-10","lat":35.73388,"lon":139.78419},{"name":"花の木ひろば館","province":"東京都","city":"荒川区","address":"荒川区荒川5-50-5","lat":35.74051,"lon":139.7746},{"name":"荒川山吹ふれあい館","province":"東京都","city":"荒川区","address":"荒川区荒川7-6-8","lat":35.7424,"lon":139.78409},{"name":"石浜ふれあい館","province":"東京都","city":"荒川区","address":"荒川区南千住3-28-2","lat":35.72975,"lon":139.80701},{"name":"南千住ふれあい館","province":"東京都","city":"荒川区","address":"荒川区南千住6-36-13","lat":35.73845,"lon":139.79112},{"name":"南千住駅前ふれあい館","province":"東京都","city":"荒川区","address":"荒川区南千住7-1-1-208","lat":35.73307,"lon":139.7982},{"name":"汐入ふれあい館","province":"東京都","city":"荒川区","address":"荒川区南千住8-2-2","lat":35.73505,"lon":139.80739},{"name":"尾久ふれあい館","province":"東京都","city":"荒川区","address":"荒川区西尾久2-25-13","lat":35.75004,"lon":139.76363},{"name":"西尾久ふれあい館","province":"東京都","city":"荒川区","address":"荒川区西尾久8-33-31","lat":35.7515,"lon":139.75261},{"name":"熊野前ひろば館","province":"東京都","city":"荒川区","address":"荒川区東尾久5-9-3","lat":35.74841,"lon":139.76884},{"name":"西日暮里二丁目ひろば館","province":"東京都","city":"荒川区","address":"荒川区西日暮里2-32-25","lat":35.73123,"lon":139.77193},{"name":"西日暮里ふれあい館","province":"東京都","city":"荒川区","address":"荒川区西日暮里6-24-4","lat":35.73623,"lon":139.77063},{"name":"東日暮里ふれあい館","province":"東京都","city":"荒川区","address":"荒川区東日暮里1-17-13","lat":35.72997,"lon":139.78955},{"name":"夕やけこやけふれあい館","province":"東京都","city":"荒川区","address":"荒川区東日暮里3-11-19","lat":35.72988,"lon":139.78169},{"name":"自立援助ホーム陽気遊山","province":"東京都","city":"荒川区","address":"東京都荒川区","lat":35.73614432,"lon":139.78333641},{"name":"ダルクホーム","province":"東京都","city":"荒川区","address":"荒川区東日暮里3-10-6","lat":35.72881,"lon":139.78162},{"name":"おぐのあかり","province":"東京都","city":"荒川区","address":"荒川区西尾久5-15-15","lat":35.74823,"lon":139.75977},{"name":"荒川区","province":"東京都","city":"荒川区","address":"荒川区荒川2-2-3","lat":35.73626,"lon":139.78339},{"name":"荒川区保健所（生活衛生課）","province":"東京都","city":"荒川区","address":"荒川区荒川2-11-1","lat":35.73694,"lon":139.78354},{"name":"荒川区保健所（健康推進課）","province":"東京都","city":"荒川区","address":"荒川区荒川2-11-1","lat":35.73694,"lon":139.78354},{"name":"荒川区保健所（保健予防課）","province":"東京都","city":"荒川区","address":"荒川区荒川2-11-1","lat":35.73694,"lon":139.78354},{"name":"荒川区子ども家庭総合センター","province":"東京都","city":"荒川区","address":"荒川区荒川1-50-17","lat":35.73388,"lon":139.78474},{"name":"荒川老人福祉センター","province":"東京都","city":"荒川区","address":"荒川区荒川1-34-6","lat":35.73409,"lon":139.78777},{"name":"荒川老人福祉センター","province":"東京都","city":"荒川区","address":"荒川区荒川1-34-6","lat":35.734258,"lon":139.786944},{"name":"ダルクホーム","province":"東京都","city":"荒川区","address":"荒川区東日暮里3-10-6","lat":35.728475,"lon":139.781986},{"name":"峡田ふれあい館","province":"東京都","city":"荒川区","address":"荒川区荒川3-3-10","lat":35.73388,"lon":139.7842},{"name":"熊野前ひろば館","province":"東京都","city":"荒川区","address":"荒川区東尾久5-9-3","lat":35.74841,"lon":139.76885},{"name":"おぐのあかり","province":"東京都","city":"荒川区","address":"荒川区西尾久5-15-15","lat":35.748185,"lon":139.759173},{"name":"＊?荒川区立生涯学習センター","province":"東京都","city":"荒川区","address":"荒川区荒川3-49-1","lat":35.734873,"lon":139.779837},{"name":"＊?男女平等推進センター（アクト21）","province":"東京都","city":"荒川区","address":"荒川区東尾久5-9-3","lat":35.748265,"lon":139.768918},{"name":"尾久の原公園","province":"東京都","city":"荒川区","address":"東京都荒川区東尾久7丁目","lat":35.75213275,"lon":139.77513791},{"name":"まちや","province":"東京都","city":"荒川区","address":"荒川区町屋4-9-5","lat":35.747117,"lon":139.776586},{"name":"荒川区","province":"東京都","city":"荒川区","address":"荒川区荒川2-2-3","lat":35.736083,"lon":139.783373},{"name":"荒川区保健所","province":"東京都","city":"荒川区","address":"東京都荒川区荒川2丁目11-1","lat":35.73706089,"lon":139.78338914},{"name":"第二自動車警ら隊南千住分駐所","province":"東京都","city":"荒川区","address":"荒川区南千住8-7-9","lat":35.73935,"lon":139.8066},{"name":"荒川警察署","province":"東京都","city":"荒川区","address":"荒川区荒川3-1-2","lat":35.73443,"lon":139.7845},{"name":"尾久警察署","province":"東京都","city":"荒川区","address":"荒川区西尾久3-8-5","lat":35.75085,"lon":139.7637},{"name":"南千住警察署","province":"東京都","city":"荒川区","address":"荒川区南千住6-45-43","lat":35.73544,"lon":139.7919},{"name":"荒川消防署","province":"東京都","city":"荒川区","address":"荒川区荒川2-1-13","lat":35.73519,"lon":139.7843},{"name":"尾久消防署","province":"東京都","city":"荒川区","address":"荒川区東尾久8-44-4","lat":35.75005,"lon":139.7662},{"name":"荒川区立東尾久運動場多目的広場","province":"東京都","city":"荒川区","address":"荒川区東尾久7-1-1","lat":35.75207,"lon":139.7752},{"name":"荒川区立東尾久運動場多目的広場第二サッカーグラウンド","province":"東京都","city":"荒川区","address":"荒川区東尾久7-1-1","lat":35.75207,"lon":139.7752},{"name":"荒川遊園","province":"東京都","city":"荒川区","address":"荒川区西尾久6丁目地先","lat":35.75161,"lon":139.7586},{"name":"東尾久","province":"東京都","city":"荒川区","address":"荒川区東尾久7丁目3番地","lat":35.75274,"lon":139.7725},{"name":"荒木田ふれあい館","province":"東京都","city":"荒川区","address":"荒川区町屋6-13-2","lat":35.750405,"lon":139.783398},{"name":"町屋ふれあい館","province":"東京都","city":"荒川区","address":"荒川区町屋1-35-8","lat":35.744087,"lon":139.785824},{"name":"花の木ひろば館","province":"東京都","city":"荒川区","address":"荒川区荒川5-50-5","lat":35.740215,"lon":139.7748},{"name":"峡田ふれあい館","province":"東京都","city":"荒川区","address":"荒川区荒川3-3-10","lat":35.733786,"lon":139.784164},{"name":"荒川山吹ふれあい館","province":"東京都","city":"荒川区","address":"荒川区荒川7-6-8","lat":35.742546,"lon":139.783986},{"name":"汐入ふれあい館","province":"東京都","city":"荒川区","address":"荒川区南千住8-2-2","lat":35.735222,"lon":139.807354},{"name":"南千住ふれあい館","province":"東京都","city":"荒川区","address":"荒川区南千住6-36-13","lat":35.738133,"lon":139.791013},{"name":"南千住駅前ふれあい館","province":"東京都","city":"荒川区","address":"荒川区南千住7-1-1-208","lat":35.73308,"lon":139.798215},{"name":"石浜ふれあい館","province":"東京都","city":"荒川区","address":"荒川区南千住3-28-2","lat":35.73129,"lon":139.806446},{"name":"尾久ふれあい館","province":"東京都","city":"荒川区","address":"荒川区西尾久2-25-13","lat":35.750308,"lon":139.763303},{"name":"西尾久ふれあい館","province":"東京都","city":"荒川区","address":"荒川区西尾久8-33-31","lat":35.751604,"lon":139.753365},{"name":"熊野前ひろば館","province":"東京都","city":"荒川区","address":"荒川区東尾久5-9-3","lat":35.748255,"lon":139.768922},{"name":"西日暮里二丁目ひろば館","province":"東京都","city":"荒川区","address":"荒川区西日暮里2-32-25","lat":35.731683,"lon":139.772409},{"name":"西日暮里ふれあい館","province":"東京都","city":"荒川区","address":"荒川区西日暮里6-24-4","lat":35.736279,"lon":139.770781},{"name":"東日暮里ふれあい館","province":"東京都","city":"荒川区","address":"荒川区東日暮里1-17-13","lat":35.729666,"lon":139.790188},{"name":"夕やけこやけふれあい館","province":"東京都","city":"荒川区","address":"荒川区東日暮里3-11-19","lat":35.729964,"lon":139.781378},{"name":"荒川区立荒川老人福祉センター","province":"東京都","city":"荒川区","address":"荒川区荒川1-34-6","lat":35.73409,"lon":139.78777},{"name":"クリスマス・フォレスト","province":"東京都","city":"荒川区","address":"荒川区荒川8-14-10","lat":35.73973,"lon":139.78888},{"name":"町屋ふれあい館","province":"東京都","city":"荒川区","address":"荒川区町屋1-35-8","lat":35.74443,"lon":139.78592},{"name":"荒木田ふれあい館","province":"東京都","city":"荒川区","address":"荒川区町屋6-13-2","lat":35.75054,"lon":139.78346},{"name":"峡田ふれあい館","province":"東京都","city":"荒川区","address":"荒川区荒川3-3-10","lat":35.73388,"lon":139.78419},{"name":"花の木ひろば館","province":"東京都","city":"荒川区","address":"荒川区荒川5-50-5","lat":35.74051,"lon":139.7746},{"name":"荒川山吹ふれあい館","province":"東京都","city":"荒川区","address":"荒川区荒川7-6-8","lat":35.7424,"lon":139.78409},{"name":"石浜ふれあい館","province":"東京都","city":"荒川区","address":"荒川区南千住3-28-2","lat":35.72975,"lon":139.80701},{"name":"南千住ふれあい館","province":"東京都","city":"荒川区","address":"荒川区南千住6-36-13","lat":35.73845,"lon":139.79112},{"name":"南千住駅前ふれあい館","province":"東京都","city":"荒川区","address":"荒川区南千住7-1-1-208","lat":35.73307,"lon":139.7982},{"name":"汐入ふれあい館","province":"東京都","city":"荒川区","address":"荒川区南千住8-2-2","lat":35.73505,"lon":139.80739},{"name":"尾久ふれあい館","province":"東京都","city":"荒川区","address":"荒川区西尾久2-25-13","lat":35.75004,"lon":139.76363},{"name":"西尾久ふれあい館","province":"東京都","city":"荒川区","address":"荒川区西尾久8-33-31","lat":35.7515,"lon":139.75261},{"name":"熊野前ひろば館","province":"東京都","city":"荒川区","address":"荒川区東尾久5-9-3","lat":35.74841,"lon":139.76884},{"name":"西日暮里二丁目ひろば館","province":"東京都","city":"荒川区","address":"荒川区西日暮里2-32-25","lat":35.73123,"lon":139.77193},{"name":"西日暮里ふれあい館","province":"東京都","city":"荒川区","address":"荒川区西日暮里6-24-4","lat":35.73623,"lon":139.77063},{"name":"東日暮里ふれあい館","province":"東京都","city":"荒川区","address":"荒川区東日暮里1-17-13","lat":35.72997,"lon":139.78955},{"name":"夕やけこやけふれあい館","province":"東京都","city":"荒川区","address":"荒川区東日暮里3-11-19","lat":35.72988,"lon":139.78169},{"name":"自立援助ホーム陽気遊山","province":"東京都","city":"荒川区","address":"東京都荒川区","lat":35.73614432,"lon":139.78333641},{"name":"ダルクホーム","province":"東京都","city":"荒川区","address":"荒川区東日暮里3-10-6","lat":35.72881,"lon":139.78162},{"name":"おぐのあかり","province":"東京都","city":"荒川区","address":"荒川区西尾久5-15-15","lat":35.74823,"lon":139.75977},{"name":"荒川区","province":"東京都","city":"荒川区","address":"荒川区荒川2-2-3","lat":35.73626,"lon":139.78339},{"name":"荒川区子ども家庭総合センター","province":"東京都","city":"荒川区","address":"荒川区荒川1-50-17","lat":35.73388,"lon":139.78474},{"name":"荒川老人福祉センター","province":"東京都","city":"荒川区","address":"荒川区荒川1-34-6","lat":35.73409,"lon":139.78777},{"name":"荒川老人福祉センター","province":"東京都","city":"荒川区","address":"荒川区荒川1-34-6","lat":35.734258,"lon":139.786944},{"name":"ダルクホーム","province":"東京都","city":"荒川区","address":"荒川区東日暮里3-10-6","lat":35.728475,"lon":139.781986},{"name":"峡田ふれあい館","province":"東京都","city":"荒川区","address":"荒川区荒川3-3-10","lat":35.73388,"lon":139.7842},{"name":"熊野前ひろば館","province":"東京都","city":"荒川区","address":"荒川区東尾久5-9-3","lat":35.74841,"lon":139.76885},{"name":"おぐのあかり","province":"東京都","city":"荒川区","address":"荒川区西尾久5-15-15","lat":35.748185,"lon":139.759173},{"name":"＊?荒川区立生涯学習センター","province":"東京都","city":"荒川区","address":"荒川区荒川3-49-1","lat":35.734873,"lon":139.779837},{"name":"＊?男女平等推進センター（アクト21）","province":"東京都","city":"荒川区","address":"荒川区東尾久5-9-3","lat":35.748265,"lon":139.768918},{"name":"尾久の原公園","province":"東京都","city":"荒川区","address":"東京都荒川区東尾久7丁目","lat":35.75213275,"lon":139.77513791},{"name":"まちや","province":"東京都","city":"荒川区","address":"荒川区町屋4-9-5","lat":35.747117,"lon":139.776586},{"name":"荒川区","province":"東京都","city":"荒川区","address":"荒川区荒川2-2-3","lat":35.736083,"lon":139.783373},{"name":"荒川区保健所","province":"東京都","city":"荒川区","address":"東京都荒川区荒川2丁目11-1","lat":35.73706089,"lon":139.78338914},{"name":"荒川区立荒川老人福祉センター","province":"東京都","city":"荒川区","address":"荒川区荒川1-34-6","lat":35.73409,"lon":139.78777},{"name":"クリスマス・フォレスト","province":"東京都","city":"荒川区","address":"荒川区荒川8-14-10","lat":35.73973,"lon":139.78888},{"name":"自立援助ホーム陽気遊山","province":"東京都","city":"荒川区","address":"東京都荒川区","lat":35.73614432,"lon":139.78333641},{"name":"ダルクホーム","province":"東京都","city":"荒川区","address":"荒川区東日暮里3-10-6","lat":35.72881,"lon":139.78162},{"name":"おぐのあかり","province":"東京都","city":"荒川区","address":"荒川区西尾久5-15-15","lat":35.74823,"lon":139.75977},{"name":"荒川区","province":"東京都","city":"荒川区","address":"荒川区荒川2-2-3","lat":35.73626,"lon":139.78339},{"name":"荒川区子ども家庭総合センター","province":"東京都","city":"荒川区","address":"荒川区荒川1-50-17","lat":35.73388,"lon":139.78474},{"name":"荒川老人福祉センター","province":"東京都","city":"荒川区","address":"荒川区荒川1-34-6","lat":35.73409,"lon":139.78777},{"name":"荒川老人福祉センター","province":"東京都","city":"荒川区","address":"荒川区荒川1-34-6","lat":35.734258,"lon":139.786944},{"name":"ダルクホーム","province":"東京都","city":"荒川区","address":"荒川区東日暮里3-10-6","lat":35.728475,"lon":139.781986},{"name":"おぐのあかり","province":"東京都","city":"荒川区","address":"荒川区西尾久5-15-15","lat":35.748185,"lon":139.759173},{"name":"＊?荒川区立生涯学習センター","province":"東京都","city":"荒川区","address":"荒川区荒川3-49-1","lat":35.734873,"lon":139.779837},{"name":"＊?男女平等推進センター（アクト21）","province":"東京都","city":"荒川区","address":"荒川区東尾久5-9-3","lat":35.748265,"lon":139.768918},{"name":"まちや","province":"東京都","city":"荒川区","address":"荒川区町屋4-9-5","lat":35.747117,"lon":139.776586},{"name":"荒川区","province":"東京都","city":"荒川区","address":"荒川区荒川2-2-3","lat":35.736083,"lon":139.783373},{"name":"荒川区立荒川老人福祉センター","province":"東京都","city":"荒川区","address":"荒川区荒川1-34-6","lat":35.73409,"lon":139.78777},{"name":"クリスマス・フォレスト","province":"東京都","city":"荒川区","address":"荒川区荒川8-14-10","lat":35.73973,"lon":139.78888},{"name":"自立援助ホーム陽気遊山","province":"東京都","city":"荒川区","address":"東京都荒川区","lat":35.73614432,"lon":139.78333641},{"name":"ダルクホーム","province":"東京都","city":"荒川区","address":"荒川区東日暮里3-10-6","lat":35.72881,"lon":139.78162},{"name":"おぐのあかり","province":"東京都","city":"荒川区","address":"荒川区西尾久5-15-15","lat":35.74823,"lon":139.75977},{"name":"荒川区","province":"東京都","city":"荒川区","address":"荒川区荒川2-2-3","lat":35.73626,"lon":139.78339},{"name":"荒川区子ども家庭総合センター","province":"東京都","city":"荒川区","address":"荒川区荒川1-50-17","lat":35.73388,"lon":139.78474},{"name":"荒川老人福祉センター","province":"東京都","city":"荒川区","address":"荒川区荒川1-34-6","lat":35.73409,"lon":139.78777},{"name":"荒川老人福祉センター","province":"東京都","city":"荒川区","address":"荒川区荒川1-34-6","lat":35.734258,"lon":139.786944},{"name":"ダルクホーム","province":"東京都","city":"荒川区","address":"荒川区東日暮里3-10-6","lat":35.728475,"lon":139.781986},{"name":"おぐのあかり","province":"東京都","city":"荒川区","address":"荒川区西尾久5-15-15","lat":35.748185,"lon":139.759173},{"name":"＊?荒川区立生涯学習センター","province":"東京都","city":"荒川区","address":"荒川区荒川3-49-1","lat":35.734873,"lon":139.779837},{"name":"＊?男女平等推進センター（アクト21）","province":"東京都","city":"荒川区","address":"荒川区東尾久5-9-3","lat":35.748265,"lon":139.768918},{"name":"まちや","province":"東京都","city":"荒川区","address":"荒川区町屋4-9-5","lat":35.747117,"lon":139.776586},{"name":"荒川区","province":"東京都","city":"荒川区","address":"荒川区荒川2-2-3","lat":35.736083,"lon":139.783373},{"name":"荒川区立荒川老人福祉センター","province":"東京都","city":"荒川区","address":"荒川区荒川1-34-6","lat":35.73409,"lon":139.78777},{"name":"クリスマス・フォレスト","province":"東京都","city":"荒川区","address":"荒川区荒川8-14-10","lat":35.73973,"lon":139.78888},{"name":"自立援助ホーム陽気遊山","province":"東京都","city":"荒川区","address":"東京都荒川区","lat":35.73614432,"lon":139.78333641},{"name":"ダルクホーム","province":"東京都","city":"荒川区","address":"荒川区東日暮里3-10-6","lat":35.72881,"lon":139.78162},{"name":"荒川区","province":"東京都","city":"荒川区","address":"荒川区荒川2-2-3","lat":35.73626,"lon":139.78339},{"name":"荒川区子ども家庭総合センター","province":"東京都","city":"荒川区","address":"荒川区荒川1-50-17","lat":35.73388,"lon":139.78474},{"name":"荒川老人福祉センター","province":"東京都","city":"荒川区","address":"荒川区荒川1-34-6","lat":35.73409,"lon":139.78777},{"name":"荒川老人福祉センター","province":"東京都","city":"荒川区","address":"荒川区荒川1-34-6","lat":35.734258,"lon":139.786944},{"name":"ダルクホーム","province":"東京都","city":"荒川区","address":"荒川区東日暮里3-10-6","lat":35.728475,"lon":139.781986},{"name":"＊?荒川区立生涯学習センター","province":"東京都","city":"荒川区","address":"荒川区荒川3-49-1","lat":35.734873,"lon":139.779837},{"name":"まちや","province":"東京都","city":"荒川区","address":"荒川区町屋4-9-5","lat":35.747117,"lon":139.776586},{"name":"荒川区","province":"東京都","city":"荒川区","address":"荒川区荒川2-2-3","lat":35.736083,"lon":139.783373},{"name":"荒川区立荒川老人福祉センター","province":"東京都","city":"荒川区","address":"荒川区荒川1-34-6","lat":35.73409,"lon":139.78777},{"name":"クリスマス・フォレスト","province":"東京都","city":"荒川区","address":"荒川区荒川8-14-10","lat":35.73973,"lon":139.78888},{"name":"自立援助ホーム陽気遊山","province":"東京都","city":"荒川区","address":"東京都荒川区","lat":35.73614432,"lon":139.78333641},{"name":"ダルクホーム","province":"東京都","city":"荒川区","address":"荒川区東日暮里3-10-6","lat":35.72881,"lon":139.78162},{"name":"荒川区","province":"東京都","city":"荒川区","address":"荒川区荒川2-2-3","lat":35.73626,"lon":139.78339},{"name":"荒川区子ども家庭総合センター","province":"東京都","city":"荒川区","address":"荒川区荒川1-50-17","lat":35.73388,"lon":139.78474},{"name":"荒川老人福祉センター","province":"東京都","city":"荒川区","address":"荒川区荒川1-34-6","lat":35.73409,"lon":139.78777},{"name":"荒川老人福祉センター","province":"東京都","city":"荒川区","address":"荒川区荒川1-34-6","lat":35.734258,"lon":139.786944},{"name":"ダルクホーム","province":"東京都","city":"荒川区","address":"荒川区東日暮里3-10-6","lat":35.728475,"lon":139.781986},{"name":"＊?荒川区立生涯学習センター","province":"東京都","city":"荒川区","address":"荒川区荒川3-49-1","lat":35.734873,"lon":139.779837},{"name":"まちや","province":"東京都","city":"荒川区","address":"荒川区町屋4-9-5","lat":35.747117,"lon":139.776586},{"name":"荒川区","province":"東京都","city":"荒川区","address":"荒川区荒川2-2-3","lat":35.736083,"lon":139.783373},{"name":"荒川区立荒川老人福祉センター","province":"東京都","city":"荒川区","address":"荒川区荒川1-34-6","lat":35.73409,"lon":139.78777},{"name":"クリスマス・フォレスト","province":"東京都","city":"荒川区","address":"荒川区荒川8-14-10","lat":35.73973,"lon":139.78888},{"name":"ダルクホーム","province":"東京都","city":"荒川区","address":"荒川区東日暮里3-10-6","lat":35.72881,"lon":139.78162},{"name":"荒川区","province":"東京都","city":"荒川区","address":"荒川区荒川2-2-3","lat":35.73626,"lon":139.78339},{"name":"荒川区子ども家庭総合センター","province":"東京都","city":"荒川区","address":"荒川区荒川1-50-17","lat":35.73388,"lon":139.78474},{"name":"荒川老人福祉センター","province":"東京都","city":"荒川区","address":"荒川区荒川1-34-6","lat":35.73409,"lon":139.78777},{"name":"荒川老人福祉センター","province":"東京都","city":"荒川区","address":"荒川区荒川1-34-6","lat":35.734258,"lon":139.786944},{"name":"ダルクホーム","province":"東京都","city":"荒川区","address":"荒川区東日暮里3-10-6","lat":35.728475,"lon":139.781986},{"name":"荒川区","province":"東京都","city":"荒川区","address":"荒川区荒川2-2-3","lat":35.736083,"lon":139.783373},{"name":"荒川区立荒川老人福祉センター","province":"東京都","city":"荒川区","address":"荒川区荒川1-34-6","lat":35.73409,"lon":139.78777},{"name":"クリスマス・フォレスト","province":"東京都","city":"荒川区","address":"荒川区荒川8-14-10","lat":35.73973,"lon":139.78888},{"name":"ダルクホーム","province":"東京都","city":"荒川区","address":"荒川区東日暮里3-10-6","lat":35.72881,"lon":139.78162},{"name":"荒川区","province":"東京都","city":"荒川区","address":"荒川区荒川2-2-3","lat":35.73626,"lon":139.78339},{"name":"荒川区子ども家庭総合センター","province":"東京都","city":"荒川区","address":"荒川区荒川1-50-17","lat":35.73388,"lon":139.78474},{"name":"荒川老人福祉センター","province":"東京都","city":"荒川区","address":"荒川区荒川1-34-6","lat":35.73409,"lon":139.78777},{"name":"荒川老人福祉センター","province":"東京都","city":"荒川区","address":"荒川区荒川1-34-6","lat":35.734258,"lon":139.786944},{"name":"ダルクホーム","province":"東京都","city":"荒川区","address":"荒川区東日暮里3-10-6","lat":35.728475,"lon":139.781986},{"name":"荒川区","province":"東京都","city":"荒川区","address":"荒川区荒川2-2-3","lat":35.736083,"lon":139.783373},{"name":"荒川区立荒川老人福祉センター","province":"東京都","city":"荒川区","address":"荒川区荒川1-34-6","lat":35.73409,"lon":139.78777},{"name":"クリスマス・フォレスト","province":"東京都","city":"荒川区","address":"荒川区荒川8-14-10","lat":35.73973,"lon":139.78888},{"name":"ダルクホーム","province":"東京都","city":"荒川区","address":"荒川区東日暮里3-10-6","lat":35.72881,"lon":139.78162},{"name":"荒川区","province":"東京都","city":"荒川区","address":"荒川区荒川2-2-3","lat":35.73626,"lon":139.78339},{"name":"荒川区子ども家庭総合センター","province":"東京都","city":"荒川区","address":"荒川区荒川1-50-17","lat":35.73388,"lon":139.78474},{"name":"荒川老人福祉センター","province":"東京都","city":"荒川区","address":"荒川区荒川1-34-6","lat":35.73409,"lon":139.78777},{"name":"荒川老人福祉センター","province":"東京都","city":"荒川区","address":"荒川区荒川1-34-6","lat":35.734258,"lon":139.786944},{"name":"ダルクホーム","province":"東京都","city":"荒川区","address":"荒川区東日暮里3-10-6","lat":35.728475,"lon":139.781986},{"name":"荒川区","province":"東京都","city":"荒川区","address":"荒川区荒川2-2-3","lat":35.736083,"lon":139.783373},{"name":"荒川区立荒川老人福祉センター","province":"東京都","city":"荒川区","address":"荒川区荒川1-34-6","lat":35.73409,"lon":139.78777},{"name":"クリスマス・フォレスト","province":"東京都","city":"荒川区","address":"荒川区荒川8-14-10","lat":35.73973,"lon":139.78888},{"name":"ダルクホーム","province":"東京都","city":"荒川区","address":"荒川区東日暮里3-10-6","lat":35.72881,"lon":139.78162},{"name":"荒川区","province":"東京都","city":"荒川区","address":"荒川区荒川2-2-3","lat":35.73626,"lon":139.78339},{"name":"荒川区子ども家庭総合センター","province":"東京都","city":"荒川区","address":"荒川区荒川1-50-17","lat":35.73388,"lon":139.78474},{"name":"荒川老人福祉センター","province":"東京都","city":"荒川区","address":"荒川区荒川1-34-6","lat":35.73409,"lon":139.78777},{"name":"荒川老人福祉センター","province":"東京都","city":"荒川区","address":"荒川区荒川1-34-6","lat":35.734258,"lon":139.786944},{"name":"ダルクホーム","province":"東京都","city":"荒川区","address":"荒川区東日暮里3-10-6","lat":35.728475,"lon":139.781986},{"name":"荒川区","province":"東京都","city":"荒川区","address":"荒川区荒川2-2-3","lat":35.736083,"lon":139.783373},{"name":"荒川区立荒川老人福祉センター","province":"東京都","city":"荒川区","address":"荒川区荒川1-34-6","lat":35.73409,"lon":139.78777},{"name":"クリスマス・フォレスト","province":"東京都","city":"荒川区","address":"荒川区荒川8-14-10","lat":35.73973,"lon":139.78888},{"name":"ダルクホーム","province":"東京都","city":"荒川区","address":"荒川区東日暮里3-10-6","lat":35.72881,"lon":139.78162},{"name":"荒川区","province":"東京都","city":"荒川区","address":"荒川区荒川2-2-3","lat":35.73626,"lon":139.78339},{"name":"荒川区子ども家庭総合センター","province":"東京都","city":"荒川区","address":"荒川区荒川1-50-17","lat":35.73388,"lon":139.78474},{"name":"荒川老人福祉センター","province":"東京都","city":"荒川区","address":"荒川区荒川1-34-6","lat":35.73409,"lon":139.78777},{"name":"荒川老人福祉センター","province":"東京都","city":"荒川区","address":"荒川区荒川1-34-6","lat":35.734258,"lon":139.786944},{"name":"ダルクホーム","province":"東京都","city":"荒川区","address":"荒川区東日暮里3-10-6","lat":35.728475,"lon":139.781986},{"name":"荒川区","province":"東京都","city":"荒川区","address":"荒川区荒川2-2-3","lat":35.736083,"lon":139.783373},{"name":"荒川区立荒川老人福祉センター","province":"東京都","city":"荒川区","address":"荒川区荒川1-34-6","lat":35.73409,"lon":139.78777},{"name":"クリスマス・フォレスト","province":"東京都","city":"荒川区","address":"荒川区荒川8-14-10","lat":35.73973,"lon":139.78888},{"name":"ダルクホーム","province":"東京都","city":"荒川区","address":"荒川区東日暮里3-10-6","lat":35.72881,"lon":139.78162},{"name":"荒川区","province":"東京都","city":"荒川区","address":"荒川区荒川2-2-3","lat":35.73626,"lon":139.78339},{"name":"荒川区子ども家庭総合センター","province":"東京都","city":"荒川区","address":"荒川区荒川1-50-17","lat":35.73388,"lon":139.78474},{"name":"荒川老人福祉センター","province":"東京都","city":"荒川区","address":"荒川区荒川1-34-6","lat":35.73409,"lon":139.78777},{"name":"荒川老人福祉センター","province":"東京都","city":"荒川区","address":"荒川区荒川1-34-6","lat":35.734258,"lon":139.786944},{"name":"ダルクホーム","province":"東京都","city":"荒川区","address":"荒川区東日暮里3-10-6","lat":35.728475,"lon":139.781986},{"name":"荒川区","province":"東京都","city":"荒川区","address":"荒川区荒川2-2-3","lat":35.736083,"lon":139.783373},{"name":"荒川区立荒川老人福祉センター","province":"東京都","city":"荒川区","address":"荒川区荒川1-34-6","lat":35.73409,"lon":139.78777},{"name":"クリスマス・フォレスト","province":"東京都","city":"荒川区","address":"荒川区荒川8-14-10","lat":35.73973,"lon":139.78888},{"name":"ダルクホーム","province":"東京都","city":"荒川区","address":"荒川区東日暮里3-10-6","lat":35.72881,"lon":139.78162},{"name":"荒川区","province":"東京都","city":"荒川区","address":"荒川区荒川2-2-3","lat":35.73626,"lon":139.78339},{"name":"荒川区子ども家庭総合センター","province":"東京都","city":"荒川区","address":"荒川区荒川1-50-17","lat":35.73388,"lon":139.78474},{"name":"荒川老人福祉センター","province":"東京都","city":"荒川区","address":"荒川区荒川1-34-6","lat":35.73409,"lon":139.78777},{"name":"荒川老人福祉センター","province":"東京都","city":"荒川区","address":"荒川区荒川1-34-6","lat":35.734258,"lon":139.786944},{"name":"ダルクホーム","province":"東京都","city":"荒川区","address":"荒川区東日暮里3-10-6","lat":35.728475,"lon":139.781986},{"name":"荒川区","province":"東京都","city":"荒川区","address":"荒川区荒川2-2-3","lat":35.736083,"lon":139.783373},{"name":"荒川区立荒川老人福祉センター","province":"東京都","city":"荒川区","address":"荒川区荒川1-34-6","lat":35.73409,"lon":139.78777},{"name":"クリスマス・フォレスト","province":"東京都","city":"荒川区","address":"荒川区荒川8-14-10","lat":35.73973,"lon":139.78888},{"name":"ダルクホーム","province":"東京都","city":"荒川区","address":"荒川区東日暮里3-10-6","lat":35.72881,"lon":139.78162},{"name":"荒川区","province":"東京都","city":"荒川区","address":"荒川区荒川2-2-3","lat":35.73626,"lon":139.78339},{"name":"荒川区子ども家庭総合センター","province":"東京都","city":"荒川区","address":"荒川区荒川1-50-17","lat":35.73388,"lon":139.78474},{"name":"荒川老人福祉センター","province":"東京都","city":"荒川区","address":"荒川区荒川1-34-6","lat":35.73409,"lon":139.78777},{"name":"荒川老人福祉センター","province":"東京都","city":"荒川区","address":"荒川区荒川1-34-6","lat":35.734258,"lon":139.786944},{"name":"ダルクホーム","province":"東京都","city":"荒川区","address":"荒川区東日暮里3-10-6","lat":35.728475,"lon":139.781986},{"name":"荒川区","province":"東京都","city":"荒川区","address":"荒川区荒川2-2-3","lat":35.736083,"lon":139.783373},{"name":"荒川区立荒川老人福祉センター","province":"東京都","city":"荒川区","address":"荒川区荒川1-34-6","lat":35.73409,"lon":139.78777},{"name":"クリスマス・フォレスト","province":"東京都","city":"荒川区","address":"荒川区荒川8-14-10","lat":35.73973,"lon":139.78888},{"name":"ダルクホーム","province":"東京都","city":"荒川区","address":"荒川区東日暮里3-10-6","lat":35.72881,"lon":139.78162},{"name":"荒川区","province":"東京都","city":"荒川区","address":"荒川区荒川2-2-3","lat":35.73626,"lon":139.78339},{"name":"荒川区子ども家庭総合センター","province":"東京都","city":"荒川区","address":"荒川区荒川1-50-17","lat":35.73388,"lon":139.78474},{"name":"荒川老人福祉センター","province":"東京都","city":"荒川区","address":"荒川区荒川1-34-6","lat":35.73409,"lon":139.78777},{"name":"荒川老人福祉センター","province":"東京都","city":"荒川区","address":"荒川区荒川1-34-6","lat":35.734258,"lon":139.786944},{"name":"ダルクホーム","province":"東京都","city":"荒川区","address":"荒川区東日暮里3-10-6","lat":35.728475,"lon":139.781986},{"name":"荒川区","province":"東京都","city":"荒川区","address":"荒川区荒川2-2-3","lat":35.736083,"lon":139.783373},{"name":"荒川区立荒川老人福祉センター","province":"東京都","city":"荒川区","address":"荒川区荒川1-34-6","lat":35.73409,"lon":139.78777},{"name":"クリスマス・フォレスト","province":"東京都","city":"荒川区","address":"荒川区荒川8-14-10","lat":35.73973,"lon":139.78888},{"name":"ダルクホーム","province":"東京都","city":"荒川区","address":"荒川区東日暮里3-10-6","lat":35.72881,"lon":139.78162},{"name":"荒川区","province":"東京都","city":"荒川区","address":"荒川区荒川2-2-3","lat":35.73626,"lon":139.78339},{"name":"荒川区子ども家庭総合センター","province":"東京都","city":"荒川区","address":"荒川区荒川1-50-17","lat":35.73388,"lon":139.78474},{"name":"荒川老人福祉センター","province":"東京都","city":"荒川区","address":"荒川区荒川1-34-6","lat":35.73409,"lon":139.78777},{"name":"荒川老人福祉センター","province":"東京都","city":"荒川区","address":"荒川区荒川1-34-6","lat":35.734258,"lon":139.786944},{"name":"ダルクホーム","province":"東京都","city":"荒川区","address":"荒川区東日暮里3-10-6","lat":35.728475,"lon":139.781986},{"name":"荒川区","province":"東京都","city":"荒川区","address":"荒川区荒川2-2-3","lat":35.736083,"lon":139.783373},{"name":"荒川区立荒川老人福祉センター","province":"東京都","city":"荒川区","address":"荒川区荒川1-34-6","lat":35.73409,"lon":139.78777},{"name":"クリスマス・フォレスト","province":"東京都","city":"荒川区","address":"荒川区荒川8-14-10","lat":35.73973,"lon":139.78888},{"name":"ダルクホーム","province":"東京都","city":"荒川区","address":"荒川区東日暮里3-10-6","lat":35.72881,"lon":139.78162},{"name":"荒川区","province":"東京都","city":"荒川区","address":"荒川区荒川2-2-3","lat":35.73626,"lon":139.78339},{"name":"荒川区子ども家庭総合センター","province":"東京都","city":"荒川区","address":"荒川区荒川1-50-17","lat":35.73388,"lon":139.78474},{"name":"荒川老人福祉センター","province":"東京都","city":"荒川区","address":"荒川区荒川1-34-6","lat":35.73409,"lon":139.78777},{"name":"荒川老人福祉センター","province":"東京都","city":"荒川区","address":"荒川区荒川1-34-6","lat":35.734258,"lon":139.786944},{"name":"ダルクホーム","province":"東京都","city":"荒川区","address":"荒川区東日暮里3-10-6","lat":35.728475,"lon":139.781986},{"name":"荒川区","province":"東京都","city":"荒川区","address":"荒川区荒川2-2-3","lat":35.736083,"lon":139.783373},{"name":"荒川区立荒川老人福祉センター","province":"東京都","city":"荒川区","address":"荒川区荒川1-34-6","lat":35.73409,"lon":139.78777},{"name":"クリスマス・フォレスト","province":"東京都","city":"荒川区","address":"荒川区荒川8-14-10","lat":35.73973,"lon":139.78888},{"name":"ダルクホーム","province":"東京都","city":"荒川区","address":"荒川区東日暮里3-10-6","lat":35.72881,"lon":139.78162},{"name":"荒川区","province":"東京都","city":"荒川区","address":"荒川区荒川2-2-3","lat":35.73626,"lon":139.78339},{"name":"荒川区子ども家庭総合センター","province":"東京都","city":"荒川区","address":"荒川区荒川1-50-17","lat":35.73388,"lon":139.78474},{"name":"荒川老人福祉センター","province":"東京都","city":"荒川区","address":"荒川区荒川1-34-6","lat":35.73409,"lon":139.78777},{"name":"荒川老人福祉センター","province":"東京都","city":"荒川区","address":"荒川区荒川1-34-6","lat":35.734258,"lon":139.786944},{"name":"ダルクホーム","province":"東京都","city":"荒川区","address":"荒川区東日暮里3-10-6","lat":35.728475,"lon":139.781986},{"name":"荒川区","province":"東京都","city":"荒川区","address":"荒川区荒川2-2-3","lat":35.736083,"lon":139.783373},{"name":"荒川区立荒川老人福祉センター","province":"東京都","city":"荒川区","address":"荒川区荒川1-34-6","lat":35.73409,"lon":139.78777},{"name":"クリスマス・フォレスト","province":"東京都","city":"荒川区","address":"荒川区荒川8-14-10","lat":35.73973,"lon":139.78888},{"name":"ダルクホーム","province":"東京都","city":"荒川区","address":"荒川区東日暮里3-10-6","lat":35.72881,"lon":139.78162},{"name":"荒川区","province":"東京都","city":"荒川区","address":"荒川区荒川2-2-3","lat":35.73626,"lon":139.78339},{"name":"荒川区子ども家庭総合センター","province":"東京都","city":"荒川区","address":"荒川区荒川1-50-17","lat":35.73388,"lon":139.78474},{"name":"荒川老人福祉センター","province":"東京都","city":"荒川区","address":"荒川区荒川1-34-6","lat":35.73409,"lon":139.78777},{"name":"荒川老人福祉センター","province":"東京都","city":"荒川区","address":"荒川区荒川1-34-6","lat":35.734258,"lon":139.786944},{"name":"ダルクホーム","province":"東京都","city":"荒川区","address":"荒川区東日暮里3-10-6","lat":35.728475,"lon":139.781986},{"name":"荒川区","province":"東京都","city":"荒川区","address":"荒川区荒川2-2-3","lat":35.736083,"lon":139.783373},{"name":"荒川区立荒川老人福祉センター","province":"東京都","city":"荒川区","address":"荒川区荒川1-34-6","lat":35.73409,"lon":139.78777},{"name":"クリスマス・フォレスト","province":"東京都","city":"荒川区","address":"荒川区荒川8-14-10","lat":35.73973,"lon":139.78888},{"name":"ダルクホーム","province":"東京都","city":"荒川区","address":"荒川区東日暮里3-10-6","lat":35.72881,"lon":139.78162},{"name":"荒川区","province":"東京都","city":"荒川区","address":"荒川区荒川2-2-3","lat":35.73626,"lon":139.78339},{"name":"荒川区子ども家庭総合センター","province":"東京都","city":"荒川区","address":"荒川区荒川1-50-17","lat":35.73388,"lon":139.78474},{"name":"荒川老人福祉センター","province":"東京都","city":"荒川区","address":"荒川区荒川1-34-6","lat":35.73409,"lon":139.78777},{"name":"荒川老人福祉センター","province":"東京都","city":"荒川区","address":"荒川区荒川1-34-6","lat":35.734258,"lon":139.786944},{"name":"ダルクホーム","province":"東京都","city":"荒川区","address":"荒川区東日暮里3-10-6","lat":35.728475,"lon":139.781986},{"name":"荒川区","province":"東京都","city":"荒川区","address":"荒川区荒川2-2-3","lat":35.736083,"lon":139.783373},{"name":"荒川区立荒川老人福祉センター","province":"東京都","city":"荒川区","address":"荒川区荒川1-34-6","lat":35.73409,"lon":139.78777},{"name":"クリスマス・フォレスト","province":"東京都","city":"荒川区","address":"荒川区荒川8-14-10","lat":35.73973,"lon":139.78888},{"name":"ダルクホーム","province":"東京都","city":"荒川区","address":"荒川区東日暮里3-10-6","lat":35.72881,"lon":139.78162},{"name":"荒川区","province":"東京都","city":"荒川区","address":"荒川区荒川2-2-3","lat":35.73626,"lon":139.78339},{"name":"荒川区子ども家庭総合センター","province":"東京都","city":"荒川区","address":"荒川区荒川1-50-17","lat":35.73388,"lon":139.78474},{"name":"荒川老人福祉センター","province":"東京都","city":"荒川区","address":"荒川区荒川1-34-6","lat":35.73409,"lon":139.78777},{"name":"荒川老人福祉センター","province":"東京都","city":"荒川区","address":"荒川区荒川1-34-6","lat":35.734258,"lon":139.786944},{"name":"ダルクホーム","province":"東京都","city":"荒川区","address":"荒川区東日暮里3-10-6","lat":35.728475,"lon":139.781986},{"name":"荒川区","province":"東京都","city":"荒川区","address":"荒川区荒川2-2-3","lat":35.736083,"lon":139.783373},{"name":"荒川区立荒川老人福祉センター","province":"東京都","city":"荒川区","address":"荒川区荒川1-34-6","lat":35.73409,"lon":139.78777},{"name":"クリスマス・フォレスト","province":"東京都","city":"荒川区","address":"荒川区荒川8-14-10","lat":35.73973,"lon":139.78888},{"name":"ダルクホーム","province":"東京都","city":"荒川区","address":"荒川区東日暮里3-10-6","lat":35.72881,"lon":139.78162},{"name":"荒川区","province":"東京都","city":"荒川区","address":"荒川区荒川2-2-3","lat":35.73626,"lon":139.78339},{"name":"荒川区子ども家庭総合センター","province":"東京都","city":"荒川区","address":"荒川区荒川1-50-17","lat":35.73388,"lon":139.78474},{"name":"荒川老人福祉センター","province":"東京都","city":"荒川区","address":"荒川区荒川1-34-6","lat":35.73409,"lon":139.78777},{"name":"荒川老人福祉センター","province":"東京都","city":"荒川区","address":"荒川区荒川1-34-6","lat":35.734258,"lon":139.786944},{"name":"ダルクホーム","province":"東京都","city":"荒川区","address":"荒川区東日暮里3-10-6","lat":35.728475,"lon":139.781986},{"name":"荒川区","province":"東京都","city":"荒川区","address":"荒川区荒川2-2-3","lat":35.736083,"lon":139.783373},{"name":"荒川区立荒川老人福祉センター","province":"東京都","city":"荒川区","address":"荒川区荒川1-34-6","lat":35.73409,"lon":139.78777},{"name":"クリスマス・フォレスト","province":"東京都","city":"荒川区","address":"荒川区荒川8-14-10","lat":35.73973,"lon":139.78888},{"name":"ダルクホーム","province":"東京都","city":"荒川区","address":"荒川区東日暮里3-10-6","lat":35.72881,"lon":139.78162},{"name":"荒川区","province":"東京都","city":"荒川区","address":"荒川区荒川2-2-3","lat":35.73626,"lon":139.78339},{"name":"荒川区子ども家庭総合センター","province":"東京都","city":"荒川区","address":"荒川区荒川1-50-17","lat":35.73388,"lon":139.78474},{"name":"荒川老人福祉センター","province":"東京都","city":"荒川区","address":"荒川区荒川1-34-6","lat":35.73409,"lon":139.78777},{"name":"荒川老人福祉センター","province":"東京都","city":"荒川区","address":"荒川区荒川1-34-6","lat":35.734258,"lon":139.786944},{"name":"ダルクホーム","province":"東京都","city":"荒川区","address":"荒川区東日暮里3-10-6","lat":35.728475,"lon":139.781986},{"name":"荒川区","province":"東京都","city":"荒川区","address":"荒川区荒川2-2-3","lat":35.736083,"lon":139.783373},{"name":"荒川区立荒川老人福祉センター","province":"東京都","city":"荒川区","address":"荒川区荒川1-34-6","lat":35.73409,"lon":139.78777},{"name":"クリスマス・フォレスト","province":"東京都","city":"荒川区","address":"荒川区荒川8-14-10","lat":35.73973,"lon":139.78888},{"name":"ダルクホーム","province":"東京都","city":"荒川区","address":"荒川区東日暮里3-10-6","lat":35.72881,"lon":139.78162},{"name":"荒川区","province":"東京都","city":"荒川区","address":"荒川区荒川2-2-3","lat":35.73626,"lon":139.78339},{"name":"荒川区子ども家庭総合センター","province":"東京都","city":"荒川区","address":"荒川区荒川1-50-17","lat":35.73388,"lon":139.78474},{"name":"荒川老人福祉センター","province":"東京都","city":"荒川区","address":"荒川区荒川1-34-6","lat":35.73409,"lon":139.78777},{"name":"荒川老人福祉センター","province":"東京都","city":"荒川区","address":"荒川区荒川1-34-6","lat":35.734258,"lon":139.786944},{"name":"ダルクホーム","province":"東京都","city":"荒川区","address":"荒川区東日暮里3-10-6","lat":35.728475,"lon":139.781986},{"name":"荒川区","province":"東京都","city":"荒川区","address":"荒川区荒川2-2-3","lat":35.736083,"lon":139.783373},{"name":"荒川区立荒川老人福祉センター","province":"東京都","city":"荒川区","address":"荒川区荒川1-34-6","lat":35.73409,"lon":139.78777},{"name":"クリスマス・フォレスト","province":"東京都","city":"荒川区","address":"荒川区荒川8-14-10","lat":35.73973,"lon":139.78888},{"name":"ダルクホーム","province":"東京都","city":"荒川区","address":"荒川区東日暮里3-10-6","lat":35.72881,"lon":139.78162},{"name":"荒川区","province":"東京都","city":"荒川区","address":"荒川区荒川2-2-3","lat":35.73626,"lon":139.78339},{"name":"荒川区子ども家庭総合センター","province":"東京都","city":"荒川区","address":"荒川区荒川1-50-17","lat":35.73388,"lon":139.78474},{"name":"荒川老人福祉センター","province":"東京都","city":"荒川区","address":"荒川区荒川1-34-6","lat":35.73409,"lon":139.78777},{"name":"荒川老人福祉センター","province":"東京都","city":"荒川区","address":"荒川区荒川1-34-6","lat":35.734258,"lon":139.786944},{"name":"ダルクホーム","province":"東京都","city":"荒川区","address":"荒川区東日暮里3-10-6","lat":35.728475,"lon":139.781986},{"name":"荒川区","province":"東京都","city":"荒川区","address":"荒川区荒川2-2-3","lat":35.736083,"lon":139.783373},{"name":"荒川区立荒川老人福祉センター","province":"東京都","city":"荒川区","address":"荒川区荒川1-34-6","lat":35.73409,"lon":139.78777},{"name":"クリスマス・フォレスト","province":"東京都","city":"荒川区","address":"荒川区荒川8-14-10","lat":35.73973,"lon":139.78888},{"name":"ダルクホーム","province":"東京都","city":"荒川区","address":"荒川区東日暮里3-10-6","lat":35.72881,"lon":139.78162},{"name":"荒川区","province":"東京都","city":"荒川区","address":"荒川区荒川2-2-3","lat":35.73626,"lon":139.78339},{"name":"荒川区子ども家庭総合センター","province":"東京都","city":"荒川区","address":"荒川区荒川1-50-17","lat":35.73388,"lon":139.78474},{"name":"荒川老人福祉センター","province":"東京都","city":"荒川区","address":"荒川区荒川1-34-6","lat":35.73409,"lon":139.78777},{"name":"荒川老人福祉センター","province":"東京都","city":"荒川区","address":"荒川区荒川1-34-6","lat":35.734258,"lon":139.786944},{"name":"ダルクホーム","province":"東京都","city":"荒川区","address":"荒川区東日暮里3-10-6","lat":35.728475,"lon":139.781986},{"name":"荒川区","province":"東京都","city":"荒川区","address":"荒川区荒川2-2-3","lat":35.736083,"lon":139.783373},{"name":"荒川区立荒川老人福祉センター","province":"東京都","city":"荒川区","address":"荒川区荒川1-34-6","lat":35.73409,"lon":139.78777},{"name":"クリスマス・フォレスト","province":"東京都","city":"荒川区","address":"荒川区荒川8-14-10","lat":35.73973,"lon":139.78888},{"name":"ダルクホーム","province":"東京都","city":"荒川区","address":"荒川区東日暮里3-10-6","lat":35.72881,"lon":139.78162},{"name":"荒川区","province":"東京都","city":"荒川区","address":"荒川区荒川2-2-3","lat":35.73626,"lon":139.78339},{"name":"荒川区子ども家庭総合センター","province":"東京都","city":"荒川区","address":"荒川区荒川1-50-17","lat":35.73388,"lon":139.78474},{"name":"荒川老人福祉センター","province":"東京都","city":"荒川区","address":"荒川区荒川1-34-6","lat":35.73409,"lon":139.78777},{"name":"荒川老人福祉センター","province":"東京都","city":"荒川区","address":"荒川区荒川1-34-6","lat":35.734258,"lon":139.786944},{"name":"ダルクホーム","province":"東京都","city":"荒川区","address":"荒川区東日暮里3-10-6","lat":35.728475,"lon":139.781986},{"name":"荒川区","province":"東京都","city":"荒川区","address":"荒川区荒川2-2-3","lat":35.736083,"lon":139.783373},{"name":"荒川区立荒川老人福祉センター","province":"東京都","city":"荒川区","address":"荒川区荒川1-34-6","lat":35.73409,"lon":139.78777},{"name":"クリスマス・フォレスト","province":"東京都","city":"荒川区","address":"荒川区荒川8-14-10","lat":35.73973,"lon":139.78888},{"name":"ダルクホーム","province":"東京都","city":"荒川区","address":"荒川区東日暮里3-10-6","lat":35.72881,"lon":139.78162},{"name":"荒川区","province":"東京都","city":"荒川区","address":"荒川区荒川2-2-3","lat":35.73626,"lon":139.78339},{"name":"荒川区子ども家庭総合センター","province":"東京都","city":"荒川区","address":"荒川区荒川1-50-17","lat":35.73388,"lon":139.78474},{"name":"荒川老人福祉センター","province":"東京都","city":"荒川区","address":"荒川区荒川1-34-6","lat":35.73409,"lon":139.78777},{"name":"荒川老人福祉センター","province":"東京都","city":"荒川区","address":"荒川区荒川1-34-6","lat":35.734258,"lon":139.786944},{"name":"ダルクホーム","province":"東京都","city":"荒川区","address":"荒川区東日暮里3-10-6","lat":35.728475,"lon":139.781986},{"name":"荒川区","province":"東京都","city":"荒川区","address":"荒川区荒川2-2-3","lat":35.736083,"lon":139.783373},{"name":"荒川区立荒川老人福祉センター","province":"東京都","city":"荒川区","address":"荒川区荒川1-34-6","lat":35.73409,"lon":139.78777},{"name":"クリスマス・フォレスト","province":"東京都","city":"荒川区","address":"荒川区荒川8-14-10","lat":35.73973,"lon":139.78888},{"name":"ダルクホーム","province":"東京都","city":"荒川区","address":"荒川区東日暮里3-10-6","lat":35.72881,"lon":139.78162},{"name":"荒川区","province":"東京都","city":"荒川区","address":"荒川区荒川2-2-3","lat":35.73626,"lon":139.78339},{"name":"荒川区子ども家庭総合センター","province":"東京都","city":"荒川区","address":"荒川区荒川1-50-17","lat":35.73388,"lon":139.78474},{"name":"荒川老人福祉センター","province":"東京都","city":"荒川区","address":"荒川区荒川1-34-6","lat":35.73409,"lon":139.78777},{"name":"荒川老人福祉センター","province":"東京都","city":"荒川区","address":"荒川区荒川1-34-6","lat":35.734258,"lon":139.786944},{"name":"ダルクホーム","province":"東京都","city":"荒川区","address":"荒川区東日暮里3-10-6","lat":35.728475,"lon":139.781986},{"name":"荒川区","province":"東京都","city":"荒川区","address":"荒川区荒川2-2-3","lat":35.736083,"lon":139.783373},{"name":"荒川区立荒川老人福祉センター","province":"東京都","city":"荒川区","address":"荒川区荒川1-34-6","lat":35.73409,"lon":139.78777},{"name":"クリスマス・フォレスト","province":"東京都","city":"荒川区","address":"荒川区荒川8-14-10","lat":35.73973,"lon":139.78888},{"name":"ダルクホーム","province":"東京都","city":"荒川区","address":"荒川区東日暮里3-10-6","lat":35.72881,"lon":139.78162},{"name":"荒川区","province":"東京都","city":"荒川区","address":"荒川区荒川2-2-3","lat":35.73626,"lon":139.78339},{"name":"荒川区子ども家庭総合センター","province":"東京都","city":"荒川区","address":"荒川区荒川1-50-17","lat":35.73388,"lon":139.78474},{"name":"荒川老人福祉センター","province":"東京都","city":"荒川区","address":"荒川区荒川1-34-6","lat":35.73409,"lon":139.78777},{"name":"荒川老人福祉センター","province":"東京都","city":"荒川区","address":"荒川区荒川1-34-6","lat":35.734258,"lon":139.786944},{"name":"ダルクホーム","province":"東京都","city":"荒川区","address":"荒川区東日暮里3-10-6","lat":35.728475,"lon":139.781986},{"name":"荒川区","province":"東京都","city":"荒川区","address":"荒川区荒川2-2-3","lat":35.736083,"lon":139.783373},{"name":"荒川区立荒川老人福祉センター","province":"東京都","city":"荒川区","address":"荒川区荒川1-34-6","lat":35.73409,"lon":139.78777},{"name":"クリスマス・フォレスト","province":"東京都","city":"荒川区","address":"荒川区荒川8-14-10","lat":35.73973,"lon":139.78888},{"name":"ダルクホーム","province":"東京都","city":"荒川区","address":"荒川区東日暮里3-10-6","lat":35.72881,"lon":139.78162},{"name":"荒川区","province":"東京都","city":"荒川区","address":"荒川区荒川2-2-3","lat":35.73626,"lon":139.78339},{"name":"荒川区子ども家庭総合センター","province":"東京都","city":"荒川区","address":"荒川区荒川1-50-17","lat":35.73388,"lon":139.78474},{"name":"荒川老人福祉センター","province":"東京都","city":"荒川区","address":"荒川区荒川1-34-6","lat":35.73409,"lon":139.78777},{"name":"荒川老人福祉センター","province":"東京都","city":"荒川区","address":"荒川区荒川1-34-6","lat":35.734258,"lon":139.786944},{"name":"ダルクホーム","province":"東京都","city":"荒川区","address":"荒川区東日暮里3-10-6","lat":35.728475,"lon":139.781986},{"name":"荒川区","province":"東京都","city":"荒川区","address":"荒川区荒川2-2-3","lat":35.736083,"lon":139.783373},{"name":"荒川区立荒川老人福祉センター","province":"東京都","city":"荒川区","address":"荒川区荒川1-34-6","lat":35.73409,"lon":139.78777},{"name":"クリスマス・フォレスト","province":"東京都","city":"荒川区","address":"荒川区荒川8-14-10","lat":35.73973,"lon":139.78888},{"name":"ダルクホーム","province":"東京都","city":"荒川区","address":"荒川区東日暮里3-10-6","lat":35.72881,"lon":139.78162},{"name":"荒川区","province":"東京都","city":"荒川区","address":"荒川区荒川2-2-3","lat":35.73626,"lon":139.78339},{"name":"荒川区子ども家庭総合センター","province":"東京都","city":"荒川区","address":"荒川区荒川1-50-17","lat":35.73388,"lon":139.78474},{"name":"荒川老人福祉センター","province":"東京都","city":"荒川区","address":"荒川区荒川1-34-6","lat":35.73409,"lon":139.78777},{"name":"荒川老人福祉センター","province":"東京都","city":"荒川区","address":"荒川区荒川1-34-6","lat":35.734258,"lon":139.786944},{"name":"ダルクホーム","province":"東京都","city":"荒川区","address":"荒川区東日暮里3-10-6","lat":35.728475,"lon":139.781986},{"name":"荒川区","province":"東京都","city":"荒川区","address":"荒川区荒川2-2-3","lat":35.736083,"lon":139.783373},{"name":"荒川区立荒川老人福祉センター","province":"東京都","city":"荒川区","address":"荒川区荒川1-34-6","lat":35.73409,"lon":139.78777},{"name":"クリスマス・フォレスト","province":"東京都","city":"荒川区","address":"荒川区荒川8-14-10","lat":35.73973,"lon":139.78888},{"name":"ダルクホーム","province":"東京都","city":"荒川区","address":"荒川区東日暮里3-10-6","lat":35.72881,"lon":139.78162},{"name":"荒川区","province":"東京都","city":"荒川区","address":"荒川区荒川2-2-3","lat":35.73626,"lon":139.78339},{"name":"荒川区子ども家庭総合センター","province":"東京都","city":"荒川区","address":"荒川区荒川1-50-17","lat":35.73388,"lon":139.78474},{"name":"荒川老人福祉センター","province":"東京都","city":"荒川区","address":"荒川区荒川1-34-6","lat":35.73409,"lon":139.78777},{"name":"荒川老人福祉センター","province":"東京都","city":"荒川区","address":"荒川区荒川1-34-6","lat":35.734258,"lon":139.786944},{"name":"ダルクホーム","province":"東京都","city":"荒川区","address":"荒川区東日暮里3-10-6","lat":35.728475,"lon":139.781986},{"name":"荒川区","province":"東京都","city":"荒川区","address":"荒川区荒川2-2-3","lat":35.736083,"lon":139.783373},{"name":"荒川区立荒川老人福祉センター","province":"東京都","city":"荒川区","address":"荒川区荒川1-34-6","lat":35.73409,"lon":139.78777},{"name":"クリスマス・フォレスト","province":"東京都","city":"荒川区","address":"荒川区荒川8-14-10","lat":35.73973,"lon":139.78888},{"name":"ダルクホーム","province":"東京都","city":"荒川区","address":"荒川区東日暮里3-10-6","lat":35.72881,"lon":139.78162},{"name":"荒川区","province":"東京都","city":"荒川区","address":"荒川区荒川2-2-3","lat":35.73626,"lon":139.78339},{"name":"荒川区子ども家庭総合センター","province":"東京都","city":"荒川区","address":"荒川区荒川1-50-17","lat":35.73388,"lon":139.78474},{"name":"荒川老人福祉センター","province":"東京都","city":"荒川区","address":"荒川区荒川1-34-6","lat":35.73409,"lon":139.78777},{"name":"荒川老人福祉センター","province":"東京都","city":"荒川区","address":"荒川区荒川1-34-6","lat":35.734258,"lon":139.786944},{"name":"ダルクホーム","province":"東京都","city":"荒川区","address":"荒川区東日暮里3-10-6","lat":35.728475,"lon":139.781986},{"name":"荒川区","province":"東京都","city":"荒川区","address":"荒川区荒川2-2-3","lat":35.736083,"lon":139.783373},{"name":"荒川区立荒川老人福祉センター","province":"東京都","city":"荒川区","address":"荒川区荒川1-34-6","lat":35.73409,"lon":139.78777},{"name":"クリスマス・フォレスト","province":"東京都","city":"荒川区","address":"荒川区荒川8-14-10","lat":35.73973,"lon":139.78888},{"name":"ダルクホーム","province":"東京都","city":"荒川区","address":"荒川区東日暮里3-10-6","lat":35.72881,"lon":139.78162},{"name":"荒川区","province":"東京都","city":"荒川区","address":"荒川区荒川2-2-3","lat":35.73626,"lon":139.78339},{"name":"荒川区子ども家庭総合センター","province":"東京都","city":"荒川区","address":"荒川区荒川1-50-17","lat":35.73388,"lon":139.78474},{"name":"荒川老人福祉センター","province":"東京都","city":"荒川区","address":"荒川区荒川1-34-6","lat":35.73409,"lon":139.78777},{"name":"荒川老人福祉センター","province":"東京都","city":"荒川区","address":"荒川区荒川1-34-6","lat":35.734258,"lon":139.786944},{"name":"ダルクホーム","province":"東京都","city":"荒川区","address":"荒川区東日暮里3-10-6","lat":35.728475,"lon":139.781986},{"name":"荒川区","province":"東京都","city":"荒川区","address":"荒川区荒川2-2-3","lat":35.736083,"lon":139.783373},{"name":"荒川区立荒川老人福祉センター","province":"東京都","city":"荒川区","address":"荒川区荒川1-34-6","lat":35.73409,"lon":139.78777},{"name":"クリスマス・フォレスト","province":"東京都","city":"荒川区","address":"荒川区荒川8-14-10","lat":35.73973,"lon":139.78888},{"name":"ダルクホーム","province":"東京都","city":"荒川区","address":"荒川区東日暮里3-10-6","lat":35.72881,"lon":139.78162},{"name":"荒川区","province":"東京都","city":"荒川区","address":"荒川区荒川2-2-3","lat":35.73626,"lon":139.78339},{"name":"荒川区子ども家庭総合センター","province":"東京都","city":"荒川区","address":"荒川区荒川1-50-17","lat":35.73388,"lon":139.78474},{"name":"荒川老人福祉センター","province":"東京都","city":"荒川区","address":"荒川区荒川1-34-6","lat":35.73409,"lon":139.78777},{"name":"荒川老人福祉センター","province":"東京都","city":"荒川区","address":"荒川区荒川1-34-6","lat":35.734258,"lon":139.786944},{"name":"ダルクホーム","province":"東京都","city":"荒川区","address":"荒川区東日暮里3-10-6","lat":35.728475,"lon":139.781986},{"name":"荒川区","province":"東京都","city":"荒川区","address":"荒川区荒川2-2-3","lat":35.736083,"lon":139.783373},{"name":"荒川区立荒川老人福祉センター","province":"東京都","city":"荒川区","address":"荒川区荒川1-34-6","lat":35.73409,"lon":139.78777},{"name":"クリスマス・フォレスト","province":"東京都","city":"荒川区","address":"荒川区荒川8-14-10","lat":35.73973,"lon":139.78888},{"name":"ダルクホーム","province":"東京都","city":"荒川区","address":"荒川区東日暮里3-10-6","lat":35.72881,"lon":139.78162},{"name":"荒川区","province":"東京都","city":"荒川区","address":"荒川区荒川2-2-3","lat":35.73626,"lon":139.78339},{"name":"荒川区子ども家庭総合センター","province":"東京都","city":"荒川区","address":"荒川区荒川1-50-17","lat":35.73388,"lon":139.78474},{"name":"荒川老人福祉センター","province":"東京都","city":"荒川区","address":"荒川区荒川1-34-6","lat":35.73409,"lon":139.78777},{"name":"荒川老人福祉センター","province":"東京都","city":"荒川区","address":"荒川区荒川1-34-6","lat":35.734258,"lon":139.786944},{"name":"ダルクホーム","province":"東京都","city":"荒川区","address":"荒川区東日暮里3-10-6","lat":35.728475,"lon":139.781986},{"name":"荒川区","province":"東京都","city":"荒川区","address":"荒川区荒川2-2-3","lat":35.736083,"lon":139.783373},{"name":"荒川区立荒川老人福祉センター","province":"東京都","city":"荒川区","address":"荒川区荒川1-34-6","lat":35.73409,"lon":139.78777},{"name":"クリスマス・フォレスト","province":"東京都","city":"荒川区","address":"荒川区荒川8-14-10","lat":35.73973,"lon":139.78888},{"name":"ダルクホーム","province":"東京都","city":"荒川区","address":"荒川区東日暮里3-10-6","lat":35.72881,"lon":139.78162},{"name":"荒川区","province":"東京都","city":"荒川区","address":"荒川区荒川2-2-3","lat":35.73626,"lon":139.78339},{"name":"荒川区子ども家庭総合センター","province":"東京都","city":"荒川区","address":"荒川区荒川1-50-17","lat":35.73388,"lon":139.78474},{"name":"荒川老人福祉センター","province":"東京都","city":"荒川区","address":"荒川区荒川1-34-6","lat":35.73409,"lon":139.78777},{"name":"荒川老人福祉センター","province":"東京都","city":"荒川区","address":"荒川区荒川1-34-6","lat":35.734258,"lon":139.786944},{"name":"ダルクホーム","province":"東京都","city":"荒川区","address":"荒川区東日暮里3-10-6","lat":35.728475,"lon":139.781986},{"name":"荒川区","province":"東京都","city":"荒川区","address":"荒川区荒川2-2-3","lat":35.736083,"lon":139.783373},{"name":"荒川区立荒川老人福祉センター","province":"東京都","city":"荒川区","address":"荒川区荒川1-34-6","lat":35.73409,"lon":139.78777},{"name":"クリスマス・フォレスト","province":"東京都","city":"荒川区","address":"荒川区荒川8-14-10","lat":35.73973,"lon":139.78888},{"name":"ダルクホーム","province":"東京都","city":"荒川区","address":"荒川区東日暮里3-10-6","lat":35.72881,"lon":139.78162},{"name":"荒川区","province":"東京都","city":"荒川区","address":"荒川区荒川2-2-3","lat":35.73626,"lon":139.78339},{"name":"荒川区子ども家庭総合センター","province":"東京都","city":"荒川区","address":"荒川区荒川1-50-17","lat":35.73388,"lon":139.78474},{"name":"荒川老人福祉センター","province":"東京都","city":"荒川区","address":"荒川区荒川1-34-6","lat":35.73409,"lon":139.78777},{"name":"荒川老人福祉センター","province":"東京都","city":"荒川区","address":"荒川区荒川1-34-6","lat":35.734258,"lon":139.786944},{"name":"ダルクホーム","province":"東京都","city":"荒川区","address":"荒川区東日暮里3-10-6","lat":35.728475,"lon":139.781986},{"name":"荒川区","province":"東京都","city":"荒川区","address":"荒川区荒川2-2-3","lat":35.736083,"lon":139.783373},{"name":"荒川区立荒川老人福祉センター","province":"東京都","city":"荒川区","address":"荒川区荒川1-34-6","lat":35.73409,"lon":139.78777},{"name":"クリスマス・フォレスト","province":"東京都","city":"荒川区","address":"荒川区荒川8-14-10","lat":35.73973,"lon":139.78888},{"name":"ダルクホーム","province":"東京都","city":"荒川区","address":"荒川区東日暮里3-10-6","lat":35.72881,"lon":139.78162},{"name":"荒川区","province":"東京都","city":"荒川区","address":"荒川区荒川2-2-3","lat":35.73626,"lon":139.78339},{"name":"荒川区子ども家庭総合センター","province":"東京都","city":"荒川区","address":"荒川区荒川1-50-17","lat":35.73388,"lon":139.78474},{"name":"荒川老人福祉センター","province":"東京都","city":"荒川区","address":"荒川区荒川1-34-6","lat":35.73409,"lon":139.78777},{"name":"荒川老人福祉センター","province":"東京都","city":"荒川区","address":"荒川区荒川1-34-6","lat":35.734258,"lon":139.786944},{"name":"ダルクホーム","province":"東京都","city":"荒川区","address":"荒川区東日暮里3-10-6","lat":35.728475,"lon":139.781986},{"name":"荒川区","province":"東京都","city":"荒川区","address":"荒川区荒川2-2-3","lat":35.736083,"lon":139.783373},{"name":"荒川区立荒川老人福祉センター","province":"東京都","city":"荒川区","address":"荒川区荒川1-34-6","lat":35.73409,"lon":139.78777},{"name":"クリスマス・フォレスト","province":"東京都","city":"荒川区","address":"荒川区荒川8-14-10","lat":35.73973,"lon":139.78888},{"name":"ダルクホーム","province":"東京都","city":"荒川区","address":"荒川区東日暮里3-10-6","lat":35.72881,"lon":139.78162},{"name":"荒川区","province":"東京都","city":"荒川区","address":"荒川区荒川2-2-3","lat":35.73626,"lon":139.78339},{"name":"荒川区子ども家庭総合センター","province":"東京都","city":"荒川区","address":"荒川区荒川1-50-17","lat":35.73388,"lon":139.78474},{"name":"荒川老人福祉センター","province":"東京都","city":"荒川区","address":"荒川区荒川1-34-6","lat":35.73409,"lon":139.78777},{"name":"荒川老人福祉センター","province":"東京都","city":"荒川区","address":"荒川区荒川1-34-6","lat":35.734258,"lon":139.786944},{"name":"ダルクホーム","province":"東京都","city":"荒川区","address":"荒川区東日暮里3-10-6","lat":35.728475,"lon":139.781986},{"name":"荒川区","province":"東京都","city":"荒川区","address":"荒川区荒川2-2-3","lat":35.736083,"lon":139.783373},{"name":"荒川区立荒川老人福祉センター","province":"東京都","city":"荒川区","address":"荒川区荒川1-34-6","lat":35.73409,"lon":139.78777},{"name":"クリスマス・フォレスト","province":"東京都","city":"荒川区","address":"荒川区荒川8-14-10","lat":35.73973,"lon":139.78888},{"name":"ダルクホーム","province":"東京都","city":"荒川区","address":"荒川区東日暮里3-10-6","lat":35.72881,"lon":139.78162},{"name":"荒川区","province":"東京都","city":"荒川区","address":"荒川区荒川2-2-3","lat":35.73626,"lon":139.78339},{"name":"荒川区子ども家庭総合センター","province":"東京都","city":"荒川区","address":"荒川区荒川1-50-17","lat":35.73388,"lon":139.78474},{"name":"荒川老人福祉センター","province":"東京都","city":"荒川区","address":"荒川区荒川1-34-6","lat":35.73409,"lon":139.78777},{"name":"荒川老人福祉センター","province":"東京都","city":"荒川区","address":"荒川区荒川1-34-6","lat":35.734258,"lon":139.786944},{"name":"ダルクホーム","province":"東京都","city":"荒川区","address":"荒川区東日暮里3-10-6","lat":35.728475,"lon":139.781986},{"name":"荒川区","province":"東京都","city":"荒川区","address":"荒川区荒川2-2-3","lat":35.736083,"lon":139.783373},{"name":"荒川区立荒川老人福祉センター","province":"東京都","city":"荒川区","address":"荒川区荒川1-34-6","lat":35.73409,"lon":139.78777},{"name":"クリスマス・フォレスト","province":"東京都","city":"荒川区","address":"荒川区荒川8-14-10","lat":35.73973,"lon":139.78888},{"name":"ダルクホーム","province":"東京都","city":"荒川区","address":"荒川区東日暮里3-10-6","lat":35.72881,"lon":139.78162},{"name":"荒川区","province":"東京都","city":"荒川区","address":"荒川区荒川2-2-3","lat":35.73626,"lon":139.78339},{"name":"荒川区子ども家庭総合センター","province":"東京都","city":"荒川区","address":"荒川区荒川1-50-17","lat":35.73388,"lon":139.78474},{"name":"荒川老人福祉センター","province":"東京都","city":"荒川区","address":"荒川区荒川1-34-6","lat":35.73409,"lon":139.78777},{"name":"荒川老人福祉センター","province":"東京都","city":"荒川区","address":"荒川区荒川1-34-6","lat":35.734258,"lon":139.786944},{"name":"ダルクホーム","province":"東京都","city":"荒川区","address":"荒川区東日暮里3-10-6","lat":35.728475,"lon":139.781986},{"name":"荒川区","province":"東京都","city":"荒川区","address":"荒川区荒川2-2-3","lat":35.736083,"lon":139.783373},{"name":"荒川区立荒川老人福祉センター","province":"東京都","city":"荒川区","address":"荒川区荒川1-34-6","lat":35.73409,"lon":139.78777},{"name":"クリスマス・フォレスト","province":"東京都","city":"荒川区","address":"荒川区荒川8-14-10","lat":35.73973,"lon":139.78888},{"name":"ダルクホーム","province":"東京都","city":"荒川区","address":"荒川区東日暮里3-10-6","lat":35.72881,"lon":139.78162},{"name":"荒川区","province":"東京都","city":"荒川区","address":"荒川区荒川2-2-3","lat":35.73626,"lon":139.78339},{"name":"荒川区子ども家庭総合センター","province":"東京都","city":"荒川区","address":"荒川区荒川1-50-17","lat":35.73388,"lon":139.78474},{"name":"荒川老人福祉センター","province":"東京都","city":"荒川区","address":"荒川区荒川1-34-6","lat":35.73409,"lon":139.78777},{"name":"荒川老人福祉センター","province":"東京都","city":"荒川区","address":"荒川区荒川1-34-6","lat":35.734258,"lon":139.786944},{"name":"ダルクホーム","province":"東京都","city":"荒川区","address":"荒川区東日暮里3-10-6","lat":35.728475,"lon":139.781986},{"name":"荒川区","province":"東京都","city":"荒川区","address":"荒川区荒川2-2-3","lat":35.736083,"lon":139.783373},{"name":"荒川区立荒川老人福祉センター","province":"東京都","city":"荒川区","address":"荒川区荒川1-34-6","lat":35.73409,"lon":139.78777},{"name":"クリスマス・フォレスト","province":"東京都","city":"荒川区","address":"荒川区荒川8-14-10","lat":35.73973,"lon":139.78888},{"name":"ダルクホーム","province":"東京都","city":"荒川区","address":"荒川区東日暮里3-10-6","lat":35.72881,"lon":139.78162},{"name":"荒川区","province":"東京都","city":"荒川区","address":"荒川区荒川2-2-3","lat":35.73626,"lon":139.78339},{"name":"荒川区子ども家庭総合センター","province":"東京都","city":"荒川区","address":"荒川区荒川1-50-17","lat":35.73388,"lon":139.78474},{"name":"荒川老人福祉センター","province":"東京都","city":"荒川区","address":"荒川区荒川1-34-6","lat":35.73409,"lon":139.78777},{"name":"荒川老人福祉センター","province":"東京都","city":"荒川区","address":"荒川区荒川1-34-6","lat":35.734258,"lon":139.786944},{"name":"ダルクホーム","province":"東京都","city":"荒川区","address":"荒川区東日暮里3-10-6","lat":35.728475,"lon":139.781986},{"name":"荒川区","province":"東京都","city":"荒川区","address":"荒川区荒川2-2-3","lat":35.736083,"lon":139.783373},{"name":"荒川区立荒川老人福祉センター","province":"東京都","city":"荒川区","address":"荒川区荒川1-34-6","lat":35.73409,"lon":139.78777},{"name":"クリスマス・フォレスト","province":"東京都","city":"荒川区","address":"荒川区荒川8-14-10","lat":35.73973,"lon":139.78888},{"name":"ダルクホーム","province":"東京都","city":"荒川区","address":"荒川区東日暮里3-10-6","lat":35.72881,"lon":139.78162},{"name":"荒川区","province":"東京都","city":"荒川区","address":"荒川区荒川2-2-3","lat":35.73626,"lon":139.78339},{"name":"荒川区子ども家庭総合センター","province":"東京都","city":"荒川区","address":"荒川区荒川1-50-17","lat":35.73388,"lon":139.78474},{"name":"荒川老人福祉センター","province":"東京都","city":"荒川区","address":"荒川区荒川1-34-6","lat":35.73409,"lon":139.78777},{"name":"荒川老人福祉センター","province":"東京都","city":"荒川区","address":"荒川区荒川1-34-6","lat":35.734258,"lon":139.786944},{"name":"ダルクホーム","province":"東京都","city":"荒川区","address":"荒川区東日暮里3-10-6","lat":35.728475,"lon":139.781986},{"name":"荒川区","province":"東京都","city":"荒川区","address":"荒川区荒川2-2-3","lat":35.736083,"lon":139.783373},{"name":"荒川区立荒川老人福祉センター","province":"東京都","city":"荒川区","address":"荒川区荒川1-34-6","lat":35.73409,"lon":139.78777},{"name":"クリスマス・フォレスト","province":"東京都","city":"荒川区","address":"荒川区荒川8-14-10","lat":35.73973,"lon":139.78888},{"name":"ダルクホーム","province":"東京都","city":"荒川区","address":"荒川区東日暮里3-10-6","lat":35.72881,"lon":139.78162},{"name":"荒川区","province":"東京都","city":"荒川区","address":"荒川区荒川2-2-3","lat":35.73626,"lon":139.78339},{"name":"荒川区子ども家庭総合センター","province":"東京都","city":"荒川区","address":"荒川区荒川1-50-17","lat":35.73388,"lon":139.78474},{"name":"荒川老人福祉センター","province":"東京都","city":"荒川区","address":"荒川区荒川1-34-6","lat":35.73409,"lon":139.78777},{"name":"荒川老人福祉センター","province":"東京都","city":"荒川区","address":"荒川区荒川1-34-6","lat":35.734258,"lon":139.786944},{"name":"ダルクホーム","province":"東京都","city":"荒川区","address":"荒川区東日暮里3-10-6","lat":35.728475,"lon":139.781986},{"name":"荒川区","province":"東京都","city":"荒川区","address":"荒川区荒川2-2-3","lat":35.736083,"lon":139.783373},{"name":"荒川区立荒川老人福祉センター","province":"東京都","city":"荒川区","address":"荒川区荒川1-34-6","lat":35.73409,"lon":139.78777},{"name":"クリスマス・フォレスト","province":"東京都","city":"荒川区","address":"荒川区荒川8-14-10","lat":35.73973,"lon":139.78888},{"name":"ダルクホーム","province":"東京都","city":"荒川区","address":"荒川区東日暮里3-10-6","lat":35.72881,"lon":139.78162},{"name":"荒川区","province":"東京都","city":"荒川区","address":"荒川区荒川2-2-3","lat":35.73626,"lon":139.78339},{"name":"荒川区子ども家庭総合センター","province":"東京都","city":"荒川区","address":"荒川区荒川1-50-17","lat":35.73388,"lon":139.78474},{"name":"荒川老人福祉センター","province":"東京都","city":"荒川区","address":"荒川区荒川1-34-6","lat":35.73409,"lon":139.78777},{"name":"荒川老人福祉センター","province":"東京都","city":"荒川区","address":"荒川区荒川1-34-6","lat":35.734258,"lon":139.786944},{"name":"ダルクホーム","province":"東京都","city":"荒川区","address":"荒川区東日暮里3-10-6","lat":35.728475,"lon":139.781986},{"name":"荒川区","province":"東京都","city":"荒川区","address":"荒川区荒川2-2-3","lat":35.736083,"lon":139.783373},{"name":"荒川区立荒川老人福祉センター","province":"東京都","city":"荒川区","address":"荒川区荒川1-34-6","lat":35.73409,"lon":139.78777},{"name":"クリスマス・フォレスト","province":"東京都","city":"荒川区","address":"荒川区荒川8-14-10","lat":35.73973,"lon":139.78888},{"name":"ダルクホーム","province":"東京都","city":"荒川区","address":"荒川区東日暮里3-10-6","lat":35.72881,"lon":139.78162},{"name":"荒川区","province":"東京都","city":"荒川区","address":"荒川区荒川2-2-3","lat":35.73626,"lon":139.78339},{"name":"荒川区子ども家庭総合センター","province":"東京都","city":"荒川区","address":"荒川区荒川1-50-17","lat":35.73388,"lon":139.78474},{"name":"荒川老人福祉センター","province":"東京都","city":"荒川区","address":"荒川区荒川1-34-6","lat":35.73409,"lon":139.78777},{"name":"荒川老人福祉センター","province":"東京都","city":"荒川区","address":"荒川区荒川1-34-6","lat":35.734258,"lon":139.786944},{"name":"ダルクホーム","province":"東京都","city":"荒川区","address":"荒川区東日暮里3-10-6","lat":35.728475,"lon":139.781986},{"name":"荒川区","province":"東京都","city":"荒川区","address":"荒川区荒川2-2-3","lat":35.736083,"lon":139.783373},{"name":"荒川区立荒川老人福祉センター","province":"東京都","city":"荒川区","address":"荒川区荒川1-34-6","lat":35.73409,"lon":139.78777},{"name":"クリスマス・フォレスト","province":"東京都","city":"荒川区","address":"荒川区荒川8-14-10","lat":35.73973,"lon":139.78888},{"name":"ダルクホーム","province":"東京都","city":"荒川区","address":"荒川区東日暮里3-10-6","lat":35.72881,"lon":139.78162},{"name":"荒川区","province":"東京都","city":"荒川区","address":"荒川区荒川2-2-3","lat":35.73626,"lon":139.78339},{"name":"荒川区子ども家庭総合センター","province":"東京都","city":"荒川区","address":"荒川区荒川1-50-17","lat":35.73388,"lon":139.78474},{"name":"荒川老人福祉センター","province":"東京都","city":"荒川区","address":"荒川区荒川1-34-6","lat":35.73409,"lon":139.78777},{"name":"荒川老人福祉センター","province":"東京都","city":"荒川区","address":"荒川区荒川1-34-6","lat":35.734258,"lon":139.786944},{"name":"ダルクホーム","province":"東京都","city":"荒川区","address":"荒川区東日暮里3-10-6","lat":35.728475,"lon":139.781986},{"name":"荒川区","province":"東京都","city":"荒川区","address":"荒川区荒川2-2-3","lat":35.736083,"lon":139.783373},{"name":"荒川区立荒川老人福祉センター","province":"東京都","city":"荒川区","address":"荒川区荒川1-34-6","lat":35.73409,"lon":139.78777},{"name":"クリスマス・フォレスト","province":"東京都","city":"荒川区","address":"荒川区荒川8-14-10","lat":35.73973,"lon":139.78888},{"name":"ダルクホーム","province":"東京都","city":"荒川区","address":"荒川区東日暮里3-10-6","lat":35.72881,"lon":139.78162},{"name":"荒川区","province":"東京都","city":"荒川区","address":"荒川区荒川2-2-3","lat":35.73626,"lon":139.78339},{"name":"荒川区子ども家庭総合センター","province":"東京都","city":"荒川区","address":"荒川区荒川1-50-17","lat":35.73388,"lon":139.78474},{"name":"荒川老人福祉センター","province":"東京都","city":"荒川区","address":"荒川区荒川1-34-6","lat":35.73409,"lon":139.78777},{"name":"荒川老人福祉センター","province":"東京都","city":"荒川区","address":"荒川区荒川1-34-6","lat":35.734258,"lon":139.786944},{"name":"ダルクホーム","province":"東京都","city":"荒川区","address":"荒川区東日暮里3-10-6","lat":35.728475,"lon":139.781986},{"name":"荒川区","province":"東京都","city":"荒川区","address":"荒川区荒川2-2-3","lat":35.736083,"lon":139.783373},{"name":"荒川区立荒川老人福祉センター","province":"東京都","city":"荒川区","address":"荒川区荒川1-34-6","lat":35.73409,"lon":139.78777},{"name":"クリスマス・フォレスト","province":"東京都","city":"荒川区","address":"荒川区荒川8-14-10","lat":35.73973,"lon":139.78888},{"name":"ダルクホーム","province":"東京都","city":"荒川区","address":"荒川区東日暮里3-10-6","lat":35.72881,"lon":139.78162},{"name":"荒川区","province":"東京都","city":"荒川区","address":"荒川区荒川2-2-3","lat":35.73626,"lon":139.78339},{"name":"荒川区子ども家庭総合センター","province":"東京都","city":"荒川区","address":"荒川区荒川1-50-17","lat":35.73388,"lon":139.78474},{"name":"荒川老人福祉センター","province":"東京都","city":"荒川区","address":"荒川区荒川1-34-6","lat":35.73409,"lon":139.78777},{"name":"荒川老人福祉センター","province":"東京都","city":"荒川区","address":"荒川区荒川1-34-6","lat":35.734258,"lon":139.786944},{"name":"ダルクホーム","province":"東京都","city":"荒川区","address":"荒川区東日暮里3-10-6","lat":35.728475,"lon":139.781986},{"name":"荒川区","province":"東京都","city":"荒川区","address":"荒川区荒川2-2-3","lat":35.736083,"lon":139.783373},{"name":"荒川区立荒川老人福祉センター","province":"東京都","city":"荒川区","address":"荒川区荒川1-34-6","lat":35.73409,"lon":139.78777},{"name":"クリスマス・フォレスト","province":"東京都","city":"荒川区","address":"荒川区荒川8-14-10","lat":35.73973,"lon":139.78888},{"name":"ダルクホーム","province":"東京都","city":"荒川区","address":"荒川区東日暮里3-10-6","lat":35.72881,"lon":139.78162},{"name":"荒川区","province":"東京都","city":"荒川区","address":"荒川区荒川2-2-3","lat":35.73626,"lon":139.78339},{"name":"荒川区子ども家庭総合センター","province":"東京都","city":"荒川区","address":"荒川区荒川1-50-17","lat":35.73388,"lon":139.78474},{"name":"荒川老人福祉センター","province":"東京都","city":"荒川区","address":"荒川区荒川1-34-6","lat":35.73409,"lon":139.78777},{"name":"荒川老人福祉センター","province":"東京都","city":"荒川区","address":"荒川区荒川1-34-6","lat":35.734258,"lon":139.786944},{"name":"ダルクホーム","province":"東京都","city":"荒川区","address":"荒川区東日暮里3-10-6","lat":35.728475,"lon":139.781986},{"name":"荒川区","province":"東京都","city":"荒川区","address":"荒川区荒川2-2-3","lat":35.736083,"lon":139.783373},{"name":"荒川区立荒川老人福祉センター","province":"東京都","city":"荒川区","address":"荒川区荒川1-34-6","lat":35.73409,"lon":139.78777},{"name":"クリスマス・フォレスト","province":"東京都","city":"荒川区","address":"荒川区荒川8-14-10","lat":35.73973,"lon":139.78888},{"name":"ダルクホーム","province":"東京都","city":"荒川区","address":"荒川区東日暮里3-10-6","lat":35.72881,"lon":139.78162},{"name":"荒川区","province":"東京都","city":"荒川区","address":"荒川区荒川2-2-3","lat":35.73626,"lon":139.78339},{"name":"荒川区子ども家庭総合センター","province":"東京都","city":"荒川区","address":"荒川区荒川1-50-17","lat":35.73388,"lon":139.78474},{"name":"荒川老人福祉センター","province":"東京都","city":"荒川区","address":"荒川区荒川1-34-6","lat":35.73409,"lon":139.78777},{"name":"荒川老人福祉センター","province":"東京都","city":"荒川区","address":"荒川区荒川1-34-6","lat":35.734258,"lon":139.786944},{"name":"ダルクホーム","province":"東京都","city":"荒川区","address":"荒川区東日暮里3-10-6","lat":35.728475,"lon":139.781986},{"name":"荒川区","province":"東京都","city":"荒川区","address":"荒川区荒川2-2-3","lat":35.736083,"lon":139.783373}]}