{"keyword":"店","data":[{"name":"公益財団法人鉄道弘済会　義肢装具サポートセンター","province":"東京都","city":"荒川区","address":"荒川区南千住4-3-3","lat":35.732669,"lon":139.799282},{"name":"荒川区立荒川授産場","province":"東京都","city":"荒川区","address":"荒川区東尾久4-32-7","lat":35.744634,"lon":139.766872},{"name":"南千住荘","province":"東京都","city":"荒川区","address":"東京都荒川区","lat":35.73614432,"lon":139.78333641},{"name":"町屋荘","province":"東京都","city":"荒川区","address":"荒川区町屋1-30-2","lat":35.745423,"lon":139.785316},{"name":"さくら荒川ハウス","province":"東京都","city":"荒川区","address":"荒川区荒川2-2-2","lat":35.735114,"lon":139.783759},{"name":"上智クリニック","province":"東京都","city":"荒川区","address":"荒川区町屋4-9-10","lat":35.747231,"lon":139.776805},{"name":"日暮里上宮病院","province":"東京都","city":"荒川区","address":"荒川区東日暮里2-29-8","lat":35.728697,"lon":139.785114},{"name":"荒川区社会福祉協議会","province":"東京都","city":"荒川区","address":"荒川区南千住1-13-20","lat":35.731797,"lon":139.791377},{"name":"町屋荘","province":"東京都","city":"荒川区","address":"荒川区町屋1-30-2","lat":35.74571,"lon":139.78526},{"name":"さくら荒川ハウス","province":"東京都","city":"荒川区","address":"荒川区荒川2-2-2","lat":35.73626,"lon":139.78339},{"name":"株式会社 式典石井商店","province":"東京都","city":"荒川区","address":"東京都荒川区南千住2丁目19-11","lat":35.72993278,"lon":139.79594808},{"name":"有限会社 京当商店","province":"東京都","city":"荒川区","address":"東京都荒川区町屋3丁目30-8","lat":35.7488029,"lon":139.78063221},{"name":"有限会社 松石商店","province":"東京都","city":"荒川区","address":"東京都荒川区東尾久6丁目16-22","lat":35.74888887,"lon":139.77632424},{"name":"有限会社 かねこ葬祭","province":"東京都","city":"荒川区","address":"東京都荒川区西尾久2丁目15-4","lat":35.74794953,"lon":139.762667},{"name":"有限会社 綿貫商店","province":"東京都","city":"荒川区","address":"東京都荒川区東日暮里3丁目46-6","lat":35.72871653,"lon":139.77926694},{"name":"有限会社 稲葉葬祭","province":"東京都","city":"荒川区","address":"東京都荒川区西日暮里6丁目6-10","lat":35.73766813,"lon":139.772181},{"name":"自立援助ホーム陽気遊山","province":"東京都","city":"荒川区","address":"東京都荒川区","lat":35.73614432,"lon":139.78333641},{"name":"公益財団法人鉄道弘済会　義肢装具サポートセンター","province":"東京都","city":"荒川区","address":"荒川区南千住4-3-3","lat":35.7322,"lon":139.7988},{"name":"荒川区立荒川授産場","province":"東京都","city":"荒川区","address":"荒川区東尾久4-32-7","lat":35.74459,"lon":139.76688},{"name":"ふるさと町屋荘","province":"東京都","city":"荒川区","address":"荒川区町屋8-14-11","lat":35.74811,"lon":139.78679},{"name":"荒川区社会福祉協議会","province":"東京都","city":"荒川区","address":"荒川区南千住1-13-20","lat":35.73191,"lon":139.79115},{"name":"荒川区立心身障害者福祉センター（荒川たんぽぽセンター）","province":"東京都","city":"荒川区","address":"東京都荒川区荒川1丁目53-20","lat":35.73304722,"lon":139.78448621},{"name":"公益財団法人鉄道弘済会義肢装具サポートセンター","province":"東京都","city":"荒川区","address":"荒川区南千住4-3-3","lat":35.7322,"lon":139.7988},{"name":"＊?荒川区立生涯学習センター","province":"東京都","city":"荒川区","address":"荒川区荒川3-49-1","lat":35.734873,"lon":139.779837},{"name":"まちや","province":"東京都","city":"荒川区","address":"荒川区町屋4-9-5","lat":35.747117,"lon":139.776586},{"name":"公益財団法人鉄道弘済会　義肢装具サポートセンター","province":"東京都","city":"荒川区","address":"荒川区南千住4-3-3","lat":35.732669,"lon":139.799282},{"name":"荒川区立荒川授産場","province":"東京都","city":"荒川区","address":"荒川区東尾久4-32-7","lat":35.744634,"lon":139.766872},{"name":"南千住荘","province":"東京都","city":"荒川区","address":"東京都荒川区","lat":35.73614432,"lon":139.78333641},{"name":"町屋荘","province":"東京都","city":"荒川区","address":"荒川区町屋1-30-2","lat":35.745423,"lon":139.785316},{"name":"さくら荒川ハウス","province":"東京都","city":"荒川区","address":"荒川区荒川2-2-2","lat":35.735114,"lon":139.783759},{"name":"上智クリニック","province":"東京都","city":"荒川区","address":"荒川区町屋4-9-10","lat":35.747231,"lon":139.776805},{"name":"日暮里上宮病院","province":"東京都","city":"荒川区","address":"荒川区東日暮里2-29-8","lat":35.728697,"lon":139.785114},{"name":"荒川区社会福祉協議会","province":"東京都","city":"荒川区","address":"荒川区南千住1-13-20","lat":35.731797,"lon":139.791377},{"name":"町屋荘","province":"東京都","city":"荒川区","address":"荒川区町屋1-30-2","lat":35.74571,"lon":139.78526},{"name":"さくら荒川ハウス","province":"東京都","city":"荒川区","address":"荒川区荒川2-2-2","lat":35.73626,"lon":139.78339},{"name":"株式会社 式典石井商店","province":"東京都","city":"荒川区","address":"東京都荒川区南千住2丁目19-11","lat":35.72993278,"lon":139.79594808},{"name":"有限会社 京当商店","province":"東京都","city":"荒川区","address":"東京都荒川区町屋3丁目30-8","lat":35.7488029,"lon":139.78063221},{"name":"有限会社 松石商店","province":"東京都","city":"荒川区","address":"東京都荒川区東尾久6丁目16-22","lat":35.74888887,"lon":139.77632424},{"name":"有限会社 かねこ葬祭","province":"東京都","city":"荒川区","address":"東京都荒川区西尾久2丁目15-4","lat":35.74794953,"lon":139.762667},{"name":"有限会社 綿貫商店","province":"東京都","city":"荒川区","address":"東京都荒川区東日暮里3丁目46-6","lat":35.72871653,"lon":139.77926694},{"name":"有限会社 稲葉葬祭","province":"東京都","city":"荒川区","address":"東京都荒川区西日暮里6丁目6-10","lat":35.73766813,"lon":139.772181},{"name":"自立援助ホーム陽気遊山","province":"東京都","city":"荒川区","address":"東京都荒川区","lat":35.73614432,"lon":139.78333641},{"name":"公益財団法人鉄道弘済会　義肢装具サポートセンター","province":"東京都","city":"荒川区","address":"荒川区南千住4-3-3","lat":35.7322,"lon":139.7988},{"name":"荒川区立荒川授産場","province":"東京都","city":"荒川区","address":"荒川区東尾久4-32-7","lat":35.74459,"lon":139.76688},{"name":"ふるさと町屋荘","province":"東京都","city":"荒川区","address":"荒川区町屋8-14-11","lat":35.74811,"lon":139.78679},{"name":"荒川区社会福祉協議会","province":"東京都","city":"荒川区","address":"荒川区南千住1-13-20","lat":35.73191,"lon":139.79115},{"name":"荒川区立心身障害者福祉センター（荒川たんぽぽセンター）","province":"東京都","city":"荒川区","address":"東京都荒川区荒川1丁目53-20","lat":35.73304722,"lon":139.78448621},{"name":"公益財団法人鉄道弘済会義肢装具サポートセンター","province":"東京都","city":"荒川区","address":"荒川区南千住4-3-3","lat":35.7322,"lon":139.7988},{"name":"まちや","province":"東京都","city":"荒川区","address":"荒川区町屋4-9-5","lat":35.747117,"lon":139.776586},{"name":"公益財団法人鉄道弘済会　義肢装具サポートセンター","province":"東京都","city":"荒川区","address":"荒川区南千住4-3-3","lat":35.732669,"lon":139.799282},{"name":"荒川区立荒川授産場","province":"東京都","city":"荒川区","address":"荒川区東尾久4-32-7","lat":35.744634,"lon":139.766872},{"name":"南千住荘","province":"東京都","city":"荒川区","address":"東京都荒川区","lat":35.73614432,"lon":139.78333641},{"name":"町屋荘","province":"東京都","city":"荒川区","address":"荒川区町屋1-30-2","lat":35.745423,"lon":139.785316},{"name":"さくら荒川ハウス","province":"東京都","city":"荒川区","address":"荒川区荒川2-2-2","lat":35.735114,"lon":139.783759},{"name":"上智クリニック","province":"東京都","city":"荒川区","address":"荒川区町屋4-9-10","lat":35.747231,"lon":139.776805},{"name":"日暮里上宮病院","province":"東京都","city":"荒川区","address":"荒川区東日暮里2-29-8","lat":35.728697,"lon":139.785114},{"name":"荒川区社会福祉協議会","province":"東京都","city":"荒川区","address":"荒川区南千住1-13-20","lat":35.731797,"lon":139.791377},{"name":"町屋荘","province":"東京都","city":"荒川区","address":"荒川区町屋1-30-2","lat":35.74571,"lon":139.78526},{"name":"さくら荒川ハウス","province":"東京都","city":"荒川区","address":"荒川区荒川2-2-2","lat":35.73626,"lon":139.78339},{"name":"株式会社 式典石井商店","province":"東京都","city":"荒川区","address":"東京都荒川区南千住2丁目19-11","lat":35.72993278,"lon":139.79594808},{"name":"有限会社 京当商店","province":"東京都","city":"荒川区","address":"東京都荒川区町屋3丁目30-8","lat":35.7488029,"lon":139.78063221},{"name":"有限会社 松石商店","province":"東京都","city":"荒川区","address":"東京都荒川区東尾久6丁目16-22","lat":35.74888887,"lon":139.77632424},{"name":"有限会社 かねこ葬祭","province":"東京都","city":"荒川区","address":"東京都荒川区西尾久2丁目15-4","lat":35.74794953,"lon":139.762667},{"name":"有限会社 綿貫商店","province":"東京都","city":"荒川区","address":"東京都荒川区東日暮里3丁目46-6","lat":35.72871653,"lon":139.77926694},{"name":"有限会社 稲葉葬祭","province":"東京都","city":"荒川区","address":"東京都荒川区西日暮里6丁目6-10","lat":35.73766813,"lon":139.772181},{"name":"自立援助ホーム陽気遊山","province":"東京都","city":"荒川区","address":"東京都荒川区","lat":35.73614432,"lon":139.78333641},{"name":"公益財団法人鉄道弘済会　義肢装具サポートセンター","province":"東京都","city":"荒川区","address":"荒川区南千住4-3-3","lat":35.7322,"lon":139.7988},{"name":"荒川区立荒川授産場","province":"東京都","city":"荒川区","address":"荒川区東尾久4-32-7","lat":35.74459,"lon":139.76688},{"name":"ふるさと町屋荘","province":"東京都","city":"荒川区","address":"荒川区町屋8-14-11","lat":35.74811,"lon":139.78679},{"name":"荒川区社会福祉協議会","province":"東京都","city":"荒川区","address":"荒川区南千住1-13-20","lat":35.73191,"lon":139.79115},{"name":"荒川区立心身障害者福祉センター（荒川たんぽぽセンター）","province":"東京都","city":"荒川区","address":"東京都荒川区荒川1丁目53-20","lat":35.73304722,"lon":139.78448621},{"name":"公益財団法人鉄道弘済会義肢装具サポートセンター","province":"東京都","city":"荒川区","address":"荒川区南千住4-3-3","lat":35.7322,"lon":139.7988},{"name":"まちや","province":"東京都","city":"荒川区","address":"荒川区町屋4-9-5","lat":35.747117,"lon":139.776586},{"name":"公益財団法人鉄道弘済会　義肢装具サポートセンター","province":"東京都","city":"荒川区","address":"荒川区南千住4-3-3","lat":35.732669,"lon":139.799282},{"name":"荒川区立荒川授産場","province":"東京都","city":"荒川区","address":"荒川区東尾久4-32-7","lat":35.744634,"lon":139.766872},{"name":"南千住荘","province":"東京都","city":"荒川区","address":"東京都荒川区","lat":35.73614432,"lon":139.78333641},{"name":"町屋荘","province":"東京都","city":"荒川区","address":"荒川区町屋1-30-2","lat":35.745423,"lon":139.785316},{"name":"さくら荒川ハウス","province":"東京都","city":"荒川区","address":"荒川区荒川2-2-2","lat":35.735114,"lon":139.783759},{"name":"上智クリニック","province":"東京都","city":"荒川区","address":"荒川区町屋4-9-10","lat":35.747231,"lon":139.776805},{"name":"日暮里上宮病院","province":"東京都","city":"荒川区","address":"荒川区東日暮里2-29-8","lat":35.728697,"lon":139.785114},{"name":"荒川区社会福祉協議会","province":"東京都","city":"荒川区","address":"荒川区南千住1-13-20","lat":35.731797,"lon":139.791377},{"name":"町屋荘","province":"東京都","city":"荒川区","address":"荒川区町屋1-30-2","lat":35.74571,"lon":139.78526},{"name":"さくら荒川ハウス","province":"東京都","city":"荒川区","address":"荒川区荒川2-2-2","lat":35.73626,"lon":139.78339},{"name":"株式会社 式典石井商店","province":"東京都","city":"荒川区","address":"東京都荒川区南千住2丁目19-11","lat":35.72993278,"lon":139.79594808},{"name":"有限会社 京当商店","province":"東京都","city":"荒川区","address":"東京都荒川区町屋3丁目30-8","lat":35.7488029,"lon":139.78063221},{"name":"有限会社 松石商店","province":"東京都","city":"荒川区","address":"東京都荒川区東尾久6丁目16-22","lat":35.74888887,"lon":139.77632424},{"name":"有限会社 かねこ葬祭","province":"東京都","city":"荒川区","address":"東京都荒川区西尾久2丁目15-4","lat":35.74794953,"lon":139.762667},{"name":"有限会社 綿貫商店","province":"東京都","city":"荒川区","address":"東京都荒川区東日暮里3丁目46-6","lat":35.72871653,"lon":139.77926694},{"name":"有限会社 稲葉葬祭","province":"東京都","city":"荒川区","address":"東京都荒川区西日暮里6丁目6-10","lat":35.73766813,"lon":139.772181},{"name":"自立援助ホーム陽気遊山","province":"東京都","city":"荒川区","address":"東京都荒川区","lat":35.73614432,"lon":139.78333641},{"name":"公益財団法人鉄道弘済会　義肢装具サポートセンター","province":"東京都","city":"荒川区","address":"荒川区南千住4-3-3","lat":35.7322,"lon":139.7988},{"name":"荒川区立荒川授産場","province":"東京都","city":"荒川区","address":"荒川区東尾久4-32-7","lat":35.74459,"lon":139.76688},{"name":"ふるさと町屋荘","province":"東京都","city":"荒川区","address":"荒川区町屋8-14-11","lat":35.74811,"lon":139.78679},{"name":"荒川区社会福祉協議会","province":"東京都","city":"荒川区","address":"荒川区南千住1-13-20","lat":35.73191,"lon":139.79115},{"name":"荒川区立心身障害者福祉センター（荒川たんぽぽセンター）","province":"東京都","city":"荒川区","address":"東京都荒川区荒川1丁目53-20","lat":35.73304722,"lon":139.78448621},{"name":"公益財団法人鉄道弘済会義肢装具サポートセンター","province":"東京都","city":"荒川区","address":"荒川区南千住4-3-3","lat":35.7322,"lon":139.7988},{"name":"まちや","province":"東京都","city":"荒川区","address":"荒川区町屋4-9-5","lat":35.747117,"lon":139.776586},{"name":"公益財団法人鉄道弘済会　義肢装具サポートセンター","province":"東京都","city":"荒川区","address":"荒川区南千住4-3-3","lat":35.732669,"lon":139.799282},{"name":"荒川区立荒川授産場","province":"東京都","city":"荒川区","address":"荒川区東尾久4-32-7","lat":35.744634,"lon":139.766872},{"name":"南千住荘","province":"東京都","city":"荒川区","address":"東京都荒川区","lat":35.73614432,"lon":139.78333641},{"name":"町屋荘","province":"東京都","city":"荒川区","address":"荒川区町屋1-30-2","lat":35.745423,"lon":139.785316},{"name":"さくら荒川ハウス","province":"東京都","city":"荒川区","address":"荒川区荒川2-2-2","lat":35.735114,"lon":139.783759},{"name":"上智クリニック","province":"東京都","city":"荒川区","address":"荒川区町屋4-9-10","lat":35.747231,"lon":139.776805},{"name":"日暮里上宮病院","province":"東京都","city":"荒川区","address":"荒川区東日暮里2-29-8","lat":35.728697,"lon":139.785114},{"name":"荒川区社会福祉協議会","province":"東京都","city":"荒川区","address":"荒川区南千住1-13-20","lat":35.731797,"lon":139.791377},{"name":"町屋荘","province":"東京都","city":"荒川区","address":"荒川区町屋1-30-2","lat":35.74571,"lon":139.78526},{"name":"さくら荒川ハウス","province":"東京都","city":"荒川区","address":"荒川区荒川2-2-2","lat":35.73626,"lon":139.78339},{"name":"株式会社 式典石井商店","province":"東京都","city":"荒川区","address":"東京都荒川区南千住2丁目19-11","lat":35.72993278,"lon":139.79594808},{"name":"有限会社 京当商店","province":"東京都","city":"荒川区","address":"東京都荒川区町屋3丁目30-8","lat":35.7488029,"lon":139.78063221},{"name":"有限会社 松石商店","province":"東京都","city":"荒川区","address":"東京都荒川区東尾久6丁目16-22","lat":35.74888887,"lon":139.77632424},{"name":"有限会社 かねこ葬祭","province":"東京都","city":"荒川区","address":"東京都荒川区西尾久2丁目15-4","lat":35.74794953,"lon":139.762667},{"name":"有限会社 綿貫商店","province":"東京都","city":"荒川区","address":"東京都荒川区東日暮里3丁目46-6","lat":35.72871653,"lon":139.77926694},{"name":"有限会社 稲葉葬祭","province":"東京都","city":"荒川区","address":"東京都荒川区西日暮里6丁目6-10","lat":35.73766813,"lon":139.772181},{"name":"自立援助ホーム陽気遊山","province":"東京都","city":"荒川区","address":"東京都荒川区","lat":35.73614432,"lon":139.78333641},{"name":"公益財団法人鉄道弘済会　義肢装具サポートセンター","province":"東京都","city":"荒川区","address":"荒川区南千住4-3-3","lat":35.7322,"lon":139.7988},{"name":"荒川区立荒川授産場","province":"東京都","city":"荒川区","address":"荒川区東尾久4-32-7","lat":35.74459,"lon":139.76688},{"name":"ふるさと町屋荘","province":"東京都","city":"荒川区","address":"荒川区町屋8-14-11","lat":35.74811,"lon":139.78679},{"name":"荒川区社会福祉協議会","province":"東京都","city":"荒川区","address":"荒川区南千住1-13-20","lat":35.73191,"lon":139.79115},{"name":"荒川区立心身障害者福祉センター（荒川たんぽぽセンター）","province":"東京都","city":"荒川区","address":"東京都荒川区荒川1丁目53-20","lat":35.73304722,"lon":139.78448621},{"name":"公益財団法人鉄道弘済会義肢装具サポートセンター","province":"東京都","city":"荒川区","address":"荒川区南千住4-3-3","lat":35.7322,"lon":139.7988},{"name":"まちや","province":"東京都","city":"荒川区","address":"荒川区町屋4-9-5","lat":35.747117,"lon":139.776586},{"name":"公益財団法人鉄道弘済会　義肢装具サポートセンター","province":"東京都","city":"荒川区","address":"荒川区南千住4-3-3","lat":35.732669,"lon":139.799282},{"name":"荒川区立荒川授産場","province":"東京都","city":"荒川区","address":"荒川区東尾久4-32-7","lat":35.744634,"lon":139.766872},{"name":"南千住荘","province":"東京都","city":"荒川区","address":"東京都荒川区","lat":35.73614432,"lon":139.78333641},{"name":"町屋荘","province":"東京都","city":"荒川区","address":"荒川区町屋1-30-2","lat":35.745423,"lon":139.785316},{"name":"さくら荒川ハウス","province":"東京都","city":"荒川区","address":"荒川区荒川2-2-2","lat":35.735114,"lon":139.783759},{"name":"上智クリニック","province":"東京都","city":"荒川区","address":"荒川区町屋4-9-10","lat":35.747231,"lon":139.776805},{"name":"日暮里上宮病院","province":"東京都","city":"荒川区","address":"荒川区東日暮里2-29-8","lat":35.728697,"lon":139.785114},{"name":"荒川区社会福祉協議会","province":"東京都","city":"荒川区","address":"荒川区南千住1-13-20","lat":35.731797,"lon":139.791377},{"name":"町屋荘","province":"東京都","city":"荒川区","address":"荒川区町屋1-30-2","lat":35.74571,"lon":139.78526},{"name":"さくら荒川ハウス","province":"東京都","city":"荒川区","address":"荒川区荒川2-2-2","lat":35.73626,"lon":139.78339},{"name":"自立援助ホーム陽気遊山","province":"東京都","city":"荒川区","address":"東京都荒川区","lat":35.73614432,"lon":139.78333641},{"name":"公益財団法人鉄道弘済会　義肢装具サポートセンター","province":"東京都","city":"荒川区","address":"荒川区南千住4-3-3","lat":35.7322,"lon":139.7988},{"name":"荒川区立荒川授産場","province":"東京都","city":"荒川区","address":"荒川区東尾久4-32-7","lat":35.74459,"lon":139.76688},{"name":"ふるさと町屋荘","province":"東京都","city":"荒川区","address":"荒川区町屋8-14-11","lat":35.74811,"lon":139.78679},{"name":"荒川区社会福祉協議会","province":"東京都","city":"荒川区","address":"荒川区南千住1-13-20","lat":35.73191,"lon":139.79115},{"name":"荒川区立心身障害者福祉センター（荒川たんぽぽセンター）","province":"東京都","city":"荒川区","address":"東京都荒川区荒川1丁目53-20","lat":35.73304722,"lon":139.78448621},{"name":"公益財団法人鉄道弘済会義肢装具サポートセンター","province":"東京都","city":"荒川区","address":"荒川区南千住4-3-3","lat":35.7322,"lon":139.7988},{"name":"まちや","province":"東京都","city":"荒川区","address":"荒川区町屋4-9-5","lat":35.747117,"lon":139.776586},{"name":"公益財団法人鉄道弘済会　義肢装具サポートセンター","province":"東京都","city":"荒川区","address":"荒川区南千住4-3-3","lat":35.732669,"lon":139.799282},{"name":"荒川区立荒川授産場","province":"東京都","city":"荒川区","address":"荒川区東尾久4-32-7","lat":35.744634,"lon":139.766872},{"name":"南千住荘","province":"東京都","city":"荒川区","address":"東京都荒川区","lat":35.73614432,"lon":139.78333641},{"name":"町屋荘","province":"東京都","city":"荒川区","address":"荒川区町屋1-30-2","lat":35.745423,"lon":139.785316},{"name":"さくら荒川ハウス","province":"東京都","city":"荒川区","address":"荒川区荒川2-2-2","lat":35.735114,"lon":139.783759},{"name":"上智クリニック","province":"東京都","city":"荒川区","address":"荒川区町屋4-9-10","lat":35.747231,"lon":139.776805},{"name":"日暮里上宮病院","province":"東京都","city":"荒川区","address":"荒川区東日暮里2-29-8","lat":35.728697,"lon":139.785114},{"name":"荒川区社会福祉協議会","province":"東京都","city":"荒川区","address":"荒川区南千住1-13-20","lat":35.731797,"lon":139.791377},{"name":"町屋荘","province":"東京都","city":"荒川区","address":"荒川区町屋1-30-2","lat":35.74571,"lon":139.78526},{"name":"さくら荒川ハウス","province":"東京都","city":"荒川区","address":"荒川区荒川2-2-2","lat":35.73626,"lon":139.78339},{"name":"自立援助ホーム陽気遊山","province":"東京都","city":"荒川区","address":"東京都荒川区","lat":35.73614432,"lon":139.78333641},{"name":"公益財団法人鉄道弘済会　義肢装具サポートセンター","province":"東京都","city":"荒川区","address":"荒川区南千住4-3-3","lat":35.7322,"lon":139.7988},{"name":"荒川区立荒川授産場","province":"東京都","city":"荒川区","address":"荒川区東尾久4-32-7","lat":35.74459,"lon":139.76688},{"name":"ふるさと町屋荘","province":"東京都","city":"荒川区","address":"荒川区町屋8-14-11","lat":35.74811,"lon":139.78679},{"name":"荒川区社会福祉協議会","province":"東京都","city":"荒川区","address":"荒川区南千住1-13-20","lat":35.73191,"lon":139.79115},{"name":"荒川区立心身障害者福祉センター（荒川たんぽぽセンター）","province":"東京都","city":"荒川区","address":"東京都荒川区荒川1丁目53-20","lat":35.73304722,"lon":139.78448621},{"name":"公益財団法人鉄道弘済会義肢装具サポートセンター","province":"東京都","city":"荒川区","address":"荒川区南千住4-3-3","lat":35.7322,"lon":139.7988},{"name":"まちや","province":"東京都","city":"荒川区","address":"荒川区町屋4-9-5","lat":35.747117,"lon":139.776586},{"name":"公益財団法人鉄道弘済会　義肢装具サポートセンター","province":"東京都","city":"荒川区","address":"荒川区南千住4-3-3","lat":35.732669,"lon":139.799282},{"name":"荒川区立荒川授産場","province":"東京都","city":"荒川区","address":"荒川区東尾久4-32-7","lat":35.744634,"lon":139.766872},{"name":"南千住荘","province":"東京都","city":"荒川区","address":"東京都荒川区","lat":35.73614432,"lon":139.78333641},{"name":"町屋荘","province":"東京都","city":"荒川区","address":"荒川区町屋1-30-2","lat":35.745423,"lon":139.785316},{"name":"さくら荒川ハウス","province":"東京都","city":"荒川区","address":"荒川区荒川2-2-2","lat":35.735114,"lon":139.783759},{"name":"上智クリニック","province":"東京都","city":"荒川区","address":"荒川区町屋4-9-10","lat":35.747231,"lon":139.776805},{"name":"日暮里上宮病院","province":"東京都","city":"荒川区","address":"荒川区東日暮里2-29-8","lat":35.728697,"lon":139.785114},{"name":"荒川区社会福祉協議会","province":"東京都","city":"荒川区","address":"荒川区南千住1-13-20","lat":35.731797,"lon":139.791377},{"name":"町屋荘","province":"東京都","city":"荒川区","address":"荒川区町屋1-30-2","lat":35.74571,"lon":139.78526},{"name":"さくら荒川ハウス","province":"東京都","city":"荒川区","address":"荒川区荒川2-2-2","lat":35.73626,"lon":139.78339},{"name":"自立援助ホーム陽気遊山","province":"東京都","city":"荒川区","address":"東京都荒川区","lat":35.73614432,"lon":139.78333641},{"name":"公益財団法人鉄道弘済会　義肢装具サポートセンター","province":"東京都","city":"荒川区","address":"荒川区南千住4-3-3","lat":35.7322,"lon":139.7988},{"name":"荒川区立荒川授産場","province":"東京都","city":"荒川区","address":"荒川区東尾久4-32-7","lat":35.74459,"lon":139.76688},{"name":"ふるさと町屋荘","province":"東京都","city":"荒川区","address":"荒川区町屋8-14-11","lat":35.74811,"lon":139.78679},{"name":"荒川区社会福祉協議会","province":"東京都","city":"荒川区","address":"荒川区南千住1-13-20","lat":35.73191,"lon":139.79115},{"name":"荒川区立心身障害者福祉センター（荒川たんぽぽセンター）","province":"東京都","city":"荒川区","address":"東京都荒川区荒川1丁目53-20","lat":35.73304722,"lon":139.78448621},{"name":"公益財団法人鉄道弘済会義肢装具サポートセンター","province":"東京都","city":"荒川区","address":"荒川区南千住4-3-3","lat":35.7322,"lon":139.7988},{"name":"まちや","province":"東京都","city":"荒川区","address":"荒川区町屋4-9-5","lat":35.747117,"lon":139.776586},{"name":"公益財団法人鉄道弘済会　義肢装具サポートセンター","province":"東京都","city":"荒川区","address":"荒川区南千住4-3-3","lat":35.732669,"lon":139.799282},{"name":"荒川区立荒川授産場","province":"東京都","city":"荒川区","address":"荒川区東尾久4-32-7","lat":35.744634,"lon":139.766872},{"name":"南千住荘","province":"東京都","city":"荒川区","address":"東京都荒川区","lat":35.73614432,"lon":139.78333641},{"name":"町屋荘","province":"東京都","city":"荒川区","address":"荒川区町屋1-30-2","lat":35.745423,"lon":139.785316},{"name":"さくら荒川ハウス","province":"東京都","city":"荒川区","address":"荒川区荒川2-2-2","lat":35.735114,"lon":139.783759},{"name":"上智クリニック","province":"東京都","city":"荒川区","address":"荒川区町屋4-9-10","lat":35.747231,"lon":139.776805},{"name":"日暮里上宮病院","province":"東京都","city":"荒川区","address":"荒川区東日暮里2-29-8","lat":35.728697,"lon":139.785114},{"name":"荒川区社会福祉協議会","province":"東京都","city":"荒川区","address":"荒川区南千住1-13-20","lat":35.731797,"lon":139.791377},{"name":"町屋荘","province":"東京都","city":"荒川区","address":"荒川区町屋1-30-2","lat":35.74571,"lon":139.78526},{"name":"さくら荒川ハウス","province":"東京都","city":"荒川区","address":"荒川区荒川2-2-2","lat":35.73626,"lon":139.78339},{"name":"自立援助ホーム陽気遊山","province":"東京都","city":"荒川区","address":"東京都荒川区","lat":35.73614432,"lon":139.78333641},{"name":"公益財団法人鉄道弘済会　義肢装具サポートセンター","province":"東京都","city":"荒川区","address":"荒川区南千住4-3-3","lat":35.7322,"lon":139.7988},{"name":"荒川区立荒川授産場","province":"東京都","city":"荒川区","address":"荒川区東尾久4-32-7","lat":35.74459,"lon":139.76688},{"name":"ふるさと町屋荘","province":"東京都","city":"荒川区","address":"荒川区町屋8-14-11","lat":35.74811,"lon":139.78679},{"name":"荒川区社会福祉協議会","province":"東京都","city":"荒川区","address":"荒川区南千住1-13-20","lat":35.73191,"lon":139.79115},{"name":"荒川区立心身障害者福祉センター（荒川たんぽぽセンター）","province":"東京都","city":"荒川区","address":"東京都荒川区荒川1丁目53-20","lat":35.73304722,"lon":139.78448621},{"name":"公益財団法人鉄道弘済会義肢装具サポートセンター","province":"東京都","city":"荒川区","address":"荒川区南千住4-3-3","lat":35.7322,"lon":139.7988},{"name":"まちや","province":"東京都","city":"荒川区","address":"荒川区町屋4-9-5","lat":35.747117,"lon":139.776586},{"name":"公益財団法人鉄道弘済会　義肢装具サポートセンター","province":"東京都","city":"荒川区","address":"荒川区南千住4-3-3","lat":35.732669,"lon":139.799282},{"name":"荒川区立荒川授産場","province":"東京都","city":"荒川区","address":"荒川区東尾久4-32-7","lat":35.744634,"lon":139.766872},{"name":"南千住荘","province":"東京都","city":"荒川区","address":"東京都荒川区","lat":35.73614432,"lon":139.78333641},{"name":"町屋荘","province":"東京都","city":"荒川区","address":"荒川区町屋1-30-2","lat":35.745423,"lon":139.785316},{"name":"さくら荒川ハウス","province":"東京都","city":"荒川区","address":"荒川区荒川2-2-2","lat":35.735114,"lon":139.783759},{"name":"上智クリニック","province":"東京都","city":"荒川区","address":"荒川区町屋4-9-10","lat":35.747231,"lon":139.776805},{"name":"日暮里上宮病院","province":"東京都","city":"荒川区","address":"荒川区東日暮里2-29-8","lat":35.728697,"lon":139.785114},{"name":"荒川区社会福祉協議会","province":"東京都","city":"荒川区","address":"荒川区南千住1-13-20","lat":35.731797,"lon":139.791377},{"name":"町屋荘","province":"東京都","city":"荒川区","address":"荒川区町屋1-30-2","lat":35.74571,"lon":139.78526},{"name":"さくら荒川ハウス","province":"東京都","city":"荒川区","address":"荒川区荒川2-2-2","lat":35.73626,"lon":139.78339},{"name":"自立援助ホーム陽気遊山","province":"東京都","city":"荒川区","address":"東京都荒川区","lat":35.73614432,"lon":139.78333641},{"name":"公益財団法人鉄道弘済会　義肢装具サポートセンター","province":"東京都","city":"荒川区","address":"荒川区南千住4-3-3","lat":35.7322,"lon":139.7988},{"name":"荒川区立荒川授産場","province":"東京都","city":"荒川区","address":"荒川区東尾久4-32-7","lat":35.74459,"lon":139.76688},{"name":"ふるさと町屋荘","province":"東京都","city":"荒川区","address":"荒川区町屋8-14-11","lat":35.74811,"lon":139.78679},{"name":"荒川区社会福祉協議会","province":"東京都","city":"荒川区","address":"荒川区南千住1-13-20","lat":35.73191,"lon":139.79115},{"name":"荒川区立心身障害者福祉センター（荒川たんぽぽセンター）","province":"東京都","city":"荒川区","address":"東京都荒川区荒川1丁目53-20","lat":35.73304722,"lon":139.78448621},{"name":"公益財団法人鉄道弘済会義肢装具サポートセンター","province":"東京都","city":"荒川区","address":"荒川区南千住4-3-3","lat":35.7322,"lon":139.7988},{"name":"まちや","province":"東京都","city":"荒川区","address":"荒川区町屋4-9-5","lat":35.747117,"lon":139.776586},{"name":"公益財団法人鉄道弘済会　義肢装具サポートセンター","province":"東京都","city":"荒川区","address":"荒川区南千住4-3-3","lat":35.732669,"lon":139.799282},{"name":"荒川区立荒川授産場","province":"東京都","city":"荒川区","address":"荒川区東尾久4-32-7","lat":35.744634,"lon":139.766872},{"name":"南千住荘","province":"東京都","city":"荒川区","address":"東京都荒川区","lat":35.73614432,"lon":139.78333641},{"name":"町屋荘","province":"東京都","city":"荒川区","address":"荒川区町屋1-30-2","lat":35.745423,"lon":139.785316},{"name":"さくら荒川ハウス","province":"東京都","city":"荒川区","address":"荒川区荒川2-2-2","lat":35.735114,"lon":139.783759},{"name":"上智クリニック","province":"東京都","city":"荒川区","address":"荒川区町屋4-9-10","lat":35.747231,"lon":139.776805},{"name":"日暮里上宮病院","province":"東京都","city":"荒川区","address":"荒川区東日暮里2-29-8","lat":35.728697,"lon":139.785114},{"name":"荒川区社会福祉協議会","province":"東京都","city":"荒川区","address":"荒川区南千住1-13-20","lat":35.731797,"lon":139.791377},{"name":"町屋荘","province":"東京都","city":"荒川区","address":"荒川区町屋1-30-2","lat":35.74571,"lon":139.78526},{"name":"さくら荒川ハウス","province":"東京都","city":"荒川区","address":"荒川区荒川2-2-2","lat":35.73626,"lon":139.78339},{"name":"自立援助ホーム陽気遊山","province":"東京都","city":"荒川区","address":"東京都荒川区","lat":35.73614432,"lon":139.78333641},{"name":"公益財団法人鉄道弘済会　義肢装具サポートセンター","province":"東京都","city":"荒川区","address":"荒川区南千住4-3-3","lat":35.7322,"lon":139.7988},{"name":"荒川区立荒川授産場","province":"東京都","city":"荒川区","address":"荒川区東尾久4-32-7","lat":35.74459,"lon":139.76688},{"name":"ふるさと町屋荘","province":"東京都","city":"荒川区","address":"荒川区町屋8-14-11","lat":35.74811,"lon":139.78679},{"name":"荒川区社会福祉協議会","province":"東京都","city":"荒川区","address":"荒川区南千住1-13-20","lat":35.73191,"lon":139.79115},{"name":"荒川区立心身障害者福祉センター（荒川たんぽぽセンター）","province":"東京都","city":"荒川区","address":"東京都荒川区荒川1丁目53-20","lat":35.73304722,"lon":139.78448621},{"name":"公益財団法人鉄道弘済会義肢装具サポートセンター","province":"東京都","city":"荒川区","address":"荒川区南千住4-3-3","lat":35.7322,"lon":139.7988},{"name":"まちや","province":"東京都","city":"荒川区","address":"荒川区町屋4-9-5","lat":35.747117,"lon":139.776586},{"name":"公益財団法人鉄道弘済会　義肢装具サポートセンター","province":"東京都","city":"荒川区","address":"荒川区南千住4-3-3","lat":35.732669,"lon":139.799282},{"name":"荒川区立荒川授産場","province":"東京都","city":"荒川区","address":"荒川区東尾久4-32-7","lat":35.744634,"lon":139.766872},{"name":"南千住荘","province":"東京都","city":"荒川区","address":"東京都荒川区","lat":35.73614432,"lon":139.78333641},{"name":"町屋荘","province":"東京都","city":"荒川区","address":"荒川区町屋1-30-2","lat":35.745423,"lon":139.785316},{"name":"さくら荒川ハウス","province":"東京都","city":"荒川区","address":"荒川区荒川2-2-2","lat":35.735114,"lon":139.783759},{"name":"上智クリニック","province":"東京都","city":"荒川区","address":"荒川区町屋4-9-10","lat":35.747231,"lon":139.776805},{"name":"日暮里上宮病院","province":"東京都","city":"荒川区","address":"荒川区東日暮里2-29-8","lat":35.728697,"lon":139.785114},{"name":"荒川区社会福祉協議会","province":"東京都","city":"荒川区","address":"荒川区南千住1-13-20","lat":35.731797,"lon":139.791377},{"name":"町屋荘","province":"東京都","city":"荒川区","address":"荒川区町屋1-30-2","lat":35.74571,"lon":139.78526},{"name":"さくら荒川ハウス","province":"東京都","city":"荒川区","address":"荒川区荒川2-2-2","lat":35.73626,"lon":139.78339},{"name":"自立援助ホーム陽気遊山","province":"東京都","city":"荒川区","address":"東京都荒川区","lat":35.73614432,"lon":139.78333641},{"name":"公益財団法人鉄道弘済会　義肢装具サポートセンター","province":"東京都","city":"荒川区","address":"荒川区南千住4-3-3","lat":35.7322,"lon":139.7988},{"name":"荒川区立荒川授産場","province":"東京都","city":"荒川区","address":"荒川区東尾久4-32-7","lat":35.74459,"lon":139.76688},{"name":"ふるさと町屋荘","province":"東京都","city":"荒川区","address":"荒川区町屋8-14-11","lat":35.74811,"lon":139.78679},{"name":"荒川区社会福祉協議会","province":"東京都","city":"荒川区","address":"荒川区南千住1-13-20","lat":35.73191,"lon":139.79115},{"name":"荒川区立心身障害者福祉センター（荒川たんぽぽセンター）","province":"東京都","city":"荒川区","address":"東京都荒川区荒川1丁目53-20","lat":35.73304722,"lon":139.78448621},{"name":"公益財団法人鉄道弘済会義肢装具サポートセンター","province":"東京都","city":"荒川区","address":"荒川区南千住4-3-3","lat":35.7322,"lon":139.7988},{"name":"まちや","province":"東京都","city":"荒川区","address":"荒川区町屋4-9-5","lat":35.747117,"lon":139.776586},{"name":"公益財団法人鉄道弘済会　義肢装具サポートセンター","province":"東京都","city":"荒川区","address":"荒川区南千住4-3-3","lat":35.732669,"lon":139.799282},{"name":"荒川区立荒川授産場","province":"東京都","city":"荒川区","address":"荒川区東尾久4-32-7","lat":35.744634,"lon":139.766872},{"name":"南千住荘","province":"東京都","city":"荒川区","address":"東京都荒川区","lat":35.73614432,"lon":139.78333641},{"name":"町屋荘","province":"東京都","city":"荒川区","address":"荒川区町屋1-30-2","lat":35.745423,"lon":139.785316},{"name":"さくら荒川ハウス","province":"東京都","city":"荒川区","address":"荒川区荒川2-2-2","lat":35.735114,"lon":139.783759},{"name":"上智クリニック","province":"東京都","city":"荒川区","address":"荒川区町屋4-9-10","lat":35.747231,"lon":139.776805},{"name":"日暮里上宮病院","province":"東京都","city":"荒川区","address":"荒川区東日暮里2-29-8","lat":35.728697,"lon":139.785114},{"name":"荒川区社会福祉協議会","province":"東京都","city":"荒川区","address":"荒川区南千住1-13-20","lat":35.731797,"lon":139.791377},{"name":"町屋荘","province":"東京都","city":"荒川区","address":"荒川区町屋1-30-2","lat":35.74571,"lon":139.78526},{"name":"さくら荒川ハウス","province":"東京都","city":"荒川区","address":"荒川区荒川2-2-2","lat":35.73626,"lon":139.78339},{"name":"自立援助ホーム陽気遊山","province":"東京都","city":"荒川区","address":"東京都荒川区","lat":35.73614432,"lon":139.78333641},{"name":"公益財団法人鉄道弘済会　義肢装具サポートセンター","province":"東京都","city":"荒川区","address":"荒川区南千住4-3-3","lat":35.7322,"lon":139.7988},{"name":"荒川区立荒川授産場","province":"東京都","city":"荒川区","address":"荒川区東尾久4-32-7","lat":35.74459,"lon":139.76688},{"name":"ふるさと町屋荘","province":"東京都","city":"荒川区","address":"荒川区町屋8-14-11","lat":35.74811,"lon":139.78679},{"name":"荒川区社会福祉協議会","province":"東京都","city":"荒川区","address":"荒川区南千住1-13-20","lat":35.73191,"lon":139.79115},{"name":"荒川区立心身障害者福祉センター（荒川たんぽぽセンター）","province":"東京都","city":"荒川区","address":"東京都荒川区荒川1丁目53-20","lat":35.73304722,"lon":139.78448621},{"name":"公益財団法人鉄道弘済会義肢装具サポートセンター","province":"東京都","city":"荒川区","address":"荒川区南千住4-3-3","lat":35.7322,"lon":139.7988},{"name":"まちや","province":"東京都","city":"荒川区","address":"荒川区町屋4-9-5","lat":35.747117,"lon":139.776586},{"name":"公益財団法人鉄道弘済会　義肢装具サポートセンター","province":"東京都","city":"荒川区","address":"荒川区南千住4-3-3","lat":35.732669,"lon":139.799282},{"name":"荒川区立荒川授産場","province":"東京都","city":"荒川区","address":"荒川区東尾久4-32-7","lat":35.744634,"lon":139.766872},{"name":"南千住荘","province":"東京都","city":"荒川区","address":"東京都荒川区","lat":35.73614432,"lon":139.78333641},{"name":"町屋荘","province":"東京都","city":"荒川区","address":"荒川区町屋1-30-2","lat":35.745423,"lon":139.785316},{"name":"さくら荒川ハウス","province":"東京都","city":"荒川区","address":"荒川区荒川2-2-2","lat":35.735114,"lon":139.783759},{"name":"上智クリニック","province":"東京都","city":"荒川区","address":"荒川区町屋4-9-10","lat":35.747231,"lon":139.776805},{"name":"日暮里上宮病院","province":"東京都","city":"荒川区","address":"荒川区東日暮里2-29-8","lat":35.728697,"lon":139.785114},{"name":"荒川区社会福祉協議会","province":"東京都","city":"荒川区","address":"荒川区南千住1-13-20","lat":35.731797,"lon":139.791377},{"name":"町屋荘","province":"東京都","city":"荒川区","address":"荒川区町屋1-30-2","lat":35.74571,"lon":139.78526},{"name":"さくら荒川ハウス","province":"東京都","city":"荒川区","address":"荒川区荒川2-2-2","lat":35.73626,"lon":139.78339},{"name":"自立援助ホーム陽気遊山","province":"東京都","city":"荒川区","address":"東京都荒川区","lat":35.73614432,"lon":139.78333641},{"name":"公益財団法人鉄道弘済会　義肢装具サポートセンター","province":"東京都","city":"荒川区","address":"荒川区南千住4-3-3","lat":35.7322,"lon":139.7988},{"name":"荒川区立荒川授産場","province":"東京都","city":"荒川区","address":"荒川区東尾久4-32-7","lat":35.74459,"lon":139.76688},{"name":"ふるさと町屋荘","province":"東京都","city":"荒川区","address":"荒川区町屋8-14-11","lat":35.74811,"lon":139.78679},{"name":"荒川区社会福祉協議会","province":"東京都","city":"荒川区","address":"荒川区南千住1-13-20","lat":35.73191,"lon":139.79115},{"name":"荒川区立心身障害者福祉センター（荒川たんぽぽセンター）","province":"東京都","city":"荒川区","address":"東京都荒川区荒川1丁目53-20","lat":35.73304722,"lon":139.78448621},{"name":"公益財団法人鉄道弘済会義肢装具サポートセンター","province":"東京都","city":"荒川区","address":"荒川区南千住4-3-3","lat":35.7322,"lon":139.7988},{"name":"まちや","province":"東京都","city":"荒川区","address":"荒川区町屋4-9-5","lat":35.747117,"lon":139.776586},{"name":"公益財団法人鉄道弘済会　義肢装具サポートセンター","province":"東京都","city":"荒川区","address":"荒川区南千住4-3-3","lat":35.732669,"lon":139.799282},{"name":"荒川区立荒川授産場","province":"東京都","city":"荒川区","address":"荒川区東尾久4-32-7","lat":35.744634,"lon":139.766872},{"name":"南千住荘","province":"東京都","city":"荒川区","address":"東京都荒川区","lat":35.73614432,"lon":139.78333641},{"name":"町屋荘","province":"東京都","city":"荒川区","address":"荒川区町屋1-30-2","lat":35.745423,"lon":139.785316},{"name":"さくら荒川ハウス","province":"東京都","city":"荒川区","address":"荒川区荒川2-2-2","lat":35.735114,"lon":139.783759},{"name":"上智クリニック","province":"東京都","city":"荒川区","address":"荒川区町屋4-9-10","lat":35.747231,"lon":139.776805},{"name":"日暮里上宮病院","province":"東京都","city":"荒川区","address":"荒川区東日暮里2-29-8","lat":35.728697,"lon":139.785114},{"name":"荒川区社会福祉協議会","province":"東京都","city":"荒川区","address":"荒川区南千住1-13-20","lat":35.731797,"lon":139.791377},{"name":"町屋荘","province":"東京都","city":"荒川区","address":"荒川区町屋1-30-2","lat":35.74571,"lon":139.78526},{"name":"さくら荒川ハウス","province":"東京都","city":"荒川区","address":"荒川区荒川2-2-2","lat":35.73626,"lon":139.78339},{"name":"自立援助ホーム陽気遊山","province":"東京都","city":"荒川区","address":"東京都荒川区","lat":35.73614432,"lon":139.78333641},{"name":"公益財団法人鉄道弘済会　義肢装具サポートセンター","province":"東京都","city":"荒川区","address":"荒川区南千住4-3-3","lat":35.7322,"lon":139.7988},{"name":"荒川区立荒川授産場","province":"東京都","city":"荒川区","address":"荒川区東尾久4-32-7","lat":35.74459,"lon":139.76688},{"name":"ふるさと町屋荘","province":"東京都","city":"荒川区","address":"荒川区町屋8-14-11","lat":35.74811,"lon":139.78679},{"name":"荒川区社会福祉協議会","province":"東京都","city":"荒川区","address":"荒川区南千住1-13-20","lat":35.73191,"lon":139.79115},{"name":"荒川区立心身障害者福祉センター（荒川たんぽぽセンター）","province":"東京都","city":"荒川区","address":"東京都荒川区荒川1丁目53-20","lat":35.73304722,"lon":139.78448621},{"name":"公益財団法人鉄道弘済会義肢装具サポートセンター","province":"東京都","city":"荒川区","address":"荒川区南千住4-3-3","lat":35.7322,"lon":139.7988},{"name":"まちや","province":"東京都","city":"荒川区","address":"荒川区町屋4-9-5","lat":35.747117,"lon":139.776586},{"name":"公益財団法人鉄道弘済会　義肢装具サポートセンター","province":"東京都","city":"荒川区","address":"荒川区南千住4-3-3","lat":35.732669,"lon":139.799282},{"name":"荒川区立荒川授産場","province":"東京都","city":"荒川区","address":"荒川区東尾久4-32-7","lat":35.744634,"lon":139.766872},{"name":"南千住荘","province":"東京都","city":"荒川区","address":"東京都荒川区","lat":35.73614432,"lon":139.78333641},{"name":"町屋荘","province":"東京都","city":"荒川区","address":"荒川区町屋1-30-2","lat":35.745423,"lon":139.785316},{"name":"さくら荒川ハウス","province":"東京都","city":"荒川区","address":"荒川区荒川2-2-2","lat":35.735114,"lon":139.783759},{"name":"上智クリニック","province":"東京都","city":"荒川区","address":"荒川区町屋4-9-10","lat":35.747231,"lon":139.776805},{"name":"日暮里上宮病院","province":"東京都","city":"荒川区","address":"荒川区東日暮里2-29-8","lat":35.728697,"lon":139.785114},{"name":"荒川区社会福祉協議会","province":"東京都","city":"荒川区","address":"荒川区南千住1-13-20","lat":35.731797,"lon":139.791377},{"name":"町屋荘","province":"東京都","city":"荒川区","address":"荒川区町屋1-30-2","lat":35.74571,"lon":139.78526},{"name":"さくら荒川ハウス","province":"東京都","city":"荒川区","address":"荒川区荒川2-2-2","lat":35.73626,"lon":139.78339},{"name":"自立援助ホーム陽気遊山","province":"東京都","city":"荒川区","address":"東京都荒川区","lat":35.73614432,"lon":139.78333641},{"name":"公益財団法人鉄道弘済会　義肢装具サポートセンター","province":"東京都","city":"荒川区","address":"荒川区南千住4-3-3","lat":35.7322,"lon":139.7988},{"name":"荒川区立荒川授産場","province":"東京都","city":"荒川区","address":"荒川区東尾久4-32-7","lat":35.74459,"lon":139.76688},{"name":"ふるさと町屋荘","province":"東京都","city":"荒川区","address":"荒川区町屋8-14-11","lat":35.74811,"lon":139.78679},{"name":"荒川区社会福祉協議会","province":"東京都","city":"荒川区","address":"荒川区南千住1-13-20","lat":35.73191,"lon":139.79115},{"name":"荒川区立心身障害者福祉センター（荒川たんぽぽセンター）","province":"東京都","city":"荒川区","address":"東京都荒川区荒川1丁目53-20","lat":35.73304722,"lon":139.78448621},{"name":"公益財団法人鉄道弘済会義肢装具サポートセンター","province":"東京都","city":"荒川区","address":"荒川区南千住4-3-3","lat":35.7322,"lon":139.7988},{"name":"まちや","province":"東京都","city":"荒川区","address":"荒川区町屋4-9-5","lat":35.747117,"lon":139.776586},{"name":"公益財団法人鉄道弘済会　義肢装具サポートセンター","province":"東京都","city":"荒川区","address":"荒川区南千住4-3-3","lat":35.732669,"lon":139.799282},{"name":"荒川区立荒川授産場","province":"東京都","city":"荒川区","address":"荒川区東尾久4-32-7","lat":35.744634,"lon":139.766872},{"name":"南千住荘","province":"東京都","city":"荒川区","address":"東京都荒川区","lat":35.73614432,"lon":139.78333641},{"name":"町屋荘","province":"東京都","city":"荒川区","address":"荒川区町屋1-30-2","lat":35.745423,"lon":139.785316},{"name":"さくら荒川ハウス","province":"東京都","city":"荒川区","address":"荒川区荒川2-2-2","lat":35.735114,"lon":139.783759},{"name":"上智クリニック","province":"東京都","city":"荒川区","address":"荒川区町屋4-9-10","lat":35.747231,"lon":139.776805},{"name":"日暮里上宮病院","province":"東京都","city":"荒川区","address":"荒川区東日暮里2-29-8","lat":35.728697,"lon":139.785114},{"name":"荒川区社会福祉協議会","province":"東京都","city":"荒川区","address":"荒川区南千住1-13-20","lat":35.731797,"lon":139.791377},{"name":"町屋荘","province":"東京都","city":"荒川区","address":"荒川区町屋1-30-2","lat":35.74571,"lon":139.78526},{"name":"さくら荒川ハウス","province":"東京都","city":"荒川区","address":"荒川区荒川2-2-2","lat":35.73626,"lon":139.78339},{"name":"自立援助ホーム陽気遊山","province":"東京都","city":"荒川区","address":"東京都荒川区","lat":35.73614432,"lon":139.78333641},{"name":"公益財団法人鉄道弘済会　義肢装具サポートセンター","province":"東京都","city":"荒川区","address":"荒川区南千住4-3-3","lat":35.7322,"lon":139.7988},{"name":"荒川区立荒川授産場","province":"東京都","city":"荒川区","address":"荒川区東尾久4-32-7","lat":35.74459,"lon":139.76688},{"name":"ふるさと町屋荘","province":"東京都","city":"荒川区","address":"荒川区町屋8-14-11","lat":35.74811,"lon":139.78679},{"name":"荒川区社会福祉協議会","province":"東京都","city":"荒川区","address":"荒川区南千住1-13-20","lat":35.73191,"lon":139.79115},{"name":"荒川区立心身障害者福祉センター（荒川たんぽぽセンター）","province":"東京都","city":"荒川区","address":"東京都荒川区荒川1丁目53-20","lat":35.73304722,"lon":139.78448621},{"name":"公益財団法人鉄道弘済会義肢装具サポートセンター","province":"東京都","city":"荒川区","address":"荒川区南千住4-3-3","lat":35.7322,"lon":139.7988},{"name":"まちや","province":"東京都","city":"荒川区","address":"荒川区町屋4-9-5","lat":35.747117,"lon":139.776586},{"name":"公益財団法人鉄道弘済会　義肢装具サポートセンター","province":"東京都","city":"荒川区","address":"荒川区南千住4-3-3","lat":35.732669,"lon":139.799282},{"name":"荒川区立荒川授産場","province":"東京都","city":"荒川区","address":"荒川区東尾久4-32-7","lat":35.744634,"lon":139.766872},{"name":"南千住荘","province":"東京都","city":"荒川区","address":"東京都荒川区","lat":35.73614432,"lon":139.78333641},{"name":"町屋荘","province":"東京都","city":"荒川区","address":"荒川区町屋1-30-2","lat":35.745423,"lon":139.785316},{"name":"さくら荒川ハウス","province":"東京都","city":"荒川区","address":"荒川区荒川2-2-2","lat":35.735114,"lon":139.783759},{"name":"上智クリニック","province":"東京都","city":"荒川区","address":"荒川区町屋4-9-10","lat":35.747231,"lon":139.776805},{"name":"日暮里上宮病院","province":"東京都","city":"荒川区","address":"荒川区東日暮里2-29-8","lat":35.728697,"lon":139.785114},{"name":"荒川区社会福祉協議会","province":"東京都","city":"荒川区","address":"荒川区南千住1-13-20","lat":35.731797,"lon":139.791377},{"name":"町屋荘","province":"東京都","city":"荒川区","address":"荒川区町屋1-30-2","lat":35.74571,"lon":139.78526},{"name":"さくら荒川ハウス","province":"東京都","city":"荒川区","address":"荒川区荒川2-2-2","lat":35.73626,"lon":139.78339},{"name":"自立援助ホーム陽気遊山","province":"東京都","city":"荒川区","address":"東京都荒川区","lat":35.73614432,"lon":139.78333641},{"name":"公益財団法人鉄道弘済会　義肢装具サポートセンター","province":"東京都","city":"荒川区","address":"荒川区南千住4-3-3","lat":35.7322,"lon":139.7988},{"name":"荒川区立荒川授産場","province":"東京都","city":"荒川区","address":"荒川区東尾久4-32-7","lat":35.74459,"lon":139.76688},{"name":"ふるさと町屋荘","province":"東京都","city":"荒川区","address":"荒川区町屋8-14-11","lat":35.74811,"lon":139.78679},{"name":"荒川区社会福祉協議会","province":"東京都","city":"荒川区","address":"荒川区南千住1-13-20","lat":35.73191,"lon":139.79115},{"name":"荒川区立心身障害者福祉センター（荒川たんぽぽセンター）","province":"東京都","city":"荒川区","address":"東京都荒川区荒川1丁目53-20","lat":35.73304722,"lon":139.78448621},{"name":"公益財団法人鉄道弘済会義肢装具サポートセンター","province":"東京都","city":"荒川区","address":"荒川区南千住4-3-3","lat":35.7322,"lon":139.7988},{"name":"まちや","province":"東京都","city":"荒川区","address":"荒川区町屋4-9-5","lat":35.747117,"lon":139.776586},{"name":"公益財団法人鉄道弘済会　義肢装具サポートセンター","province":"東京都","city":"荒川区","address":"荒川区南千住4-3-3","lat":35.732669,"lon":139.799282},{"name":"荒川区立荒川授産場","province":"東京都","city":"荒川区","address":"荒川区東尾久4-32-7","lat":35.744634,"lon":139.766872},{"name":"南千住荘","province":"東京都","city":"荒川区","address":"東京都荒川区","lat":35.73614432,"lon":139.78333641},{"name":"町屋荘","province":"東京都","city":"荒川区","address":"荒川区町屋1-30-2","lat":35.745423,"lon":139.785316},{"name":"さくら荒川ハウス","province":"東京都","city":"荒川区","address":"荒川区荒川2-2-2","lat":35.735114,"lon":139.783759},{"name":"上智クリニック","province":"東京都","city":"荒川区","address":"荒川区町屋4-9-10","lat":35.747231,"lon":139.776805},{"name":"日暮里上宮病院","province":"東京都","city":"荒川区","address":"荒川区東日暮里2-29-8","lat":35.728697,"lon":139.785114},{"name":"荒川区社会福祉協議会","province":"東京都","city":"荒川区","address":"荒川区南千住1-13-20","lat":35.731797,"lon":139.791377},{"name":"町屋荘","province":"東京都","city":"荒川区","address":"荒川区町屋1-30-2","lat":35.74571,"lon":139.78526},{"name":"さくら荒川ハウス","province":"東京都","city":"荒川区","address":"荒川区荒川2-2-2","lat":35.73626,"lon":139.78339},{"name":"自立援助ホーム陽気遊山","province":"東京都","city":"荒川区","address":"東京都荒川区","lat":35.73614432,"lon":139.78333641},{"name":"公益財団法人鉄道弘済会　義肢装具サポートセンター","province":"東京都","city":"荒川区","address":"荒川区南千住4-3-3","lat":35.7322,"lon":139.7988},{"name":"荒川区立荒川授産場","province":"東京都","city":"荒川区","address":"荒川区東尾久4-32-7","lat":35.74459,"lon":139.76688},{"name":"ふるさと町屋荘","province":"東京都","city":"荒川区","address":"荒川区町屋8-14-11","lat":35.74811,"lon":139.78679},{"name":"荒川区社会福祉協議会","province":"東京都","city":"荒川区","address":"荒川区南千住1-13-20","lat":35.73191,"lon":139.79115},{"name":"荒川区立心身障害者福祉センター（荒川たんぽぽセンター）","province":"東京都","city":"荒川区","address":"東京都荒川区荒川1丁目53-20","lat":35.73304722,"lon":139.78448621},{"name":"公益財団法人鉄道弘済会義肢装具サポートセンター","province":"東京都","city":"荒川区","address":"荒川区南千住4-3-3","lat":35.7322,"lon":139.7988},{"name":"まちや","province":"東京都","city":"荒川区","address":"荒川区町屋4-9-5","lat":35.747117,"lon":139.776586},{"name":"公益財団法人鉄道弘済会　義肢装具サポートセンター","province":"東京都","city":"荒川区","address":"荒川区南千住4-3-3","lat":35.732669,"lon":139.799282},{"name":"荒川区立荒川授産場","province":"東京都","city":"荒川区","address":"荒川区東尾久4-32-7","lat":35.744634,"lon":139.766872},{"name":"南千住荘","province":"東京都","city":"荒川区","address":"東京都荒川区","lat":35.73614432,"lon":139.78333641},{"name":"町屋荘","province":"東京都","city":"荒川区","address":"荒川区町屋1-30-2","lat":35.745423,"lon":139.785316},{"name":"さくら荒川ハウス","province":"東京都","city":"荒川区","address":"荒川区荒川2-2-2","lat":35.735114,"lon":139.783759},{"name":"上智クリニック","province":"東京都","city":"荒川区","address":"荒川区町屋4-9-10","lat":35.747231,"lon":139.776805},{"name":"日暮里上宮病院","province":"東京都","city":"荒川区","address":"荒川区東日暮里2-29-8","lat":35.728697,"lon":139.785114},{"name":"荒川区社会福祉協議会","province":"東京都","city":"荒川区","address":"荒川区南千住1-13-20","lat":35.731797,"lon":139.791377},{"name":"町屋荘","province":"東京都","city":"荒川区","address":"荒川区町屋1-30-2","lat":35.74571,"lon":139.78526},{"name":"さくら荒川ハウス","province":"東京都","city":"荒川区","address":"荒川区荒川2-2-2","lat":35.73626,"lon":139.78339},{"name":"自立援助ホーム陽気遊山","province":"東京都","city":"荒川区","address":"東京都荒川区","lat":35.73614432,"lon":139.78333641},{"name":"公益財団法人鉄道弘済会　義肢装具サポートセンター","province":"東京都","city":"荒川区","address":"荒川区南千住4-3-3","lat":35.7322,"lon":139.7988},{"name":"荒川区立荒川授産場","province":"東京都","city":"荒川区","address":"荒川区東尾久4-32-7","lat":35.74459,"lon":139.76688},{"name":"ふるさと町屋荘","province":"東京都","city":"荒川区","address":"荒川区町屋8-14-11","lat":35.74811,"lon":139.78679},{"name":"荒川区社会福祉協議会","province":"東京都","city":"荒川区","address":"荒川区南千住1-13-20","lat":35.73191,"lon":139.79115},{"name":"荒川区立心身障害者福祉センター（荒川たんぽぽセンター）","province":"東京都","city":"荒川区","address":"東京都荒川区荒川1丁目53-20","lat":35.73304722,"lon":139.78448621},{"name":"公益財団法人鉄道弘済会義肢装具サポートセンター","province":"東京都","city":"荒川区","address":"荒川区南千住4-3-3","lat":35.7322,"lon":139.7988},{"name":"まちや","province":"東京都","city":"荒川区","address":"荒川区町屋4-9-5","lat":35.747117,"lon":139.776586},{"name":"公益財団法人鉄道弘済会　義肢装具サポートセンター","province":"東京都","city":"荒川区","address":"荒川区南千住4-3-3","lat":35.732669,"lon":139.799282},{"name":"荒川区立荒川授産場","province":"東京都","city":"荒川区","address":"荒川区東尾久4-32-7","lat":35.744634,"lon":139.766872},{"name":"南千住荘","province":"東京都","city":"荒川区","address":"東京都荒川区","lat":35.73614432,"lon":139.78333641},{"name":"町屋荘","province":"東京都","city":"荒川区","address":"荒川区町屋1-30-2","lat":35.745423,"lon":139.785316},{"name":"さくら荒川ハウス","province":"東京都","city":"荒川区","address":"荒川区荒川2-2-2","lat":35.735114,"lon":139.783759},{"name":"上智クリニック","province":"東京都","city":"荒川区","address":"荒川区町屋4-9-10","lat":35.747231,"lon":139.776805},{"name":"日暮里上宮病院","province":"東京都","city":"荒川区","address":"荒川区東日暮里2-29-8","lat":35.728697,"lon":139.785114},{"name":"荒川区社会福祉協議会","province":"東京都","city":"荒川区","address":"荒川区南千住1-13-20","lat":35.731797,"lon":139.791377},{"name":"町屋荘","province":"東京都","city":"荒川区","address":"荒川区町屋1-30-2","lat":35.74571,"lon":139.78526},{"name":"さくら荒川ハウス","province":"東京都","city":"荒川区","address":"荒川区荒川2-2-2","lat":35.73626,"lon":139.78339},{"name":"自立援助ホーム陽気遊山","province":"東京都","city":"荒川区","address":"東京都荒川区","lat":35.73614432,"lon":139.78333641},{"name":"公益財団法人鉄道弘済会　義肢装具サポートセンター","province":"東京都","city":"荒川区","address":"荒川区南千住4-3-3","lat":35.7322,"lon":139.7988},{"name":"荒川区立荒川授産場","province":"東京都","city":"荒川区","address":"荒川区東尾久4-32-7","lat":35.74459,"lon":139.76688},{"name":"ふるさと町屋荘","province":"東京都","city":"荒川区","address":"荒川区町屋8-14-11","lat":35.74811,"lon":139.78679},{"name":"荒川区社会福祉協議会","province":"東京都","city":"荒川区","address":"荒川区南千住1-13-20","lat":35.73191,"lon":139.79115},{"name":"荒川区立心身障害者福祉センター（荒川たんぽぽセンター）","province":"東京都","city":"荒川区","address":"東京都荒川区荒川1丁目53-20","lat":35.73304722,"lon":139.78448621},{"name":"公益財団法人鉄道弘済会義肢装具サポートセンター","province":"東京都","city":"荒川区","address":"荒川区南千住4-3-3","lat":35.7322,"lon":139.7988},{"name":"まちや","province":"東京都","city":"荒川区","address":"荒川区町屋4-9-5","lat":35.747117,"lon":139.776586},{"name":"公益財団法人鉄道弘済会　義肢装具サポートセンター","province":"東京都","city":"荒川区","address":"荒川区南千住4-3-3","lat":35.732669,"lon":139.799282},{"name":"荒川区立荒川授産場","province":"東京都","city":"荒川区","address":"荒川区東尾久4-32-7","lat":35.744634,"lon":139.766872},{"name":"南千住荘","province":"東京都","city":"荒川区","address":"東京都荒川区","lat":35.73614432,"lon":139.78333641},{"name":"町屋荘","province":"東京都","city":"荒川区","address":"荒川区町屋1-30-2","lat":35.745423,"lon":139.785316},{"name":"さくら荒川ハウス","province":"東京都","city":"荒川区","address":"荒川区荒川2-2-2","lat":35.735114,"lon":139.783759},{"name":"上智クリニック","province":"東京都","city":"荒川区","address":"荒川区町屋4-9-10","lat":35.747231,"lon":139.776805},{"name":"日暮里上宮病院","province":"東京都","city":"荒川区","address":"荒川区東日暮里2-29-8","lat":35.728697,"lon":139.785114},{"name":"荒川区社会福祉協議会","province":"東京都","city":"荒川区","address":"荒川区南千住1-13-20","lat":35.731797,"lon":139.791377},{"name":"町屋荘","province":"東京都","city":"荒川区","address":"荒川区町屋1-30-2","lat":35.74571,"lon":139.78526},{"name":"さくら荒川ハウス","province":"東京都","city":"荒川区","address":"荒川区荒川2-2-2","lat":35.73626,"lon":139.78339},{"name":"自立援助ホーム陽気遊山","province":"東京都","city":"荒川区","address":"東京都荒川区","lat":35.73614432,"lon":139.78333641},{"name":"公益財団法人鉄道弘済会　義肢装具サポートセンター","province":"東京都","city":"荒川区","address":"荒川区南千住4-3-3","lat":35.7322,"lon":139.7988},{"name":"荒川区立荒川授産場","province":"東京都","city":"荒川区","address":"荒川区東尾久4-32-7","lat":35.74459,"lon":139.76688},{"name":"ふるさと町屋荘","province":"東京都","city":"荒川区","address":"荒川区町屋8-14-11","lat":35.74811,"lon":139.78679},{"name":"荒川区社会福祉協議会","province":"東京都","city":"荒川区","address":"荒川区南千住1-13-20","lat":35.73191,"lon":139.79115},{"name":"荒川区立心身障害者福祉センター（荒川たんぽぽセンター）","province":"東京都","city":"荒川区","address":"東京都荒川区荒川1丁目53-20","lat":35.73304722,"lon":139.78448621},{"name":"公益財団法人鉄道弘済会義肢装具サポートセンター","province":"東京都","city":"荒川区","address":"荒川区南千住4-3-3","lat":35.7322,"lon":139.7988},{"name":"まちや","province":"東京都","city":"荒川区","address":"荒川区町屋4-9-5","lat":35.747117,"lon":139.776586},{"name":"公益財団法人鉄道弘済会　義肢装具サポートセンター","province":"東京都","city":"荒川区","address":"荒川区南千住4-3-3","lat":35.732669,"lon":139.799282},{"name":"荒川区立荒川授産場","province":"東京都","city":"荒川区","address":"荒川区東尾久4-32-7","lat":35.744634,"lon":139.766872},{"name":"南千住荘","province":"東京都","city":"荒川区","address":"東京都荒川区","lat":35.73614432,"lon":139.78333641},{"name":"町屋荘","province":"東京都","city":"荒川区","address":"荒川区町屋1-30-2","lat":35.745423,"lon":139.785316},{"name":"さくら荒川ハウス","province":"東京都","city":"荒川区","address":"荒川区荒川2-2-2","lat":35.735114,"lon":139.783759},{"name":"上智クリニック","province":"東京都","city":"荒川区","address":"荒川区町屋4-9-10","lat":35.747231,"lon":139.776805},{"name":"日暮里上宮病院","province":"東京都","city":"荒川区","address":"荒川区東日暮里2-29-8","lat":35.728697,"lon":139.785114},{"name":"荒川区社会福祉協議会","province":"東京都","city":"荒川区","address":"荒川区南千住1-13-20","lat":35.731797,"lon":139.791377},{"name":"町屋荘","province":"東京都","city":"荒川区","address":"荒川区町屋1-30-2","lat":35.74571,"lon":139.78526},{"name":"さくら荒川ハウス","province":"東京都","city":"荒川区","address":"荒川区荒川2-2-2","lat":35.73626,"lon":139.78339},{"name":"自立援助ホーム陽気遊山","province":"東京都","city":"荒川区","address":"東京都荒川区","lat":35.73614432,"lon":139.78333641},{"name":"公益財団法人鉄道弘済会　義肢装具サポートセンター","province":"東京都","city":"荒川区","address":"荒川区南千住4-3-3","lat":35.7322,"lon":139.7988},{"name":"荒川区立荒川授産場","province":"東京都","city":"荒川区","address":"荒川区東尾久4-32-7","lat":35.74459,"lon":139.76688},{"name":"ふるさと町屋荘","province":"東京都","city":"荒川区","address":"荒川区町屋8-14-11","lat":35.74811,"lon":139.78679},{"name":"荒川区社会福祉協議会","province":"東京都","city":"荒川区","address":"荒川区南千住1-13-20","lat":35.73191,"lon":139.79115},{"name":"荒川区立心身障害者福祉センター（荒川たんぽぽセンター）","province":"東京都","city":"荒川区","address":"東京都荒川区荒川1丁目53-20","lat":35.73304722,"lon":139.78448621},{"name":"公益財団法人鉄道弘済会義肢装具サポートセンター","province":"東京都","city":"荒川区","address":"荒川区南千住4-3-3","lat":35.7322,"lon":139.7988},{"name":"まちや","province":"東京都","city":"荒川区","address":"荒川区町屋4-9-5","lat":35.747117,"lon":139.776586},{"name":"公益財団法人鉄道弘済会　義肢装具サポートセンター","province":"東京都","city":"荒川区","address":"荒川区南千住4-3-3","lat":35.732669,"lon":139.799282},{"name":"荒川区立荒川授産場","province":"東京都","city":"荒川区","address":"荒川区東尾久4-32-7","lat":35.744634,"lon":139.766872},{"name":"南千住荘","province":"東京都","city":"荒川区","address":"東京都荒川区","lat":35.73614432,"lon":139.78333641},{"name":"町屋荘","province":"東京都","city":"荒川区","address":"荒川区町屋1-30-2","lat":35.745423,"lon":139.785316},{"name":"さくら荒川ハウス","province":"東京都","city":"荒川区","address":"荒川区荒川2-2-2","lat":35.735114,"lon":139.783759},{"name":"上智クリニック","province":"東京都","city":"荒川区","address":"荒川区町屋4-9-10","lat":35.747231,"lon":139.776805},{"name":"日暮里上宮病院","province":"東京都","city":"荒川区","address":"荒川区東日暮里2-29-8","lat":35.728697,"lon":139.785114},{"name":"荒川区社会福祉協議会","province":"東京都","city":"荒川区","address":"荒川区南千住1-13-20","lat":35.731797,"lon":139.791377},{"name":"町屋荘","province":"東京都","city":"荒川区","address":"荒川区町屋1-30-2","lat":35.74571,"lon":139.78526},{"name":"さくら荒川ハウス","province":"東京都","city":"荒川区","address":"荒川区荒川2-2-2","lat":35.73626,"lon":139.78339},{"name":"自立援助ホーム陽気遊山","province":"東京都","city":"荒川区","address":"東京都荒川区","lat":35.73614432,"lon":139.78333641},{"name":"公益財団法人鉄道弘済会　義肢装具サポートセンター","province":"東京都","city":"荒川区","address":"荒川区南千住4-3-3","lat":35.7322,"lon":139.7988},{"name":"荒川区立荒川授産場","province":"東京都","city":"荒川区","address":"荒川区東尾久4-32-7","lat":35.74459,"lon":139.76688},{"name":"ふるさと町屋荘","province":"東京都","city":"荒川区","address":"荒川区町屋8-14-11","lat":35.74811,"lon":139.78679},{"name":"荒川区社会福祉協議会","province":"東京都","city":"荒川区","address":"荒川区南千住1-13-20","lat":35.73191,"lon":139.79115},{"name":"荒川区立心身障害者福祉センター（荒川たんぽぽセンター）","province":"東京都","city":"荒川区","address":"東京都荒川区荒川1丁目53-20","lat":35.73304722,"lon":139.78448621},{"name":"公益財団法人鉄道弘済会義肢装具サポートセンター","province":"東京都","city":"荒川区","address":"荒川区南千住4-3-3","lat":35.7322,"lon":139.7988},{"name":"まちや","province":"東京都","city":"荒川区","address":"荒川区町屋4-9-5","lat":35.747117,"lon":139.776586},{"name":"公益財団法人鉄道弘済会　義肢装具サポートセンター","province":"東京都","city":"荒川区","address":"荒川区南千住4-3-3","lat":35.732669,"lon":139.799282},{"name":"荒川区立荒川授産場","province":"東京都","city":"荒川区","address":"荒川区東尾久4-32-7","lat":35.744634,"lon":139.766872},{"name":"南千住荘","province":"東京都","city":"荒川区","address":"東京都荒川区","lat":35.73614432,"lon":139.78333641},{"name":"町屋荘","province":"東京都","city":"荒川区","address":"荒川区町屋1-30-2","lat":35.745423,"lon":139.785316},{"name":"さくら荒川ハウス","province":"東京都","city":"荒川区","address":"荒川区荒川2-2-2","lat":35.735114,"lon":139.783759},{"name":"上智クリニック","province":"東京都","city":"荒川区","address":"荒川区町屋4-9-10","lat":35.747231,"lon":139.776805},{"name":"日暮里上宮病院","province":"東京都","city":"荒川区","address":"荒川区東日暮里2-29-8","lat":35.728697,"lon":139.785114},{"name":"荒川区社会福祉協議会","province":"東京都","city":"荒川区","address":"荒川区南千住1-13-20","lat":35.731797,"lon":139.791377},{"name":"町屋荘","province":"東京都","city":"荒川区","address":"荒川区町屋1-30-2","lat":35.74571,"lon":139.78526},{"name":"さくら荒川ハウス","province":"東京都","city":"荒川区","address":"荒川区荒川2-2-2","lat":35.73626,"lon":139.78339},{"name":"自立援助ホーム陽気遊山","province":"東京都","city":"荒川区","address":"東京都荒川区","lat":35.73614432,"lon":139.78333641},{"name":"公益財団法人鉄道弘済会　義肢装具サポートセンター","province":"東京都","city":"荒川区","address":"荒川区南千住4-3-3","lat":35.7322,"lon":139.7988},{"name":"荒川区立荒川授産場","province":"東京都","city":"荒川区","address":"荒川区東尾久4-32-7","lat":35.74459,"lon":139.76688},{"name":"ふるさと町屋荘","province":"東京都","city":"荒川区","address":"荒川区町屋8-14-11","lat":35.74811,"lon":139.78679},{"name":"荒川区社会福祉協議会","province":"東京都","city":"荒川区","address":"荒川区南千住1-13-20","lat":35.73191,"lon":139.79115},{"name":"荒川区立心身障害者福祉センター（荒川たんぽぽセンター）","province":"東京都","city":"荒川区","address":"東京都荒川区荒川1丁目53-20","lat":35.73304722,"lon":139.78448621},{"name":"公益財団法人鉄道弘済会義肢装具サポートセンター","province":"東京都","city":"荒川区","address":"荒川区南千住4-3-3","lat":35.7322,"lon":139.7988},{"name":"まちや","province":"東京都","city":"荒川区","address":"荒川区町屋4-9-5","lat":35.747117,"lon":139.776586},{"name":"公益財団法人鉄道弘済会　義肢装具サポートセンター","province":"東京都","city":"荒川区","address":"荒川区南千住4-3-3","lat":35.732669,"lon":139.799282},{"name":"荒川区立荒川授産場","province":"東京都","city":"荒川区","address":"荒川区東尾久4-32-7","lat":35.744634,"lon":139.766872},{"name":"南千住荘","province":"東京都","city":"荒川区","address":"東京都荒川区","lat":35.73614432,"lon":139.78333641},{"name":"町屋荘","province":"東京都","city":"荒川区","address":"荒川区町屋1-30-2","lat":35.745423,"lon":139.785316},{"name":"さくら荒川ハウス","province":"東京都","city":"荒川区","address":"荒川区荒川2-2-2","lat":35.735114,"lon":139.783759},{"name":"上智クリニック","province":"東京都","city":"荒川区","address":"荒川区町屋4-9-10","lat":35.747231,"lon":139.776805},{"name":"日暮里上宮病院","province":"東京都","city":"荒川区","address":"荒川区東日暮里2-29-8","lat":35.728697,"lon":139.785114},{"name":"荒川区社会福祉協議会","province":"東京都","city":"荒川区","address":"荒川区南千住1-13-20","lat":35.731797,"lon":139.791377},{"name":"町屋荘","province":"東京都","city":"荒川区","address":"荒川区町屋1-30-2","lat":35.74571,"lon":139.78526},{"name":"さくら荒川ハウス","province":"東京都","city":"荒川区","address":"荒川区荒川2-2-2","lat":35.73626,"lon":139.78339},{"name":"自立援助ホーム陽気遊山","province":"東京都","city":"荒川区","address":"東京都荒川区","lat":35.73614432,"lon":139.78333641},{"name":"公益財団法人鉄道弘済会　義肢装具サポートセンター","province":"東京都","city":"荒川区","address":"荒川区南千住4-3-3","lat":35.7322,"lon":139.7988},{"name":"荒川区立荒川授産場","province":"東京都","city":"荒川区","address":"荒川区東尾久4-32-7","lat":35.74459,"lon":139.76688},{"name":"ふるさと町屋荘","province":"東京都","city":"荒川区","address":"荒川区町屋8-14-11","lat":35.74811,"lon":139.78679},{"name":"荒川区社会福祉協議会","province":"東京都","city":"荒川区","address":"荒川区南千住1-13-20","lat":35.73191,"lon":139.79115},{"name":"荒川区立心身障害者福祉センター（荒川たんぽぽセンター）","province":"東京都","city":"荒川区","address":"東京都荒川区荒川1丁目53-20","lat":35.73304722,"lon":139.78448621},{"name":"公益財団法人鉄道弘済会義肢装具サポートセンター","province":"東京都","city":"荒川区","address":"荒川区南千住4-3-3","lat":35.7322,"lon":139.7988},{"name":"まちや","province":"東京都","city":"荒川区","address":"荒川区町屋4-9-5","lat":35.747117,"lon":139.776586},{"name":"公益財団法人鉄道弘済会　義肢装具サポートセンター","province":"東京都","city":"荒川区","address":"荒川区南千住4-3-3","lat":35.732669,"lon":139.799282},{"name":"荒川区立荒川授産場","province":"東京都","city":"荒川区","address":"荒川区東尾久4-32-7","lat":35.744634,"lon":139.766872},{"name":"南千住荘","province":"東京都","city":"荒川区","address":"東京都荒川区","lat":35.73614432,"lon":139.78333641},{"name":"町屋荘","province":"東京都","city":"荒川区","address":"荒川区町屋1-30-2","lat":35.745423,"lon":139.785316},{"name":"さくら荒川ハウス","province":"東京都","city":"荒川区","address":"荒川区荒川2-2-2","lat":35.735114,"lon":139.783759},{"name":"上智クリニック","province":"東京都","city":"荒川区","address":"荒川区町屋4-9-10","lat":35.747231,"lon":139.776805},{"name":"日暮里上宮病院","province":"東京都","city":"荒川区","address":"荒川区東日暮里2-29-8","lat":35.728697,"lon":139.785114},{"name":"荒川区社会福祉協議会","province":"東京都","city":"荒川区","address":"荒川区南千住1-13-20","lat":35.731797,"lon":139.791377},{"name":"町屋荘","province":"東京都","city":"荒川区","address":"荒川区町屋1-30-2","lat":35.74571,"lon":139.78526},{"name":"さくら荒川ハウス","province":"東京都","city":"荒川区","address":"荒川区荒川2-2-2","lat":35.73626,"lon":139.78339},{"name":"自立援助ホーム陽気遊山","province":"東京都","city":"荒川区","address":"東京都荒川区","lat":35.73614432,"lon":139.78333641},{"name":"公益財団法人鉄道弘済会　義肢装具サポートセンター","province":"東京都","city":"荒川区","address":"荒川区南千住4-3-3","lat":35.7322,"lon":139.7988},{"name":"荒川区立荒川授産場","province":"東京都","city":"荒川区","address":"荒川区東尾久4-32-7","lat":35.74459,"lon":139.76688},{"name":"ふるさと町屋荘","province":"東京都","city":"荒川区","address":"荒川区町屋8-14-11","lat":35.74811,"lon":139.78679},{"name":"荒川区社会福祉協議会","province":"東京都","city":"荒川区","address":"荒川区南千住1-13-20","lat":35.73191,"lon":139.79115},{"name":"荒川区立心身障害者福祉センター（荒川たんぽぽセンター）","province":"東京都","city":"荒川区","address":"東京都荒川区荒川1丁目53-20","lat":35.73304722,"lon":139.78448621},{"name":"公益財団法人鉄道弘済会義肢装具サポートセンター","province":"東京都","city":"荒川区","address":"荒川区南千住4-3-3","lat":35.7322,"lon":139.7988},{"name":"まちや","province":"東京都","city":"荒川区","address":"荒川区町屋4-9-5","lat":35.747117,"lon":139.776586},{"name":"公益財団法人鉄道弘済会　義肢装具サポートセンター","province":"東京都","city":"荒川区","address":"荒川区南千住4-3-3","lat":35.732669,"lon":139.799282},{"name":"荒川区立荒川授産場","province":"東京都","city":"荒川区","address":"荒川区東尾久4-32-7","lat":35.744634,"lon":139.766872},{"name":"南千住荘","province":"東京都","city":"荒川区","address":"東京都荒川区","lat":35.73614432,"lon":139.78333641},{"name":"町屋荘","province":"東京都","city":"荒川区","address":"荒川区町屋1-30-2","lat":35.745423,"lon":139.785316},{"name":"さくら荒川ハウス","province":"東京都","city":"荒川区","address":"荒川区荒川2-2-2","lat":35.735114,"lon":139.783759},{"name":"上智クリニック","province":"東京都","city":"荒川区","address":"荒川区町屋4-9-10","lat":35.747231,"lon":139.776805},{"name":"日暮里上宮病院","province":"東京都","city":"荒川区","address":"荒川区東日暮里2-29-8","lat":35.728697,"lon":139.785114},{"name":"荒川区社会福祉協議会","province":"東京都","city":"荒川区","address":"荒川区南千住1-13-20","lat":35.731797,"lon":139.791377},{"name":"町屋荘","province":"東京都","city":"荒川区","address":"荒川区町屋1-30-2","lat":35.74571,"lon":139.78526},{"name":"さくら荒川ハウス","province":"東京都","city":"荒川区","address":"荒川区荒川2-2-2","lat":35.73626,"lon":139.78339},{"name":"自立援助ホーム陽気遊山","province":"東京都","city":"荒川区","address":"東京都荒川区","lat":35.73614432,"lon":139.78333641},{"name":"公益財団法人鉄道弘済会　義肢装具サポートセンター","province":"東京都","city":"荒川区","address":"荒川区南千住4-3-3","lat":35.7322,"lon":139.7988},{"name":"荒川区立荒川授産場","province":"東京都","city":"荒川区","address":"荒川区東尾久4-32-7","lat":35.74459,"lon":139.76688},{"name":"ふるさと町屋荘","province":"東京都","city":"荒川区","address":"荒川区町屋8-14-11","lat":35.74811,"lon":139.78679},{"name":"荒川区社会福祉協議会","province":"東京都","city":"荒川区","address":"荒川区南千住1-13-20","lat":35.73191,"lon":139.79115},{"name":"荒川区立心身障害者福祉センター（荒川たんぽぽセンター）","province":"東京都","city":"荒川区","address":"東京都荒川区荒川1丁目53-20","lat":35.73304722,"lon":139.78448621},{"name":"公益財団法人鉄道弘済会義肢装具サポートセンター","province":"東京都","city":"荒川区","address":"荒川区南千住4-3-3","lat":35.7322,"lon":139.7988},{"name":"まちや","province":"東京都","city":"荒川区","address":"荒川区町屋4-9-5","lat":35.747117,"lon":139.776586},{"name":"公益財団法人鉄道弘済会　義肢装具サポートセンター","province":"東京都","city":"荒川区","address":"荒川区南千住4-3-3","lat":35.732669,"lon":139.799282},{"name":"荒川区立荒川授産場","province":"東京都","city":"荒川区","address":"荒川区東尾久4-32-7","lat":35.744634,"lon":139.766872},{"name":"南千住荘","province":"東京都","city":"荒川区","address":"東京都荒川区","lat":35.73614432,"lon":139.78333641},{"name":"町屋荘","province":"東京都","city":"荒川区","address":"荒川区町屋1-30-2","lat":35.745423,"lon":139.785316},{"name":"さくら荒川ハウス","province":"東京都","city":"荒川区","address":"荒川区荒川2-2-2","lat":35.735114,"lon":139.783759},{"name":"上智クリニック","province":"東京都","city":"荒川区","address":"荒川区町屋4-9-10","lat":35.747231,"lon":139.776805},{"name":"日暮里上宮病院","province":"東京都","city":"荒川区","address":"荒川区東日暮里2-29-8","lat":35.728697,"lon":139.785114},{"name":"荒川区社会福祉協議会","province":"東京都","city":"荒川区","address":"荒川区南千住1-13-20","lat":35.731797,"lon":139.791377},{"name":"町屋荘","province":"東京都","city":"荒川区","address":"荒川区町屋1-30-2","lat":35.74571,"lon":139.78526},{"name":"さくら荒川ハウス","province":"東京都","city":"荒川区","address":"荒川区荒川2-2-2","lat":35.73626,"lon":139.78339},{"name":"自立援助ホーム陽気遊山","province":"東京都","city":"荒川区","address":"東京都荒川区","lat":35.73614432,"lon":139.78333641},{"name":"公益財団法人鉄道弘済会　義肢装具サポートセンター","province":"東京都","city":"荒川区","address":"荒川区南千住4-3-3","lat":35.7322,"lon":139.7988},{"name":"荒川区立荒川授産場","province":"東京都","city":"荒川区","address":"荒川区東尾久4-32-7","lat":35.74459,"lon":139.76688},{"name":"ふるさと町屋荘","province":"東京都","city":"荒川区","address":"荒川区町屋8-14-11","lat":35.74811,"lon":139.78679},{"name":"荒川区社会福祉協議会","province":"東京都","city":"荒川区","address":"荒川区南千住1-13-20","lat":35.73191,"lon":139.79115},{"name":"公益財団法人鉄道弘済会義肢装具サポートセンター","province":"東京都","city":"荒川区","address":"荒川区南千住4-3-3","lat":35.7322,"lon":139.7988},{"name":"まちや","province":"東京都","city":"荒川区","address":"荒川区町屋4-9-5","lat":35.747117,"lon":139.776586},{"name":"公益財団法人鉄道弘済会　義肢装具サポートセンター","province":"東京都","city":"荒川区","address":"荒川区南千住4-3-3","lat":35.732669,"lon":139.799282},{"name":"荒川区立荒川授産場","province":"東京都","city":"荒川区","address":"荒川区東尾久4-32-7","lat":35.744634,"lon":139.766872},{"name":"南千住荘","province":"東京都","city":"荒川区","address":"東京都荒川区","lat":35.73614432,"lon":139.78333641},{"name":"町屋荘","province":"東京都","city":"荒川区","address":"荒川区町屋1-30-2","lat":35.745423,"lon":139.785316},{"name":"さくら荒川ハウス","province":"東京都","city":"荒川区","address":"荒川区荒川2-2-2","lat":35.735114,"lon":139.783759},{"name":"上智クリニック","province":"東京都","city":"荒川区","address":"荒川区町屋4-9-10","lat":35.747231,"lon":139.776805},{"name":"日暮里上宮病院","province":"東京都","city":"荒川区","address":"荒川区東日暮里2-29-8","lat":35.728697,"lon":139.785114},{"name":"荒川区社会福祉協議会","province":"東京都","city":"荒川区","address":"荒川区南千住1-13-20","lat":35.731797,"lon":139.791377},{"name":"町屋荘","province":"東京都","city":"荒川区","address":"荒川区町屋1-30-2","lat":35.74571,"lon":139.78526},{"name":"さくら荒川ハウス","province":"東京都","city":"荒川区","address":"荒川区荒川2-2-2","lat":35.73626,"lon":139.78339},{"name":"自立援助ホーム陽気遊山","province":"東京都","city":"荒川区","address":"東京都荒川区","lat":35.73614432,"lon":139.78333641},{"name":"公益財団法人鉄道弘済会　義肢装具サポートセンター","province":"東京都","city":"荒川区","address":"荒川区南千住4-3-3","lat":35.7322,"lon":139.7988},{"name":"荒川区立荒川授産場","province":"東京都","city":"荒川区","address":"荒川区東尾久4-32-7","lat":35.74459,"lon":139.76688},{"name":"ふるさと町屋荘","province":"東京都","city":"荒川区","address":"荒川区町屋8-14-11","lat":35.74811,"lon":139.78679},{"name":"荒川区社会福祉協議会","province":"東京都","city":"荒川区","address":"荒川区南千住1-13-20","lat":35.73191,"lon":139.79115},{"name":"公益財団法人鉄道弘済会義肢装具サポートセンター","province":"東京都","city":"荒川区","address":"荒川区南千住4-3-3","lat":35.7322,"lon":139.7988},{"name":"まちや","province":"東京都","city":"荒川区","address":"荒川区町屋4-9-5","lat":35.747117,"lon":139.776586},{"name":"公益財団法人鉄道弘済会　義肢装具サポートセンター","province":"東京都","city":"荒川区","address":"荒川区南千住4-3-3","lat":35.732669,"lon":139.799282},{"name":"荒川区立荒川授産場","province":"東京都","city":"荒川区","address":"荒川区東尾久4-32-7","lat":35.744634,"lon":139.766872},{"name":"南千住荘","province":"東京都","city":"荒川区","address":"東京都荒川区","lat":35.73614432,"lon":139.78333641},{"name":"町屋荘","province":"東京都","city":"荒川区","address":"荒川区町屋1-30-2","lat":35.745423,"lon":139.785316},{"name":"さくら荒川ハウス","province":"東京都","city":"荒川区","address":"荒川区荒川2-2-2","lat":35.735114,"lon":139.783759},{"name":"上智クリニック","province":"東京都","city":"荒川区","address":"荒川区町屋4-9-10","lat":35.747231,"lon":139.776805},{"name":"日暮里上宮病院","province":"東京都","city":"荒川区","address":"荒川区東日暮里2-29-8","lat":35.728697,"lon":139.785114},{"name":"荒川区社会福祉協議会","province":"東京都","city":"荒川区","address":"荒川区南千住1-13-20","lat":35.731797,"lon":139.791377},{"name":"町屋荘","province":"東京都","city":"荒川区","address":"荒川区町屋1-30-2","lat":35.74571,"lon":139.78526},{"name":"さくら荒川ハウス","province":"東京都","city":"荒川区","address":"荒川区荒川2-2-2","lat":35.73626,"lon":139.78339},{"name":"自立援助ホーム陽気遊山","province":"東京都","city":"荒川区","address":"東京都荒川区","lat":35.73614432,"lon":139.78333641},{"name":"公益財団法人鉄道弘済会　義肢装具サポートセンター","province":"東京都","city":"荒川区","address":"荒川区南千住4-3-3","lat":35.7322,"lon":139.7988},{"name":"荒川区立荒川授産場","province":"東京都","city":"荒川区","address":"荒川区東尾久4-32-7","lat":35.74459,"lon":139.76688},{"name":"ふるさと町屋荘","province":"東京都","city":"荒川区","address":"荒川区町屋8-14-11","lat":35.74811,"lon":139.78679},{"name":"荒川区社会福祉協議会","province":"東京都","city":"荒川区","address":"荒川区南千住1-13-20","lat":35.73191,"lon":139.79115},{"name":"公益財団法人鉄道弘済会義肢装具サポートセンター","province":"東京都","city":"荒川区","address":"荒川区南千住4-3-3","lat":35.7322,"lon":139.7988},{"name":"まちや","province":"東京都","city":"荒川区","address":"荒川区町屋4-9-5","lat":35.747117,"lon":139.776586},{"name":"公益財団法人鉄道弘済会　義肢装具サポートセンター","province":"東京都","city":"荒川区","address":"荒川区南千住4-3-3","lat":35.732669,"lon":139.799282},{"name":"荒川区立荒川授産場","province":"東京都","city":"荒川区","address":"荒川区東尾久4-32-7","lat":35.744634,"lon":139.766872},{"name":"南千住荘","province":"東京都","city":"荒川区","address":"東京都荒川区","lat":35.73614432,"lon":139.78333641},{"name":"町屋荘","province":"東京都","city":"荒川区","address":"荒川区町屋1-30-2","lat":35.745423,"lon":139.785316},{"name":"さくら荒川ハウス","province":"東京都","city":"荒川区","address":"荒川区荒川2-2-2","lat":35.735114,"lon":139.783759},{"name":"上智クリニック","province":"東京都","city":"荒川区","address":"荒川区町屋4-9-10","lat":35.747231,"lon":139.776805},{"name":"日暮里上宮病院","province":"東京都","city":"荒川区","address":"荒川区東日暮里2-29-8","lat":35.728697,"lon":139.785114},{"name":"荒川区社会福祉協議会","province":"東京都","city":"荒川区","address":"荒川区南千住1-13-20","lat":35.731797,"lon":139.791377},{"name":"町屋荘","province":"東京都","city":"荒川区","address":"荒川区町屋1-30-2","lat":35.74571,"lon":139.78526},{"name":"さくら荒川ハウス","province":"東京都","city":"荒川区","address":"荒川区荒川2-2-2","lat":35.73626,"lon":139.78339},{"name":"自立援助ホーム陽気遊山","province":"東京都","city":"荒川区","address":"東京都荒川区","lat":35.73614432,"lon":139.78333641},{"name":"公益財団法人鉄道弘済会　義肢装具サポートセンター","province":"東京都","city":"荒川区","address":"荒川区南千住4-3-3","lat":35.7322,"lon":139.7988},{"name":"荒川区立荒川授産場","province":"東京都","city":"荒川区","address":"荒川区東尾久4-32-7","lat":35.74459,"lon":139.76688},{"name":"ふるさと町屋荘","province":"東京都","city":"荒川区","address":"荒川区町屋8-14-11","lat":35.74811,"lon":139.78679},{"name":"荒川区社会福祉協議会","province":"東京都","city":"荒川区","address":"荒川区南千住1-13-20","lat":35.73191,"lon":139.79115},{"name":"公益財団法人鉄道弘済会義肢装具サポートセンター","province":"東京都","city":"荒川区","address":"荒川区南千住4-3-3","lat":35.7322,"lon":139.7988},{"name":"まちや","province":"東京都","city":"荒川区","address":"荒川区町屋4-9-5","lat":35.747117,"lon":139.776586},{"name":"公益財団法人鉄道弘済会　義肢装具サポートセンター","province":"東京都","city":"荒川区","address":"荒川区南千住4-3-3","lat":35.732669,"lon":139.799282},{"name":"荒川区立荒川授産場","province":"東京都","city":"荒川区","address":"荒川区東尾久4-32-7","lat":35.744634,"lon":139.766872},{"name":"南千住荘","province":"東京都","city":"荒川区","address":"東京都荒川区","lat":35.73614432,"lon":139.78333641},{"name":"町屋荘","province":"東京都","city":"荒川区","address":"荒川区町屋1-30-2","lat":35.745423,"lon":139.785316},{"name":"さくら荒川ハウス","province":"東京都","city":"荒川区","address":"荒川区荒川2-2-2","lat":35.735114,"lon":139.783759},{"name":"上智クリニック","province":"東京都","city":"荒川区","address":"荒川区町屋4-9-10","lat":35.747231,"lon":139.776805},{"name":"日暮里上宮病院","province":"東京都","city":"荒川区","address":"荒川区東日暮里2-29-8","lat":35.728697,"lon":139.785114},{"name":"荒川区社会福祉協議会","province":"東京都","city":"荒川区","address":"荒川区南千住1-13-20","lat":35.731797,"lon":139.791377},{"name":"町屋荘","province":"東京都","city":"荒川区","address":"荒川区町屋1-30-2","lat":35.74571,"lon":139.78526},{"name":"さくら荒川ハウス","province":"東京都","city":"荒川区","address":"荒川区荒川2-2-2","lat":35.73626,"lon":139.78339},{"name":"自立援助ホーム陽気遊山","province":"東京都","city":"荒川区","address":"東京都荒川区","lat":35.73614432,"lon":139.78333641},{"name":"公益財団法人鉄道弘済会　義肢装具サポートセンター","province":"東京都","city":"荒川区","address":"荒川区南千住4-3-3","lat":35.7322,"lon":139.7988},{"name":"荒川区立荒川授産場","province":"東京都","city":"荒川区","address":"荒川区東尾久4-32-7","lat":35.74459,"lon":139.76688},{"name":"ふるさと町屋荘","province":"東京都","city":"荒川区","address":"荒川区町屋8-14-11","lat":35.74811,"lon":139.78679},{"name":"荒川区社会福祉協議会","province":"東京都","city":"荒川区","address":"荒川区南千住1-13-20","lat":35.73191,"lon":139.79115},{"name":"公益財団法人鉄道弘済会義肢装具サポートセンター","province":"東京都","city":"荒川区","address":"荒川区南千住4-3-3","lat":35.7322,"lon":139.7988},{"name":"まちや","province":"東京都","city":"荒川区","address":"荒川区町屋4-9-5","lat":35.747117,"lon":139.776586},{"name":"公益財団法人鉄道弘済会　義肢装具サポートセンター","province":"東京都","city":"荒川区","address":"荒川区南千住4-3-3","lat":35.732669,"lon":139.799282},{"name":"荒川区立荒川授産場","province":"東京都","city":"荒川区","address":"荒川区東尾久4-32-7","lat":35.744634,"lon":139.766872},{"name":"南千住荘","province":"東京都","city":"荒川区","address":"東京都荒川区","lat":35.73614432,"lon":139.78333641},{"name":"町屋荘","province":"東京都","city":"荒川区","address":"荒川区町屋1-30-2","lat":35.745423,"lon":139.785316},{"name":"さくら荒川ハウス","province":"東京都","city":"荒川区","address":"荒川区荒川2-2-2","lat":35.735114,"lon":139.783759},{"name":"上智クリニック","province":"東京都","city":"荒川区","address":"荒川区町屋4-9-10","lat":35.747231,"lon":139.776805},{"name":"日暮里上宮病院","province":"東京都","city":"荒川区","address":"荒川区東日暮里2-29-8","lat":35.728697,"lon":139.785114},{"name":"荒川区社会福祉協議会","province":"東京都","city":"荒川区","address":"荒川区南千住1-13-20","lat":35.731797,"lon":139.791377},{"name":"町屋荘","province":"東京都","city":"荒川区","address":"荒川区町屋1-30-2","lat":35.74571,"lon":139.78526},{"name":"さくら荒川ハウス","province":"東京都","city":"荒川区","address":"荒川区荒川2-2-2","lat":35.73626,"lon":139.78339},{"name":"自立援助ホーム陽気遊山","province":"東京都","city":"荒川区","address":"東京都荒川区","lat":35.73614432,"lon":139.78333641},{"name":"公益財団法人鉄道弘済会　義肢装具サポートセンター","province":"東京都","city":"荒川区","address":"荒川区南千住4-3-3","lat":35.7322,"lon":139.7988},{"name":"荒川区立荒川授産場","province":"東京都","city":"荒川区","address":"荒川区東尾久4-32-7","lat":35.74459,"lon":139.76688},{"name":"ふるさと町屋荘","province":"東京都","city":"荒川区","address":"荒川区町屋8-14-11","lat":35.74811,"lon":139.78679},{"name":"荒川区社会福祉協議会","province":"東京都","city":"荒川区","address":"荒川区南千住1-13-20","lat":35.73191,"lon":139.79115},{"name":"公益財団法人鉄道弘済会義肢装具サポートセンター","province":"東京都","city":"荒川区","address":"荒川区南千住4-3-3","lat":35.7322,"lon":139.7988},{"name":"まちや","province":"東京都","city":"荒川区","address":"荒川区町屋4-9-5","lat":35.747117,"lon":139.776586},{"name":"公益財団法人鉄道弘済会　義肢装具サポートセンター","province":"東京都","city":"荒川区","address":"荒川区南千住4-3-3","lat":35.732669,"lon":139.799282},{"name":"荒川区立荒川授産場","province":"東京都","city":"荒川区","address":"荒川区東尾久4-32-7","lat":35.744634,"lon":139.766872},{"name":"南千住荘","province":"東京都","city":"荒川区","address":"東京都荒川区","lat":35.73614432,"lon":139.78333641},{"name":"町屋荘","province":"東京都","city":"荒川区","address":"荒川区町屋1-30-2","lat":35.745423,"lon":139.785316},{"name":"さくら荒川ハウス","province":"東京都","city":"荒川区","address":"荒川区荒川2-2-2","lat":35.735114,"lon":139.783759},{"name":"上智クリニック","province":"東京都","city":"荒川区","address":"荒川区町屋4-9-10","lat":35.747231,"lon":139.776805},{"name":"日暮里上宮病院","province":"東京都","city":"荒川区","address":"荒川区東日暮里2-29-8","lat":35.728697,"lon":139.785114},{"name":"荒川区社会福祉協議会","province":"東京都","city":"荒川区","address":"荒川区南千住1-13-20","lat":35.731797,"lon":139.791377},{"name":"町屋荘","province":"東京都","city":"荒川区","address":"荒川区町屋1-30-2","lat":35.74571,"lon":139.78526},{"name":"さくら荒川ハウス","province":"東京都","city":"荒川区","address":"荒川区荒川2-2-2","lat":35.73626,"lon":139.78339},{"name":"自立援助ホーム陽気遊山","province":"東京都","city":"荒川区","address":"東京都荒川区","lat":35.73614432,"lon":139.78333641},{"name":"公益財団法人鉄道弘済会　義肢装具サポートセンター","province":"東京都","city":"荒川区","address":"荒川区南千住4-3-3","lat":35.7322,"lon":139.7988},{"name":"荒川区立荒川授産場","province":"東京都","city":"荒川区","address":"荒川区東尾久4-32-7","lat":35.74459,"lon":139.76688},{"name":"ふるさと町屋荘","province":"東京都","city":"荒川区","address":"荒川区町屋8-14-11","lat":35.74811,"lon":139.78679},{"name":"荒川区社会福祉協議会","province":"東京都","city":"荒川区","address":"荒川区南千住1-13-20","lat":35.73191,"lon":139.79115},{"name":"公益財団法人鉄道弘済会義肢装具サポートセンター","province":"東京都","city":"荒川区","address":"荒川区南千住4-3-3","lat":35.7322,"lon":139.7988},{"name":"まちや","province":"東京都","city":"荒川区","address":"荒川区町屋4-9-5","lat":35.747117,"lon":139.776586},{"name":"公益財団法人鉄道弘済会　義肢装具サポートセンター","province":"東京都","city":"荒川区","address":"荒川区南千住4-3-3","lat":35.732669,"lon":139.799282},{"name":"荒川区立荒川授産場","province":"東京都","city":"荒川区","address":"荒川区東尾久4-32-7","lat":35.744634,"lon":139.766872},{"name":"南千住荘","province":"東京都","city":"荒川区","address":"東京都荒川区","lat":35.73614432,"lon":139.78333641},{"name":"町屋荘","province":"東京都","city":"荒川区","address":"荒川区町屋1-30-2","lat":35.745423,"lon":139.785316},{"name":"さくら荒川ハウス","province":"東京都","city":"荒川区","address":"荒川区荒川2-2-2","lat":35.735114,"lon":139.783759},{"name":"上智クリニック","province":"東京都","city":"荒川区","address":"荒川区町屋4-9-10","lat":35.747231,"lon":139.776805},{"name":"日暮里上宮病院","province":"東京都","city":"荒川区","address":"荒川区東日暮里2-29-8","lat":35.728697,"lon":139.785114},{"name":"荒川区社会福祉協議会","province":"東京都","city":"荒川区","address":"荒川区南千住1-13-20","lat":35.731797,"lon":139.791377},{"name":"町屋荘","province":"東京都","city":"荒川区","address":"荒川区町屋1-30-2","lat":35.74571,"lon":139.78526},{"name":"さくら荒川ハウス","province":"東京都","city":"荒川区","address":"荒川区荒川2-2-2","lat":35.73626,"lon":139.78339},{"name":"自立援助ホーム陽気遊山","province":"東京都","city":"荒川区","address":"東京都荒川区","lat":35.73614432,"lon":139.78333641},{"name":"公益財団法人鉄道弘済会　義肢装具サポートセンター","province":"東京都","city":"荒川区","address":"荒川区南千住4-3-3","lat":35.7322,"lon":139.7988},{"name":"荒川区立荒川授産場","province":"東京都","city":"荒川区","address":"荒川区東尾久4-32-7","lat":35.74459,"lon":139.76688},{"name":"ふるさと町屋荘","province":"東京都","city":"荒川区","address":"荒川区町屋8-14-11","lat":35.74811,"lon":139.78679},{"name":"荒川区社会福祉協議会","province":"東京都","city":"荒川区","address":"荒川区南千住1-13-20","lat":35.73191,"lon":139.79115},{"name":"公益財団法人鉄道弘済会義肢装具サポートセンター","province":"東京都","city":"荒川区","address":"荒川区南千住4-3-3","lat":35.7322,"lon":139.7988},{"name":"まちや","province":"東京都","city":"荒川区","address":"荒川区町屋4-9-5","lat":35.747117,"lon":139.776586},{"name":"公益財団法人鉄道弘済会　義肢装具サポートセンター","province":"東京都","city":"荒川区","address":"荒川区南千住4-3-3","lat":35.732669,"lon":139.799282},{"name":"荒川区立荒川授産場","province":"東京都","city":"荒川区","address":"荒川区東尾久4-32-7","lat":35.744634,"lon":139.766872},{"name":"南千住荘","province":"東京都","city":"荒川区","address":"東京都荒川区","lat":35.73614432,"lon":139.78333641},{"name":"町屋荘","province":"東京都","city":"荒川区","address":"荒川区町屋1-30-2","lat":35.745423,"lon":139.785316},{"name":"さくら荒川ハウス","province":"東京都","city":"荒川区","address":"荒川区荒川2-2-2","lat":35.735114,"lon":139.783759},{"name":"上智クリニック","province":"東京都","city":"荒川区","address":"荒川区町屋4-9-10","lat":35.747231,"lon":139.776805},{"name":"日暮里上宮病院","province":"東京都","city":"荒川区","address":"荒川区東日暮里2-29-8","lat":35.728697,"lon":139.785114},{"name":"荒川区社会福祉協議会","province":"東京都","city":"荒川区","address":"荒川区南千住1-13-20","lat":35.731797,"lon":139.791377},{"name":"町屋荘","province":"東京都","city":"荒川区","address":"荒川区町屋1-30-2","lat":35.74571,"lon":139.78526},{"name":"さくら荒川ハウス","province":"東京都","city":"荒川区","address":"荒川区荒川2-2-2","lat":35.73626,"lon":139.78339},{"name":"自立援助ホーム陽気遊山","province":"東京都","city":"荒川区","address":"東京都荒川区","lat":35.73614432,"lon":139.78333641},{"name":"公益財団法人鉄道弘済会　義肢装具サポートセンター","province":"東京都","city":"荒川区","address":"荒川区南千住4-3-3","lat":35.7322,"lon":139.7988},{"name":"荒川区立荒川授産場","province":"東京都","city":"荒川区","address":"荒川区東尾久4-32-7","lat":35.74459,"lon":139.76688},{"name":"ふるさと町屋荘","province":"東京都","city":"荒川区","address":"荒川区町屋8-14-11","lat":35.74811,"lon":139.78679},{"name":"荒川区社会福祉協議会","province":"東京都","city":"荒川区","address":"荒川区南千住1-13-20","lat":35.73191,"lon":139.79115},{"name":"公益財団法人鉄道弘済会義肢装具サポートセンター","province":"東京都","city":"荒川区","address":"荒川区南千住4-3-3","lat":35.7322,"lon":139.7988},{"name":"まちや","province":"東京都","city":"荒川区","address":"荒川区町屋4-9-5","lat":35.747117,"lon":139.776586},{"name":"公益財団法人鉄道弘済会　義肢装具サポートセンター","province":"東京都","city":"荒川区","address":"荒川区南千住4-3-3","lat":35.732669,"lon":139.799282},{"name":"荒川区立荒川授産場","province":"東京都","city":"荒川区","address":"荒川区東尾久4-32-7","lat":35.744634,"lon":139.766872},{"name":"南千住荘","province":"東京都","city":"荒川区","address":"東京都荒川区","lat":35.73614432,"lon":139.78333641},{"name":"町屋荘","province":"東京都","city":"荒川区","address":"荒川区町屋1-30-2","lat":35.745423,"lon":139.785316},{"name":"さくら荒川ハウス","province":"東京都","city":"荒川区","address":"荒川区荒川2-2-2","lat":35.735114,"lon":139.783759},{"name":"上智クリニック","province":"東京都","city":"荒川区","address":"荒川区町屋4-9-10","lat":35.747231,"lon":139.776805},{"name":"日暮里上宮病院","province":"東京都","city":"荒川区","address":"荒川区東日暮里2-29-8","lat":35.728697,"lon":139.785114},{"name":"荒川区社会福祉協議会","province":"東京都","city":"荒川区","address":"荒川区南千住1-13-20","lat":35.731797,"lon":139.791377},{"name":"町屋荘","province":"東京都","city":"荒川区","address":"荒川区町屋1-30-2","lat":35.74571,"lon":139.78526},{"name":"さくら荒川ハウス","province":"東京都","city":"荒川区","address":"荒川区荒川2-2-2","lat":35.73626,"lon":139.78339},{"name":"自立援助ホーム陽気遊山","province":"東京都","city":"荒川区","address":"東京都荒川区","lat":35.73614432,"lon":139.78333641},{"name":"公益財団法人鉄道弘済会　義肢装具サポートセンター","province":"東京都","city":"荒川区","address":"荒川区南千住4-3-3","lat":35.7322,"lon":139.7988},{"name":"荒川区立荒川授産場","province":"東京都","city":"荒川区","address":"荒川区東尾久4-32-7","lat":35.74459,"lon":139.76688},{"name":"ふるさと町屋荘","province":"東京都","city":"荒川区","address":"荒川区町屋8-14-11","lat":35.74811,"lon":139.78679},{"name":"荒川区社会福祉協議会","province":"東京都","city":"荒川区","address":"荒川区南千住1-13-20","lat":35.73191,"lon":139.79115},{"name":"公益財団法人鉄道弘済会義肢装具サポートセンター","province":"東京都","city":"荒川区","address":"荒川区南千住4-3-3","lat":35.7322,"lon":139.7988},{"name":"まちや","province":"東京都","city":"荒川区","address":"荒川区町屋4-9-5","lat":35.747117,"lon":139.776586},{"name":"公益財団法人鉄道弘済会　義肢装具サポートセンター","province":"東京都","city":"荒川区","address":"荒川区南千住4-3-3","lat":35.732669,"lon":139.799282},{"name":"荒川区立荒川授産場","province":"東京都","city":"荒川区","address":"荒川区東尾久4-32-7","lat":35.744634,"lon":139.766872},{"name":"南千住荘","province":"東京都","city":"荒川区","address":"東京都荒川区","lat":35.73614432,"lon":139.78333641},{"name":"町屋荘","province":"東京都","city":"荒川区","address":"荒川区町屋1-30-2","lat":35.745423,"lon":139.785316},{"name":"さくら荒川ハウス","province":"東京都","city":"荒川区","address":"荒川区荒川2-2-2","lat":35.735114,"lon":139.783759},{"name":"上智クリニック","province":"東京都","city":"荒川区","address":"荒川区町屋4-9-10","lat":35.747231,"lon":139.776805},{"name":"日暮里上宮病院","province":"東京都","city":"荒川区","address":"荒川区東日暮里2-29-8","lat":35.728697,"lon":139.785114},{"name":"荒川区社会福祉協議会","province":"東京都","city":"荒川区","address":"荒川区南千住1-13-20","lat":35.731797,"lon":139.791377},{"name":"町屋荘","province":"東京都","city":"荒川区","address":"荒川区町屋1-30-2","lat":35.74571,"lon":139.78526},{"name":"さくら荒川ハウス","province":"東京都","city":"荒川区","address":"荒川区荒川2-2-2","lat":35.73626,"lon":139.78339},{"name":"自立援助ホーム陽気遊山","province":"東京都","city":"荒川区","address":"東京都荒川区","lat":35.73614432,"lon":139.78333641},{"name":"公益財団法人鉄道弘済会　義肢装具サポートセンター","province":"東京都","city":"荒川区","address":"荒川区南千住4-3-3","lat":35.7322,"lon":139.7988},{"name":"荒川区立荒川授産場","province":"東京都","city":"荒川区","address":"荒川区東尾久4-32-7","lat":35.74459,"lon":139.76688},{"name":"ふるさと町屋荘","province":"東京都","city":"荒川区","address":"荒川区町屋8-14-11","lat":35.74811,"lon":139.78679},{"name":"荒川区社会福祉協議会","province":"東京都","city":"荒川区","address":"荒川区南千住1-13-20","lat":35.73191,"lon":139.79115},{"name":"公益財団法人鉄道弘済会義肢装具サポートセンター","province":"東京都","city":"荒川区","address":"荒川区南千住4-3-3","lat":35.7322,"lon":139.7988},{"name":"まちや","province":"東京都","city":"荒川区","address":"荒川区町屋4-9-5","lat":35.747117,"lon":139.776586},{"name":"公益財団法人鉄道弘済会　義肢装具サポートセンター","province":"東京都","city":"荒川区","address":"荒川区南千住4-3-3","lat":35.732669,"lon":139.799282},{"name":"荒川区立荒川授産場","province":"東京都","city":"荒川区","address":"荒川区東尾久4-32-7","lat":35.744634,"lon":139.766872},{"name":"南千住荘","province":"東京都","city":"荒川区","address":"東京都荒川区","lat":35.73614432,"lon":139.78333641},{"name":"町屋荘","province":"東京都","city":"荒川区","address":"荒川区町屋1-30-2","lat":35.745423,"lon":139.785316},{"name":"さくら荒川ハウス","province":"東京都","city":"荒川区","address":"荒川区荒川2-2-2","lat":35.735114,"lon":139.783759},{"name":"上智クリニック","province":"東京都","city":"荒川区","address":"荒川区町屋4-9-10","lat":35.747231,"lon":139.776805},{"name":"日暮里上宮病院","province":"東京都","city":"荒川区","address":"荒川区東日暮里2-29-8","lat":35.728697,"lon":139.785114},{"name":"荒川区社会福祉協議会","province":"東京都","city":"荒川区","address":"荒川区南千住1-13-20","lat":35.731797,"lon":139.791377},{"name":"町屋荘","province":"東京都","city":"荒川区","address":"荒川区町屋1-30-2","lat":35.74571,"lon":139.78526},{"name":"さくら荒川ハウス","province":"東京都","city":"荒川区","address":"荒川区荒川2-2-2","lat":35.73626,"lon":139.78339},{"name":"自立援助ホーム陽気遊山","province":"東京都","city":"荒川区","address":"東京都荒川区","lat":35.73614432,"lon":139.78333641},{"name":"公益財団法人鉄道弘済会　義肢装具サポートセンター","province":"東京都","city":"荒川区","address":"荒川区南千住4-3-3","lat":35.7322,"lon":139.7988},{"name":"荒川区立荒川授産場","province":"東京都","city":"荒川区","address":"荒川区東尾久4-32-7","lat":35.74459,"lon":139.76688},{"name":"ふるさと町屋荘","province":"東京都","city":"荒川区","address":"荒川区町屋8-14-11","lat":35.74811,"lon":139.78679},{"name":"荒川区社会福祉協議会","province":"東京都","city":"荒川区","address":"荒川区南千住1-13-20","lat":35.73191,"lon":139.79115},{"name":"公益財団法人鉄道弘済会義肢装具サポートセンター","province":"東京都","city":"荒川区","address":"荒川区南千住4-3-3","lat":35.7322,"lon":139.7988},{"name":"まちや","province":"東京都","city":"荒川区","address":"荒川区町屋4-9-5","lat":35.747117,"lon":139.776586},{"name":"公益財団法人鉄道弘済会　義肢装具サポートセンター","province":"東京都","city":"荒川区","address":"荒川区南千住4-3-3","lat":35.732669,"lon":139.799282},{"name":"荒川区立荒川授産場","province":"東京都","city":"荒川区","address":"荒川区東尾久4-32-7","lat":35.744634,"lon":139.766872},{"name":"南千住荘","province":"東京都","city":"荒川区","address":"東京都荒川区","lat":35.73614432,"lon":139.78333641},{"name":"町屋荘","province":"東京都","city":"荒川区","address":"荒川区町屋1-30-2","lat":35.745423,"lon":139.785316},{"name":"さくら荒川ハウス","province":"東京都","city":"荒川区","address":"荒川区荒川2-2-2","lat":35.735114,"lon":139.783759},{"name":"上智クリニック","province":"東京都","city":"荒川区","address":"荒川区町屋4-9-10","lat":35.747231,"lon":139.776805},{"name":"日暮里上宮病院","province":"東京都","city":"荒川区","address":"荒川区東日暮里2-29-8","lat":35.728697,"lon":139.785114},{"name":"荒川区社会福祉協議会","province":"東京都","city":"荒川区","address":"荒川区南千住1-13-20","lat":35.731797,"lon":139.791377},{"name":"町屋荘","province":"東京都","city":"荒川区","address":"荒川区町屋1-30-2","lat":35.74571,"lon":139.78526},{"name":"さくら荒川ハウス","province":"東京都","city":"荒川区","address":"荒川区荒川2-2-2","lat":35.73626,"lon":139.78339},{"name":"自立援助ホーム陽気遊山","province":"東京都","city":"荒川区","address":"東京都荒川区","lat":35.73614432,"lon":139.78333641},{"name":"公益財団法人鉄道弘済会　義肢装具サポートセンター","province":"東京都","city":"荒川区","address":"荒川区南千住4-3-3","lat":35.7322,"lon":139.7988},{"name":"荒川区立荒川授産場","province":"東京都","city":"荒川区","address":"荒川区東尾久4-32-7","lat":35.74459,"lon":139.76688},{"name":"ふるさと町屋荘","province":"東京都","city":"荒川区","address":"荒川区町屋8-14-11","lat":35.74811,"lon":139.78679},{"name":"荒川区社会福祉協議会","province":"東京都","city":"荒川区","address":"荒川区南千住1-13-20","lat":35.73191,"lon":139.79115},{"name":"公益財団法人鉄道弘済会義肢装具サポートセンター","province":"東京都","city":"荒川区","address":"荒川区南千住4-3-3","lat":35.7322,"lon":139.7988},{"name":"まちや","province":"東京都","city":"荒川区","address":"荒川区町屋4-9-5","lat":35.747117,"lon":139.776586},{"name":"公益財団法人鉄道弘済会　義肢装具サポートセンター","province":"東京都","city":"荒川区","address":"荒川区南千住4-3-3","lat":35.732669,"lon":139.799282},{"name":"荒川区立荒川授産場","province":"東京都","city":"荒川区","address":"荒川区東尾久4-32-7","lat":35.744634,"lon":139.766872},{"name":"南千住荘","province":"東京都","city":"荒川区","address":"東京都荒川区","lat":35.73614432,"lon":139.78333641},{"name":"町屋荘","province":"東京都","city":"荒川区","address":"荒川区町屋1-30-2","lat":35.745423,"lon":139.785316},{"name":"さくら荒川ハウス","province":"東京都","city":"荒川区","address":"荒川区荒川2-2-2","lat":35.735114,"lon":139.783759},{"name":"上智クリニック","province":"東京都","city":"荒川区","address":"荒川区町屋4-9-10","lat":35.747231,"lon":139.776805},{"name":"日暮里上宮病院","province":"東京都","city":"荒川区","address":"荒川区東日暮里2-29-8","lat":35.728697,"lon":139.785114},{"name":"荒川区社会福祉協議会","province":"東京都","city":"荒川区","address":"荒川区南千住1-13-20","lat":35.731797,"lon":139.791377},{"name":"町屋荘","province":"東京都","city":"荒川区","address":"荒川区町屋1-30-2","lat":35.74571,"lon":139.78526},{"name":"さくら荒川ハウス","province":"東京都","city":"荒川区","address":"荒川区荒川2-2-2","lat":35.73626,"lon":139.78339},{"name":"自立援助ホーム陽気遊山","province":"東京都","city":"荒川区","address":"東京都荒川区","lat":35.73614432,"lon":139.78333641},{"name":"公益財団法人鉄道弘済会　義肢装具サポートセンター","province":"東京都","city":"荒川区","address":"荒川区南千住4-3-3","lat":35.7322,"lon":139.7988},{"name":"荒川区立荒川授産場","province":"東京都","city":"荒川区","address":"荒川区東尾久4-32-7","lat":35.74459,"lon":139.76688},{"name":"ふるさと町屋荘","province":"東京都","city":"荒川区","address":"荒川区町屋8-14-11","lat":35.74811,"lon":139.78679},{"name":"荒川区社会福祉協議会","province":"東京都","city":"荒川区","address":"荒川区南千住1-13-20","lat":35.73191,"lon":139.79115},{"name":"公益財団法人鉄道弘済会義肢装具サポートセンター","province":"東京都","city":"荒川区","address":"荒川区南千住4-3-3","lat":35.7322,"lon":139.7988},{"name":"まちや","province":"東京都","city":"荒川区","address":"荒川区町屋4-9-5","lat":35.747117,"lon":139.776586},{"name":"公益財団法人鉄道弘済会　義肢装具サポートセンター","province":"東京都","city":"荒川区","address":"荒川区南千住4-3-3","lat":35.732669,"lon":139.799282},{"name":"荒川区立荒川授産場","province":"東京都","city":"荒川区","address":"荒川区東尾久4-32-7","lat":35.744634,"lon":139.766872},{"name":"南千住荘","province":"東京都","city":"荒川区","address":"東京都荒川区","lat":35.73614432,"lon":139.78333641},{"name":"町屋荘","province":"東京都","city":"荒川区","address":"荒川区町屋1-30-2","lat":35.745423,"lon":139.785316},{"name":"さくら荒川ハウス","province":"東京都","city":"荒川区","address":"荒川区荒川2-2-2","lat":35.735114,"lon":139.783759},{"name":"上智クリニック","province":"東京都","city":"荒川区","address":"荒川区町屋4-9-10","lat":35.747231,"lon":139.776805},{"name":"日暮里上宮病院","province":"東京都","city":"荒川区","address":"荒川区東日暮里2-29-8","lat":35.728697,"lon":139.785114},{"name":"荒川区社会福祉協議会","province":"東京都","city":"荒川区","address":"荒川区南千住1-13-20","lat":35.731797,"lon":139.791377},{"name":"町屋荘","province":"東京都","city":"荒川区","address":"荒川区町屋1-30-2","lat":35.74571,"lon":139.78526},{"name":"さくら荒川ハウス","province":"東京都","city":"荒川区","address":"荒川区荒川2-2-2","lat":35.73626,"lon":139.78339},{"name":"自立援助ホーム陽気遊山","province":"東京都","city":"荒川区","address":"東京都荒川区","lat":35.73614432,"lon":139.78333641},{"name":"公益財団法人鉄道弘済会　義肢装具サポートセンター","province":"東京都","city":"荒川区","address":"荒川区南千住4-3-3","lat":35.7322,"lon":139.7988},{"name":"荒川区立荒川授産場","province":"東京都","city":"荒川区","address":"荒川区東尾久4-32-7","lat":35.74459,"lon":139.76688},{"name":"ふるさと町屋荘","province":"東京都","city":"荒川区","address":"荒川区町屋8-14-11","lat":35.74811,"lon":139.78679},{"name":"荒川区社会福祉協議会","province":"東京都","city":"荒川区","address":"荒川区南千住1-13-20","lat":35.73191,"lon":139.79115},{"name":"公益財団法人鉄道弘済会義肢装具サポートセンター","province":"東京都","city":"荒川区","address":"荒川区南千住4-3-3","lat":35.7322,"lon":139.7988},{"name":"まちや","province":"東京都","city":"荒川区","address":"荒川区町屋4-9-5","lat":35.747117,"lon":139.776586},{"name":"公益財団法人鉄道弘済会　義肢装具サポートセンター","province":"東京都","city":"荒川区","address":"荒川区南千住4-3-3","lat":35.732669,"lon":139.799282},{"name":"荒川区立荒川授産場","province":"東京都","city":"荒川区","address":"荒川区東尾久4-32-7","lat":35.744634,"lon":139.766872},{"name":"南千住荘","province":"東京都","city":"荒川区","address":"東京都荒川区","lat":35.73614432,"lon":139.78333641},{"name":"町屋荘","province":"東京都","city":"荒川区","address":"荒川区町屋1-30-2","lat":35.745423,"lon":139.785316},{"name":"さくら荒川ハウス","province":"東京都","city":"荒川区","address":"荒川区荒川2-2-2","lat":35.735114,"lon":139.783759},{"name":"上智クリニック","province":"東京都","city":"荒川区","address":"荒川区町屋4-9-10","lat":35.747231,"lon":139.776805},{"name":"日暮里上宮病院","province":"東京都","city":"荒川区","address":"荒川区東日暮里2-29-8","lat":35.728697,"lon":139.785114},{"name":"荒川区社会福祉協議会","province":"東京都","city":"荒川区","address":"荒川区南千住1-13-20","lat":35.731797,"lon":139.791377},{"name":"町屋荘","province":"東京都","city":"荒川区","address":"荒川区町屋1-30-2","lat":35.74571,"lon":139.78526},{"name":"さくら荒川ハウス","province":"東京都","city":"荒川区","address":"荒川区荒川2-2-2","lat":35.73626,"lon":139.78339},{"name":"自立援助ホーム陽気遊山","province":"東京都","city":"荒川区","address":"東京都荒川区","lat":35.73614432,"lon":139.78333641},{"name":"公益財団法人鉄道弘済会　義肢装具サポートセンター","province":"東京都","city":"荒川区","address":"荒川区南千住4-3-3","lat":35.7322,"lon":139.7988},{"name":"荒川区立荒川授産場","province":"東京都","city":"荒川区","address":"荒川区東尾久4-32-7","lat":35.74459,"lon":139.76688},{"name":"ふるさと町屋荘","province":"東京都","city":"荒川区","address":"荒川区町屋8-14-11","lat":35.74811,"lon":139.78679},{"name":"荒川区社会福祉協議会","province":"東京都","city":"荒川区","address":"荒川区南千住1-13-20","lat":35.73191,"lon":139.79115},{"name":"公益財団法人鉄道弘済会義肢装具サポートセンター","province":"東京都","city":"荒川区","address":"荒川区南千住4-3-3","lat":35.7322,"lon":139.7988},{"name":"まちや","province":"東京都","city":"荒川区","address":"荒川区町屋4-9-5","lat":35.747117,"lon":139.776586},{"name":"公益財団法人鉄道弘済会　義肢装具サポートセンター","province":"東京都","city":"荒川区","address":"荒川区南千住4-3-3","lat":35.732669,"lon":139.799282},{"name":"荒川区立荒川授産場","province":"東京都","city":"荒川区","address":"荒川区東尾久4-32-7","lat":35.744634,"lon":139.766872},{"name":"南千住荘","province":"東京都","city":"荒川区","address":"東京都荒川区","lat":35.73614432,"lon":139.78333641},{"name":"町屋荘","province":"東京都","city":"荒川区","address":"荒川区町屋1-30-2","lat":35.745423,"lon":139.785316},{"name":"さくら荒川ハウス","province":"東京都","city":"荒川区","address":"荒川区荒川2-2-2","lat":35.735114,"lon":139.783759},{"name":"上智クリニック","province":"東京都","city":"荒川区","address":"荒川区町屋4-9-10","lat":35.747231,"lon":139.776805},{"name":"日暮里上宮病院","province":"東京都","city":"荒川区","address":"荒川区東日暮里2-29-8","lat":35.728697,"lon":139.785114},{"name":"荒川区社会福祉協議会","province":"東京都","city":"荒川区","address":"荒川区南千住1-13-20","lat":35.731797,"lon":139.791377},{"name":"町屋荘","province":"東京都","city":"荒川区","address":"荒川区町屋1-30-2","lat":35.74571,"lon":139.78526},{"name":"さくら荒川ハウス","province":"東京都","city":"荒川区","address":"荒川区荒川2-2-2","lat":35.73626,"lon":139.78339},{"name":"自立援助ホーム陽気遊山","province":"東京都","city":"荒川区","address":"東京都荒川区","lat":35.73614432,"lon":139.78333641},{"name":"公益財団法人鉄道弘済会　義肢装具サポートセンター","province":"東京都","city":"荒川区","address":"荒川区南千住4-3-3","lat":35.7322,"lon":139.7988},{"name":"荒川区立荒川授産場","province":"東京都","city":"荒川区","address":"荒川区東尾久4-32-7","lat":35.74459,"lon":139.76688},{"name":"ふるさと町屋荘","province":"東京都","city":"荒川区","address":"荒川区町屋8-14-11","lat":35.74811,"lon":139.78679},{"name":"荒川区社会福祉協議会","province":"東京都","city":"荒川区","address":"荒川区南千住1-13-20","lat":35.73191,"lon":139.79115},{"name":"公益財団法人鉄道弘済会義肢装具サポートセンター","province":"東京都","city":"荒川区","address":"荒川区南千住4-3-3","lat":35.7322,"lon":139.7988},{"name":"まちや","province":"東京都","city":"荒川区","address":"荒川区町屋4-9-5","lat":35.747117,"lon":139.776586},{"name":"公益財団法人鉄道弘済会　義肢装具サポートセンター","province":"東京都","city":"荒川区","address":"荒川区南千住4-3-3","lat":35.732669,"lon":139.799282},{"name":"荒川区立荒川授産場","province":"東京都","city":"荒川区","address":"荒川区東尾久4-32-7","lat":35.744634,"lon":139.766872},{"name":"南千住荘","province":"東京都","city":"荒川区","address":"東京都荒川区","lat":35.73614432,"lon":139.78333641},{"name":"町屋荘","province":"東京都","city":"荒川区","address":"荒川区町屋1-30-2","lat":35.745423,"lon":139.785316},{"name":"さくら荒川ハウス","province":"東京都","city":"荒川区","address":"荒川区荒川2-2-2","lat":35.735114,"lon":139.783759},{"name":"上智クリニック","province":"東京都","city":"荒川区","address":"荒川区町屋4-9-10","lat":35.747231,"lon":139.776805},{"name":"日暮里上宮病院","province":"東京都","city":"荒川区","address":"荒川区東日暮里2-29-8","lat":35.728697,"lon":139.785114},{"name":"荒川区社会福祉協議会","province":"東京都","city":"荒川区","address":"荒川区南千住1-13-20","lat":35.731797,"lon":139.791377},{"name":"町屋荘","province":"東京都","city":"荒川区","address":"荒川区町屋1-30-2","lat":35.74571,"lon":139.78526},{"name":"さくら荒川ハウス","province":"東京都","city":"荒川区","address":"荒川区荒川2-2-2","lat":35.73626,"lon":139.78339},{"name":"自立援助ホーム陽気遊山","province":"東京都","city":"荒川区","address":"東京都荒川区","lat":35.73614432,"lon":139.78333641},{"name":"公益財団法人鉄道弘済会　義肢装具サポートセンター","province":"東京都","city":"荒川区","address":"荒川区南千住4-3-3","lat":35.7322,"lon":139.7988},{"name":"荒川区立荒川授産場","province":"東京都","city":"荒川区","address":"荒川区東尾久4-32-7","lat":35.74459,"lon":139.76688},{"name":"ふるさと町屋荘","province":"東京都","city":"荒川区","address":"荒川区町屋8-14-11","lat":35.74811,"lon":139.78679},{"name":"荒川区社会福祉協議会","province":"東京都","city":"荒川区","address":"荒川区南千住1-13-20","lat":35.73191,"lon":139.79115},{"name":"公益財団法人鉄道弘済会義肢装具サポートセンター","province":"東京都","city":"荒川区","address":"荒川区南千住4-3-3","lat":35.7322,"lon":139.7988},{"name":"まちや","province":"東京都","city":"荒川区","address":"荒川区町屋4-9-5","lat":35.747117,"lon":139.776586},{"name":"公益財団法人鉄道弘済会　義肢装具サポートセンター","province":"東京都","city":"荒川区","address":"荒川区南千住4-3-3","lat":35.732669,"lon":139.799282},{"name":"荒川区立荒川授産場","province":"東京都","city":"荒川区","address":"荒川区東尾久4-32-7","lat":35.744634,"lon":139.766872},{"name":"南千住荘","province":"東京都","city":"荒川区","address":"東京都荒川区","lat":35.73614432,"lon":139.78333641},{"name":"町屋荘","province":"東京都","city":"荒川区","address":"荒川区町屋1-30-2","lat":35.745423,"lon":139.785316},{"name":"さくら荒川ハウス","province":"東京都","city":"荒川区","address":"荒川区荒川2-2-2","lat":35.735114,"lon":139.783759},{"name":"上智クリニック","province":"東京都","city":"荒川区","address":"荒川区町屋4-9-10","lat":35.747231,"lon":139.776805},{"name":"日暮里上宮病院","province":"東京都","city":"荒川区","address":"荒川区東日暮里2-29-8","lat":35.728697,"lon":139.785114},{"name":"荒川区社会福祉協議会","province":"東京都","city":"荒川区","address":"荒川区南千住1-13-20","lat":35.731797,"lon":139.791377},{"name":"町屋荘","province":"東京都","city":"荒川区","address":"荒川区町屋1-30-2","lat":35.74571,"lon":139.78526},{"name":"さくら荒川ハウス","province":"東京都","city":"荒川区","address":"荒川区荒川2-2-2","lat":35.73626,"lon":139.78339},{"name":"自立援助ホーム陽気遊山","province":"東京都","city":"荒川区","address":"東京都荒川区","lat":35.73614432,"lon":139.78333641},{"name":"公益財団法人鉄道弘済会　義肢装具サポートセンター","province":"東京都","city":"荒川区","address":"荒川区南千住4-3-3","lat":35.7322,"lon":139.7988},{"name":"荒川区立荒川授産場","province":"東京都","city":"荒川区","address":"荒川区東尾久4-32-7","lat":35.74459,"lon":139.76688},{"name":"ふるさと町屋荘","province":"東京都","city":"荒川区","address":"荒川区町屋8-14-11","lat":35.74811,"lon":139.78679},{"name":"荒川区社会福祉協議会","province":"東京都","city":"荒川区","address":"荒川区南千住1-13-20","lat":35.73191,"lon":139.79115},{"name":"公益財団法人鉄道弘済会義肢装具サポートセンター","province":"東京都","city":"荒川区","address":"荒川区南千住4-3-3","lat":35.7322,"lon":139.7988},{"name":"まちや","province":"東京都","city":"荒川区","address":"荒川区町屋4-9-5","lat":35.747117,"lon":139.776586},{"name":"公益財団法人鉄道弘済会　義肢装具サポートセンター","province":"東京都","city":"荒川区","address":"荒川区南千住4-3-3","lat":35.732669,"lon":139.799282},{"name":"荒川区立荒川授産場","province":"東京都","city":"荒川区","address":"荒川区東尾久4-32-7","lat":35.744634,"lon":139.766872},{"name":"南千住荘","province":"東京都","city":"荒川区","address":"東京都荒川区","lat":35.73614432,"lon":139.78333641},{"name":"町屋荘","province":"東京都","city":"荒川区","address":"荒川区町屋1-30-2","lat":35.745423,"lon":139.785316},{"name":"さくら荒川ハウス","province":"東京都","city":"荒川区","address":"荒川区荒川2-2-2","lat":35.735114,"lon":139.783759},{"name":"上智クリニック","province":"東京都","city":"荒川区","address":"荒川区町屋4-9-10","lat":35.747231,"lon":139.776805},{"name":"日暮里上宮病院","province":"東京都","city":"荒川区","address":"荒川区東日暮里2-29-8","lat":35.728697,"lon":139.785114},{"name":"荒川区社会福祉協議会","province":"東京都","city":"荒川区","address":"荒川区南千住1-13-20","lat":35.731797,"lon":139.791377},{"name":"町屋荘","province":"東京都","city":"荒川区","address":"荒川区町屋1-30-2","lat":35.74571,"lon":139.78526},{"name":"さくら荒川ハウス","province":"東京都","city":"荒川区","address":"荒川区荒川2-2-2","lat":35.73626,"lon":139.78339},{"name":"自立援助ホーム陽気遊山","province":"東京都","city":"荒川区","address":"東京都荒川区","lat":35.73614432,"lon":139.78333641},{"name":"公益財団法人鉄道弘済会　義肢装具サポートセンター","province":"東京都","city":"荒川区","address":"荒川区南千住4-3-3","lat":35.7322,"lon":139.7988},{"name":"荒川区立荒川授産場","province":"東京都","city":"荒川区","address":"荒川区東尾久4-32-7","lat":35.74459,"lon":139.76688},{"name":"ふるさと町屋荘","province":"東京都","city":"荒川区","address":"荒川区町屋8-14-11","lat":35.74811,"lon":139.78679},{"name":"荒川区社会福祉協議会","province":"東京都","city":"荒川区","address":"荒川区南千住1-13-20","lat":35.73191,"lon":139.79115},{"name":"公益財団法人鉄道弘済会義肢装具サポートセンター","province":"東京都","city":"荒川区","address":"荒川区南千住4-3-3","lat":35.7322,"lon":139.7988},{"name":"まちや","province":"東京都","city":"荒川区","address":"荒川区町屋4-9-5","lat":35.747117,"lon":139.776586}]}