{"keyword":"役場","data":[{"name":"町屋斎場","province":"東京都","city":"荒川区","address":"東京都荒川区町屋1丁目23-4","lat":35.74417616,"lon":139.78429088},{"name":"町屋斎場","province":"東京都","city":"荒川区","address":"東京都荒川区町屋1丁目23-4","lat":35.74417616,"lon":139.78429088},{"name":"町屋斎場","province":"東京都","city":"荒川区","address":"東京都荒川区町屋1丁目23-4","lat":35.74417616,"lon":139.78429088},{"name":"町屋斎場","province":"東京都","city":"荒川区","address":"東京都荒川区町屋1丁目23-4","lat":35.74417616,"lon":139.78429088},{"name":"町屋斎場","province":"東京都","city":"荒川区","address":"東京都荒川区町屋1丁目23-4","lat":35.74417616,"lon":139.78429088},{"name":"町屋斎場","province":"東京都","city":"荒川区","address":"東京都荒川区町屋1丁目23-4","lat":35.74417616,"lon":139.78429088},{"name":"町屋斎場","province":"東京都","city":"荒川区","address":"東京都荒川区町屋1丁目23-4","lat":35.74417616,"lon":139.78429088},{"name":"町屋斎場","province":"東京都","city":"荒川区","address":"東京都荒川区町屋1丁目23-4","lat":35.74417616,"lon":139.78429088},{"name":"町屋斎場","province":"東京都","city":"荒川区","address":"東京都荒川区町屋1丁目23-4","lat":35.74417616,"lon":139.78429088},{"name":"町屋斎場","province":"東京都","city":"荒川区","address":"東京都荒川区町屋1丁目23-4","lat":35.74417616,"lon":139.78429088},{"name":"町屋斎場","province":"東京都","city":"荒川区","address":"東京都荒川区町屋1丁目23-4","lat":35.74417616,"lon":139.78429088},{"name":"町屋斎場","province":"東京都","city":"荒川区","address":"東京都荒川区町屋1丁目23-4","lat":35.74417616,"lon":139.78429088},{"name":"町屋斎場","province":"東京都","city":"荒川区","address":"東京都荒川区町屋1丁目23-4","lat":35.74417616,"lon":139.78429088},{"name":"町屋斎場","province":"東京都","city":"荒川区","address":"東京都荒川区町屋1丁目23-4","lat":35.74417616,"lon":139.78429088},{"name":"町屋斎場","province":"東京都","city":"荒川区","address":"東京都荒川区町屋1丁目23-4","lat":35.74417616,"lon":139.78429088},{"name":"町屋斎場","province":"東京都","city":"荒川区","address":"東京都荒川区町屋1丁目23-4","lat":35.74417616,"lon":139.78429088},{"name":"町屋斎場","province":"東京都","city":"荒川区","address":"東京都荒川区町屋1丁目23-4","lat":35.74417616,"lon":139.78429088},{"name":"町屋斎場","province":"東京都","city":"荒川区","address":"東京都荒川区町屋1丁目23-4","lat":35.74417616,"lon":139.78429088},{"name":"町屋斎場","province":"東京都","city":"荒川区","address":"東京都荒川区町屋1丁目23-4","lat":35.74417616,"lon":139.78429088},{"name":"町屋斎場","province":"東京都","city":"荒川区","address":"東京都荒川区町屋1丁目23-4","lat":35.74417616,"lon":139.78429088},{"name":"町屋斎場","province":"東京都","city":"荒川区","address":"東京都荒川区町屋1丁目23-4","lat":35.74417616,"lon":139.78429088},{"name":"町屋斎場","province":"東京都","city":"荒川区","address":"東京都荒川区町屋1丁目23-4","lat":35.74417616,"lon":139.78429088},{"name":"町屋斎場","province":"東京都","city":"荒川区","address":"東京都荒川区町屋1丁目23-4","lat":35.74417616,"lon":139.78429088},{"name":"町屋斎場","province":"東京都","city":"荒川区","address":"東京都荒川区町屋1丁目23-4","lat":35.74417616,"lon":139.78429088},{"name":"町屋斎場","province":"東京都","city":"荒川区","address":"東京都荒川区町屋1丁目23-4","lat":35.74417616,"lon":139.78429088}]}