{"keyword":"放課後","data":[{"name":"わいわいプラス荒川教室","province":"東京都","city":"荒川区","address":"荒川区町屋5-5-19コーポアポロン1階","lat":35.749828,"lon":139.779288},{"name":"スキップランド　町屋","province":"東京都","city":"荒川区","address":"荒川区荒川5-40-1","lat":35.739618,"lon":139.7763},{"name":"つばめクラブ児童デイサービス","province":"東京都","city":"荒川区","address":"荒川区荒川6-61-1ヒロマチヤ101号室","lat":35.742154,"lon":139.775114},{"name":"アトリエ　Ｌｏｐ","province":"東京都","city":"荒川区","address":"荒川区荒川4-8-1-101アルビオン宮地","lat":35.737035,"lon":139.77772},{"name":"放課後等デイサービス　あんプラス三ノ輪","province":"東京都","city":"荒川区","address":"荒川区南千住1-19-1","lat":35.73338,"lon":139.790266},{"name":"放課後等デイサービスハート","province":"東京都","city":"荒川区","address":"荒川区西尾久7丁目5番11号マンションシリウスオグ1階","lat":35.750424,"lon":139.757787},{"name":"療養通所それいゆ","province":"東京都","city":"荒川区","address":"荒川区東尾久3-19-6","lat":35.747125,"lon":139.771147},{"name":"ハッピーテラス尾久教室","province":"東京都","city":"荒川区","address":"荒川区東尾久4-8-14鈴木ビル1階","lat":35.742973,"lon":139.768661},{"name":"ＺＩＰＰＹＫＩＤＳ　ＡＮＮＥＸ　荒川","province":"東京都","city":"荒川区","address":"荒川区東尾久3-6-82階","lat":35.744825,"lon":139.772414},{"name":"こぱんはうす　さくら","province":"東京都","city":"荒川区","address":"荒川区西日暮里6-23-5光ビル1階","lat":35.736071,"lon":139.770115},{"name":"スマイルスイッチＯＮ","province":"東京都","city":"荒川区","address":"荒川区東日暮里6-45-3","lat":35.728811,"lon":139.775542},{"name":"かすみくらぶ","province":"東京都","city":"荒川区","address":"荒川区東日暮里6-29-5サンハイツ磯山101","lat":35.732927,"lon":139.775417}]}