{"keyword":"破損","data":[{"name":"大関横丁第二","province":"東京都","city":"荒川区","address":"東京都荒川区東日暮里1丁目3-4","lat":35.73041082,"lon":139.79079062},{"name":"東尾久五丁目","province":"東京都","city":"荒川区","address":"東京都荒川区東尾久2丁目49-7","lat":35.74498085,"lon":139.76946398},{"name":"熊の前","province":"東京都","city":"荒川区","address":"東京都荒川区東尾久8丁目14-1","lat":35.74944131,"lon":139.76929143},{"name":"宮の前","province":"東京都","city":"荒川区","address":"東京都荒川区西尾久2丁目4-17","lat":35.74989939,"lon":139.7651167},{"name":"熊野前交番前","province":"東京都","city":"荒川区","address":"東京都荒川区東尾久6丁目50-9","lat":35.74931641,"lon":139.77100242},{"name":"北豊島学園前","province":"東京都","city":"荒川区","address":"東京都荒川区東尾久6丁目34-24","lat":35.74915541,"lon":139.77331614},{"name":"東京都立大学前","province":"東京都","city":"荒川区","address":"東京都荒川区東尾久7丁目2-10","lat":35.74998303,"lon":139.77211339},{"name":"大門小学校入口","province":"東京都","city":"荒川区","address":"東京都荒川区町屋5丁目7","lat":35.74967765,"lon":139.77732407},{"name":"南千住警察署入口","province":"東京都","city":"荒川区","address":"東京都荒川区南千住6丁目47-8","lat":35.73462169,"lon":139.79419311},{"name":"泪橋","province":"東京都","city":"荒川区","address":"東京都荒川区南千住3丁目5-20","lat":35.72923876,"lon":139.79962882},{"name":"天王神社前","province":"東京都","city":"荒川区","address":"東京都荒川区南千住6丁目60-17","lat":35.73682984,"lon":139.79637343},{"name":"東日暮里一丁目都住前","province":"東京都","city":"荒川区","address":"東京都荒川区東日暮里1丁目5","lat":35.73125248,"lon":139.79047683},{"name":"千住大橋南","province":"東京都","city":"荒川区","address":"東京都荒川区南千住7丁目17-5","lat":35.73736035,"lon":139.79724834},{"name":"南千住二丁目","province":"東京都","city":"荒川区","address":"東京都荒川区南千住2丁目15-5","lat":35.72908002,"lon":139.79570084},{"name":"南千住五丁目","province":"東京都","city":"荒川区","address":"東京都荒川区南千住5丁目12-1","lat":35.73471054,"lon":139.79489023},{"name":"南千住七丁目","province":"東京都","city":"荒川区","address":"東京都荒川区南千住7丁目3","lat":35.73384948,"lon":139.79813714},{"name":"泪橋西","province":"東京都","city":"荒川区","address":"東京都荒川区南千住2丁目27-10","lat":35.72909684,"lon":139.79802027},{"name":"南千住二丁目仲通り","province":"東京都","city":"荒川区","address":"東京都荒川区南千住2丁目20-15","lat":35.730405,"lon":139.7957176},{"name":"南千住七丁目北","province":"東京都","city":"荒川区","address":"東京都荒川区南千住7丁目24-24","lat":35.73666891,"lon":139.799465},{"name":"南千住一丁目","province":"東京都","city":"荒川区","address":"東京都荒川区南千住1丁目32-9","lat":35.73291903,"lon":139.79228219},{"name":"南千住三丁目西交番前","province":"東京都","city":"荒川区","address":"東京都荒川区南千住2丁目31-8","lat":35.73001358,"lon":139.79867038},{"name":"南千住四丁目","province":"東京都","city":"荒川区","address":"東京都荒川区南千住4丁目9","lat":35.7362609,"lon":139.8037205},{"name":"南千住駅前","province":"東京都","city":"荒川区","address":"東京都荒川区南千住7丁目1-1","lat":35.73318285,"lon":139.79828712},{"name":"橋場橋通り入口","province":"東京都","city":"荒川区","address":"東京都荒川区南千住4丁目1-1","lat":35.7338137,"lon":139.80141504},{"name":"南千住三丁目","province":"東京都","city":"荒川区","address":"東京都荒川区南千住2丁目31-8","lat":35.73001358,"lon":139.79867038},{"name":"南千住八丁目","province":"東京都","city":"荒川区","address":"東京都荒川区南千住8丁目13","lat":35.73642518,"lon":139.81024806},{"name":"瑞光橋公園前","province":"東京都","city":"荒川区","address":"東京都荒川区南千住8丁目17-1","lat":35.73456159,"lon":139.80941238},{"name":"南千住けやき通り入口","province":"東京都","city":"荒川区","address":"東京都荒川区南千住4丁目9-4","lat":35.73695531,"lon":139.80453431},{"name":"隅田川駅北","province":"東京都","city":"荒川区","address":"東京都荒川区南千住4丁目9","lat":35.7362609,"lon":139.8037205},{"name":"白鬚橋西詰","province":"東京都","city":"荒川区","address":"東京都荒川区南千住3丁目28-67","lat":35.72846805,"lon":139.8084078},{"name":"日暮里中央通り","province":"東京都","city":"荒川区","address":"東京都荒川区東日暮里6丁目15-1","lat":35.72879428,"lon":139.77860864},{"name":"宮地","province":"東京都","city":"荒川区","address":"東京都荒川区荒川5丁目1-1","lat":35.73756853,"lon":139.77661979},{"name":"三河島駅前","province":"東京都","city":"荒川区","address":"東京都荒川区西日暮里1丁目6-10","lat":35.7334439,"lon":139.77674766},{"name":"サンパール荒川前","province":"東京都","city":"荒川区","address":"東京都荒川区荒川1丁目49-2","lat":35.73439995,"lon":139.78501953},{"name":"荒川三丁目","province":"東京都","city":"荒川区","address":"東京都荒川区荒川2丁目4-2","lat":35.73561922,"lon":139.78205309},{"name":"日暮里二丁目","province":"東京都","city":"荒川区","address":"東京都荒川区東日暮里4丁目36-18","lat":35.72504454,"lon":139.77908921},{"name":"西日暮里四丁目","province":"東京都","city":"荒川区","address":"東京都荒川区西日暮里3丁目23-14","lat":35.73128501,"lon":139.76493992},{"name":"西日暮里二丁目","province":"東京都","city":"荒川区","address":"東京都荒川区西日暮里2丁目25-1","lat":35.7295939,"lon":139.77148686},{"name":"第三日暮里小前","province":"東京都","city":"荒川区","address":"東京都荒川区東日暮里3丁目10-17","lat":35.72886384,"lon":139.78137513},{"name":"荒川七丁目","province":"東京都","city":"荒川区","address":"東京都荒川区荒川7丁目4-3","lat":35.74305417,"lon":139.7845799},{"name":"三河島駅前北","province":"東京都","city":"荒川区","address":"東京都荒川区荒川3丁目63-2","lat":35.7340579,"lon":139.77870315},{"name":"東日暮里六丁目","province":"東京都","city":"荒川区","address":"東京都荒川区東日暮里6丁目44-7","lat":35.72884694,"lon":139.77579772},{"name":"東日暮里五丁目","province":"東京都","city":"荒川区","address":"東京都荒川区東日暮里5丁目40-3","lat":35.72644708,"lon":139.77480338},{"name":"東日暮里三丁目","province":"東京都","city":"荒川区","address":"東京都荒川区東日暮里3丁目42-8","lat":35.73165527,"lon":139.77904754},{"name":"東日暮里四丁目","province":"東京都","city":"荒川区","address":"東京都荒川区東日暮里4丁目35-10","lat":35.72597504,"lon":139.77909476},{"name":"西日暮里一丁目東","province":"東京都","city":"荒川区","address":"東京都荒川区西日暮里1丁目3-1","lat":35.73554381,"lon":139.77718099},{"name":"町屋第二","province":"東京都","city":"荒川区","address":"東京都荒川区荒川7丁目46-1","lat":35.74194027,"lon":139.78047194},{"name":"西日暮里五丁目第二","province":"東京都","city":"荒川区","address":"東京都荒川区西日暮里5丁目10-9","lat":35.73234626,"lon":139.76898135},{"name":"西日暮里駅前","province":"東京都","city":"荒川区","address":"東京都荒川区西日暮里3丁目5-1","lat":35.73196836,"lon":139.76645372},{"name":"町屋一丁目","province":"東京都","city":"荒川区","address":"東京都荒川区町屋2丁目2-20","lat":35.74368443,"lon":139.78096337},{"name":"西日暮里一丁目西","province":"東京都","city":"荒川区","address":"東京都荒川区西日暮里1丁目18-5","lat":35.7359158,"lon":139.77484215},{"name":"東日暮里六丁目東","province":"東京都","city":"荒川区","address":"東京都荒川区東日暮里6丁目18-7","lat":35.72887198,"lon":139.77680599},{"name":"東日暮里三丁目南","province":"東京都","city":"荒川区","address":"東京都荒川区東日暮里6丁目6-8","lat":35.73056085,"lon":139.77850034},{"name":"新三河島駅前","province":"東京都","city":"荒川区","address":"東京都荒川区荒川5丁目18-3","lat":35.7378238,"lon":139.77374761},{"name":"西日暮里五丁目東","province":"東京都","city":"荒川区","address":"東京都荒川区西日暮里5丁目6-1","lat":35.73339342,"lon":139.76977294},{"name":"荒川区役所東","province":"東京都","city":"荒川区","address":"東京都荒川区荒川2丁目13-9","lat":35.73696654,"lon":139.7843308},{"name":"荒川区民会館北第一","province":"東京都","city":"荒川区","address":"東京都荒川区荒川2丁目14","lat":35.73626939,"lon":139.78453081},{"name":"荒川区民会館北第二","province":"東京都","city":"荒川区","address":"東京都荒川区荒川2丁目1-3","lat":35.73566385,"lon":139.78460854},{"name":"西日暮里六丁目","province":"東京都","city":"荒川区","address":"東京都荒川区西日暮里6丁目48-6","lat":35.73627917,"lon":139.76858125},{"name":"西日暮里二丁目北","province":"東京都","city":"荒川区","address":"東京都荒川区西日暮里2丁目40-10","lat":35.73146031,"lon":139.77015632},{"name":"地下鉄町屋駅南","province":"東京都","city":"荒川区","address":"東京都荒川区荒川7丁目43-3","lat":35.7409765,"lon":139.7795221},{"name":"日暮里南公園入口","province":"東京都","city":"荒川区","address":"東京都荒川区東日暮里5丁目7-1","lat":35.72707772,"lon":139.77872531},{"name":"かんかん森通り","province":"東京都","city":"荒川区","address":"東京都荒川区東日暮里6丁目14-2","lat":35.72931647,"lon":139.77861421},{"name":"アクロスあらかわ東","province":"東京都","city":"荒川区","address":"東京都荒川区荒川7丁目7-1","lat":35.74078519,"lon":139.78419137},{"name":"日暮里図書館入口","province":"東京都","city":"荒川区","address":"東京都荒川区西日暮里2丁目5-4","lat":35.73164111,"lon":139.77453943},{"name":"西日暮里駅東","province":"東京都","city":"荒川区","address":"東京都荒川区西日暮里5丁目34-5","lat":35.73280165,"lon":139.76727032},{"name":"ひぐらし小学校前","province":"東京都","city":"荒川区","address":"東京都荒川区西日暮里2丁目27-5","lat":35.73049102,"lon":139.77128406},{"name":"京成町屋駅前","province":"東京都","city":"荒川区","address":"東京都荒川区荒川7丁目40-1","lat":35.74234026,"lon":139.7815274},{"name":"ゆいの森あらかわ","province":"東京都","city":"荒川区","address":"東京都荒川区荒川2丁目28","lat":35.73854954,"lon":139.78417502},{"name":"西日暮里一丁目南","province":"東京都","city":"荒川区","address":"東京都荒川区西日暮里1丁目61-18","lat":35.7342129,"lon":139.77143117},{"name":"西日暮里二丁目東","province":"東京都","city":"荒川区","address":"東京都荒川区西日暮里2丁目13-1","lat":35.73030504,"lon":139.77343118},{"name":"第四日暮里小南","province":"東京都","city":"荒川区","address":"東京都荒川区西日暮里2丁目30-1","lat":35.73075217,"lon":139.77237289},{"name":"荒川町屋郵便局前","province":"東京都","city":"荒川区","address":"東京都荒川区町屋1丁目18-1","lat":35.74372064,"lon":139.78314102},{"name":"南千住給水所","province":"東京都","city":"荒川区","address":"東京都荒川区南千住8丁目2-6","lat":35.73577514,"lon":139.80766775},{"name":"大関横丁第二","province":"東京都","city":"荒川区","address":"東京都荒川区東日暮里1丁目3-4","lat":35.73041082,"lon":139.79079062},{"name":"東尾久五丁目","province":"東京都","city":"荒川区","address":"東京都荒川区東尾久2丁目49-7","lat":35.74498085,"lon":139.76946398},{"name":"熊の前","province":"東京都","city":"荒川区","address":"東京都荒川区東尾久8丁目14-1","lat":35.74944131,"lon":139.76929143},{"name":"宮の前","province":"東京都","city":"荒川区","address":"東京都荒川区西尾久2丁目4-17","lat":35.74989939,"lon":139.7651167},{"name":"熊野前交番前","province":"東京都","city":"荒川区","address":"東京都荒川区東尾久6丁目50-9","lat":35.74931641,"lon":139.77100242},{"name":"北豊島学園前","province":"東京都","city":"荒川区","address":"東京都荒川区東尾久6丁目34-24","lat":35.74915541,"lon":139.77331614},{"name":"東京都立大学前","province":"東京都","city":"荒川区","address":"東京都荒川区東尾久7丁目2-10","lat":35.74998303,"lon":139.77211339},{"name":"大門小学校入口","province":"東京都","city":"荒川区","address":"東京都荒川区町屋5丁目7","lat":35.74967765,"lon":139.77732407},{"name":"南千住警察署入口","province":"東京都","city":"荒川区","address":"東京都荒川区南千住6丁目47-8","lat":35.73462169,"lon":139.79419311},{"name":"泪橋","province":"東京都","city":"荒川区","address":"東京都荒川区南千住3丁目5-20","lat":35.72923876,"lon":139.79962882},{"name":"天王神社前","province":"東京都","city":"荒川区","address":"東京都荒川区南千住6丁目60-17","lat":35.73682984,"lon":139.79637343},{"name":"東日暮里一丁目都住前","province":"東京都","city":"荒川区","address":"東京都荒川区東日暮里1丁目5","lat":35.73125248,"lon":139.79047683},{"name":"千住大橋南","province":"東京都","city":"荒川区","address":"東京都荒川区南千住7丁目17-5","lat":35.73736035,"lon":139.79724834},{"name":"南千住二丁目","province":"東京都","city":"荒川区","address":"東京都荒川区南千住2丁目15-5","lat":35.72908002,"lon":139.79570084},{"name":"南千住五丁目","province":"東京都","city":"荒川区","address":"東京都荒川区南千住5丁目12-1","lat":35.73471054,"lon":139.79489023},{"name":"南千住七丁目","province":"東京都","city":"荒川区","address":"東京都荒川区南千住7丁目3","lat":35.73384948,"lon":139.79813714},{"name":"泪橋西","province":"東京都","city":"荒川区","address":"東京都荒川区南千住2丁目27-10","lat":35.72909684,"lon":139.79802027},{"name":"南千住二丁目仲通り","province":"東京都","city":"荒川区","address":"東京都荒川区南千住2丁目20-15","lat":35.730405,"lon":139.7957176},{"name":"南千住七丁目北","province":"東京都","city":"荒川区","address":"東京都荒川区南千住7丁目24-24","lat":35.73666891,"lon":139.799465},{"name":"南千住一丁目","province":"東京都","city":"荒川区","address":"東京都荒川区南千住1丁目32-9","lat":35.73291903,"lon":139.79228219},{"name":"南千住三丁目西交番前","province":"東京都","city":"荒川区","address":"東京都荒川区南千住2丁目31-8","lat":35.73001358,"lon":139.79867038},{"name":"南千住四丁目","province":"東京都","city":"荒川区","address":"東京都荒川区南千住4丁目9","lat":35.7362609,"lon":139.8037205},{"name":"南千住駅前","province":"東京都","city":"荒川区","address":"東京都荒川区南千住7丁目1-1","lat":35.73318285,"lon":139.79828712},{"name":"橋場橋通り入口","province":"東京都","city":"荒川区","address":"東京都荒川区南千住4丁目1-1","lat":35.7338137,"lon":139.80141504},{"name":"南千住三丁目","province":"東京都","city":"荒川区","address":"東京都荒川区南千住2丁目31-8","lat":35.73001358,"lon":139.79867038},{"name":"南千住八丁目","province":"東京都","city":"荒川区","address":"東京都荒川区南千住8丁目13","lat":35.73642518,"lon":139.81024806},{"name":"瑞光橋公園前","province":"東京都","city":"荒川区","address":"東京都荒川区南千住8丁目17-1","lat":35.73456159,"lon":139.80941238},{"name":"南千住けやき通り入口","province":"東京都","city":"荒川区","address":"東京都荒川区南千住4丁目9-4","lat":35.73695531,"lon":139.80453431},{"name":"隅田川駅北","province":"東京都","city":"荒川区","address":"東京都荒川区南千住4丁目9","lat":35.7362609,"lon":139.8037205},{"name":"白鬚橋西詰","province":"東京都","city":"荒川区","address":"東京都荒川区南千住3丁目28-67","lat":35.72846805,"lon":139.8084078},{"name":"日暮里中央通り","province":"東京都","city":"荒川区","address":"東京都荒川区東日暮里6丁目15-1","lat":35.72879428,"lon":139.77860864},{"name":"宮地","province":"東京都","city":"荒川区","address":"東京都荒川区荒川5丁目1-1","lat":35.73756853,"lon":139.77661979},{"name":"三河島駅前","province":"東京都","city":"荒川区","address":"東京都荒川区西日暮里1丁目6-10","lat":35.7334439,"lon":139.77674766},{"name":"サンパール荒川前","province":"東京都","city":"荒川区","address":"東京都荒川区荒川1丁目49-2","lat":35.73439995,"lon":139.78501953},{"name":"荒川三丁目","province":"東京都","city":"荒川区","address":"東京都荒川区荒川2丁目4-2","lat":35.73561922,"lon":139.78205309},{"name":"日暮里二丁目","province":"東京都","city":"荒川区","address":"東京都荒川区東日暮里4丁目36-18","lat":35.72504454,"lon":139.77908921},{"name":"西日暮里四丁目","province":"東京都","city":"荒川区","address":"東京都荒川区西日暮里3丁目23-14","lat":35.73128501,"lon":139.76493992},{"name":"西日暮里二丁目","province":"東京都","city":"荒川区","address":"東京都荒川区西日暮里2丁目25-1","lat":35.7295939,"lon":139.77148686},{"name":"第三日暮里小前","province":"東京都","city":"荒川区","address":"東京都荒川区東日暮里3丁目10-17","lat":35.72886384,"lon":139.78137513},{"name":"荒川七丁目","province":"東京都","city":"荒川区","address":"東京都荒川区荒川7丁目4-3","lat":35.74305417,"lon":139.7845799},{"name":"三河島駅前北","province":"東京都","city":"荒川区","address":"東京都荒川区荒川3丁目63-2","lat":35.7340579,"lon":139.77870315},{"name":"東日暮里六丁目","province":"東京都","city":"荒川区","address":"東京都荒川区東日暮里6丁目44-7","lat":35.72884694,"lon":139.77579772},{"name":"東日暮里五丁目","province":"東京都","city":"荒川区","address":"東京都荒川区東日暮里5丁目40-3","lat":35.72644708,"lon":139.77480338},{"name":"東日暮里三丁目","province":"東京都","city":"荒川区","address":"東京都荒川区東日暮里3丁目42-8","lat":35.73165527,"lon":139.77904754},{"name":"東日暮里四丁目","province":"東京都","city":"荒川区","address":"東京都荒川区東日暮里4丁目35-10","lat":35.72597504,"lon":139.77909476},{"name":"西日暮里一丁目東","province":"東京都","city":"荒川区","address":"東京都荒川区西日暮里1丁目3-1","lat":35.73554381,"lon":139.77718099},{"name":"町屋第二","province":"東京都","city":"荒川区","address":"東京都荒川区荒川7丁目46-1","lat":35.74194027,"lon":139.78047194},{"name":"西日暮里五丁目第二","province":"東京都","city":"荒川区","address":"東京都荒川区西日暮里5丁目10-9","lat":35.73234626,"lon":139.76898135},{"name":"西日暮里駅前","province":"東京都","city":"荒川区","address":"東京都荒川区西日暮里3丁目5-1","lat":35.73196836,"lon":139.76645372},{"name":"町屋一丁目","province":"東京都","city":"荒川区","address":"東京都荒川区町屋2丁目2-20","lat":35.74368443,"lon":139.78096337},{"name":"西日暮里一丁目西","province":"東京都","city":"荒川区","address":"東京都荒川区西日暮里1丁目18-5","lat":35.7359158,"lon":139.77484215},{"name":"東日暮里六丁目東","province":"東京都","city":"荒川区","address":"東京都荒川区東日暮里6丁目18-7","lat":35.72887198,"lon":139.77680599},{"name":"東日暮里三丁目南","province":"東京都","city":"荒川区","address":"東京都荒川区東日暮里6丁目6-8","lat":35.73056085,"lon":139.77850034},{"name":"新三河島駅前","province":"東京都","city":"荒川区","address":"東京都荒川区荒川5丁目18-3","lat":35.7378238,"lon":139.77374761},{"name":"西日暮里五丁目東","province":"東京都","city":"荒川区","address":"東京都荒川区西日暮里5丁目6-1","lat":35.73339342,"lon":139.76977294},{"name":"荒川区役所東","province":"東京都","city":"荒川区","address":"東京都荒川区荒川2丁目13-9","lat":35.73696654,"lon":139.7843308},{"name":"荒川区民会館北第一","province":"東京都","city":"荒川区","address":"東京都荒川区荒川2丁目14","lat":35.73626939,"lon":139.78453081},{"name":"荒川区民会館北第二","province":"東京都","city":"荒川区","address":"東京都荒川区荒川2丁目1-3","lat":35.73566385,"lon":139.78460854},{"name":"西日暮里六丁目","province":"東京都","city":"荒川区","address":"東京都荒川区西日暮里6丁目48-6","lat":35.73627917,"lon":139.76858125},{"name":"西日暮里二丁目北","province":"東京都","city":"荒川区","address":"東京都荒川区西日暮里2丁目40-10","lat":35.73146031,"lon":139.77015632},{"name":"地下鉄町屋駅南","province":"東京都","city":"荒川区","address":"東京都荒川区荒川7丁目43-3","lat":35.7409765,"lon":139.7795221},{"name":"日暮里南公園入口","province":"東京都","city":"荒川区","address":"東京都荒川区東日暮里5丁目7-1","lat":35.72707772,"lon":139.77872531},{"name":"かんかん森通り","province":"東京都","city":"荒川区","address":"東京都荒川区東日暮里6丁目14-2","lat":35.72931647,"lon":139.77861421},{"name":"アクロスあらかわ東","province":"東京都","city":"荒川区","address":"東京都荒川区荒川7丁目7-1","lat":35.74078519,"lon":139.78419137},{"name":"日暮里図書館入口","province":"東京都","city":"荒川区","address":"東京都荒川区西日暮里2丁目5-4","lat":35.73164111,"lon":139.77453943},{"name":"西日暮里駅東","province":"東京都","city":"荒川区","address":"東京都荒川区西日暮里5丁目34-5","lat":35.73280165,"lon":139.76727032},{"name":"ひぐらし小学校前","province":"東京都","city":"荒川区","address":"東京都荒川区西日暮里2丁目27-5","lat":35.73049102,"lon":139.77128406},{"name":"京成町屋駅前","province":"東京都","city":"荒川区","address":"東京都荒川区荒川7丁目40-1","lat":35.74234026,"lon":139.7815274},{"name":"ゆいの森あらかわ","province":"東京都","city":"荒川区","address":"東京都荒川区荒川2丁目28","lat":35.73854954,"lon":139.78417502},{"name":"西日暮里一丁目南","province":"東京都","city":"荒川区","address":"東京都荒川区西日暮里1丁目61-18","lat":35.7342129,"lon":139.77143117},{"name":"西日暮里二丁目東","province":"東京都","city":"荒川区","address":"東京都荒川区西日暮里2丁目13-1","lat":35.73030504,"lon":139.77343118},{"name":"第四日暮里小南","province":"東京都","city":"荒川区","address":"東京都荒川区西日暮里2丁目30-1","lat":35.73075217,"lon":139.77237289},{"name":"荒川町屋郵便局前","province":"東京都","city":"荒川区","address":"東京都荒川区町屋1丁目18-1","lat":35.74372064,"lon":139.78314102},{"name":"南千住給水所","province":"東京都","city":"荒川区","address":"東京都荒川区南千住8丁目2-6","lat":35.73577514,"lon":139.80766775},{"name":"大関横丁第二","province":"東京都","city":"荒川区","address":"東京都荒川区東日暮里1丁目3-4","lat":35.73041082,"lon":139.79079062},{"name":"東尾久五丁目","province":"東京都","city":"荒川区","address":"東京都荒川区東尾久2丁目49-7","lat":35.74498085,"lon":139.76946398},{"name":"熊の前","province":"東京都","city":"荒川区","address":"東京都荒川区東尾久8丁目14-1","lat":35.74944131,"lon":139.76929143},{"name":"宮の前","province":"東京都","city":"荒川区","address":"東京都荒川区西尾久2丁目4-17","lat":35.74989939,"lon":139.7651167},{"name":"熊野前交番前","province":"東京都","city":"荒川区","address":"東京都荒川区東尾久6丁目50-9","lat":35.74931641,"lon":139.77100242},{"name":"北豊島学園前","province":"東京都","city":"荒川区","address":"東京都荒川区東尾久6丁目34-24","lat":35.74915541,"lon":139.77331614},{"name":"東京都立大学前","province":"東京都","city":"荒川区","address":"東京都荒川区東尾久7丁目2-10","lat":35.74998303,"lon":139.77211339},{"name":"大門小学校入口","province":"東京都","city":"荒川区","address":"東京都荒川区町屋5丁目7","lat":35.74967765,"lon":139.77732407},{"name":"南千住警察署入口","province":"東京都","city":"荒川区","address":"東京都荒川区南千住6丁目47-8","lat":35.73462169,"lon":139.79419311},{"name":"泪橋","province":"東京都","city":"荒川区","address":"東京都荒川区南千住3丁目5-20","lat":35.72923876,"lon":139.79962882},{"name":"天王神社前","province":"東京都","city":"荒川区","address":"東京都荒川区南千住6丁目60-17","lat":35.73682984,"lon":139.79637343},{"name":"東日暮里一丁目都住前","province":"東京都","city":"荒川区","address":"東京都荒川区東日暮里1丁目5","lat":35.73125248,"lon":139.79047683},{"name":"千住大橋南","province":"東京都","city":"荒川区","address":"東京都荒川区南千住7丁目17-5","lat":35.73736035,"lon":139.79724834},{"name":"南千住二丁目","province":"東京都","city":"荒川区","address":"東京都荒川区南千住2丁目15-5","lat":35.72908002,"lon":139.79570084},{"name":"南千住五丁目","province":"東京都","city":"荒川区","address":"東京都荒川区南千住5丁目12-1","lat":35.73471054,"lon":139.79489023},{"name":"南千住七丁目","province":"東京都","city":"荒川区","address":"東京都荒川区南千住7丁目3","lat":35.73384948,"lon":139.79813714},{"name":"泪橋西","province":"東京都","city":"荒川区","address":"東京都荒川区南千住2丁目27-10","lat":35.72909684,"lon":139.79802027},{"name":"南千住二丁目仲通り","province":"東京都","city":"荒川区","address":"東京都荒川区南千住2丁目20-15","lat":35.730405,"lon":139.7957176},{"name":"南千住七丁目北","province":"東京都","city":"荒川区","address":"東京都荒川区南千住7丁目24-24","lat":35.73666891,"lon":139.799465},{"name":"南千住一丁目","province":"東京都","city":"荒川区","address":"東京都荒川区南千住1丁目32-9","lat":35.73291903,"lon":139.79228219},{"name":"南千住三丁目西交番前","province":"東京都","city":"荒川区","address":"東京都荒川区南千住2丁目31-8","lat":35.73001358,"lon":139.79867038},{"name":"南千住四丁目","province":"東京都","city":"荒川区","address":"東京都荒川区南千住4丁目9","lat":35.7362609,"lon":139.8037205},{"name":"南千住駅前","province":"東京都","city":"荒川区","address":"東京都荒川区南千住7丁目1-1","lat":35.73318285,"lon":139.79828712},{"name":"橋場橋通り入口","province":"東京都","city":"荒川区","address":"東京都荒川区南千住4丁目1-1","lat":35.7338137,"lon":139.80141504},{"name":"南千住三丁目","province":"東京都","city":"荒川区","address":"東京都荒川区南千住2丁目31-8","lat":35.73001358,"lon":139.79867038},{"name":"南千住八丁目","province":"東京都","city":"荒川区","address":"東京都荒川区南千住8丁目13","lat":35.73642518,"lon":139.81024806},{"name":"瑞光橋公園前","province":"東京都","city":"荒川区","address":"東京都荒川区南千住8丁目17-1","lat":35.73456159,"lon":139.80941238},{"name":"南千住けやき通り入口","province":"東京都","city":"荒川区","address":"東京都荒川区南千住4丁目9-4","lat":35.73695531,"lon":139.80453431},{"name":"隅田川駅北","province":"東京都","city":"荒川区","address":"東京都荒川区南千住4丁目9","lat":35.7362609,"lon":139.8037205},{"name":"白鬚橋西詰","province":"東京都","city":"荒川区","address":"東京都荒川区南千住3丁目28-67","lat":35.72846805,"lon":139.8084078},{"name":"日暮里中央通り","province":"東京都","city":"荒川区","address":"東京都荒川区東日暮里6丁目15-1","lat":35.72879428,"lon":139.77860864},{"name":"宮地","province":"東京都","city":"荒川区","address":"東京都荒川区荒川5丁目1-1","lat":35.73756853,"lon":139.77661979},{"name":"三河島駅前","province":"東京都","city":"荒川区","address":"東京都荒川区西日暮里1丁目6-10","lat":35.7334439,"lon":139.77674766},{"name":"サンパール荒川前","province":"東京都","city":"荒川区","address":"東京都荒川区荒川1丁目49-2","lat":35.73439995,"lon":139.78501953},{"name":"荒川三丁目","province":"東京都","city":"荒川区","address":"東京都荒川区荒川2丁目4-2","lat":35.73561922,"lon":139.78205309},{"name":"日暮里二丁目","province":"東京都","city":"荒川区","address":"東京都荒川区東日暮里4丁目36-18","lat":35.72504454,"lon":139.77908921},{"name":"西日暮里四丁目","province":"東京都","city":"荒川区","address":"東京都荒川区西日暮里3丁目23-14","lat":35.73128501,"lon":139.76493992},{"name":"西日暮里二丁目","province":"東京都","city":"荒川区","address":"東京都荒川区西日暮里2丁目25-1","lat":35.7295939,"lon":139.77148686},{"name":"第三日暮里小前","province":"東京都","city":"荒川区","address":"東京都荒川区東日暮里3丁目10-17","lat":35.72886384,"lon":139.78137513},{"name":"荒川七丁目","province":"東京都","city":"荒川区","address":"東京都荒川区荒川7丁目4-3","lat":35.74305417,"lon":139.7845799},{"name":"三河島駅前北","province":"東京都","city":"荒川区","address":"東京都荒川区荒川3丁目63-2","lat":35.7340579,"lon":139.77870315},{"name":"東日暮里六丁目","province":"東京都","city":"荒川区","address":"東京都荒川区東日暮里6丁目44-7","lat":35.72884694,"lon":139.77579772},{"name":"東日暮里五丁目","province":"東京都","city":"荒川区","address":"東京都荒川区東日暮里5丁目40-3","lat":35.72644708,"lon":139.77480338},{"name":"東日暮里三丁目","province":"東京都","city":"荒川区","address":"東京都荒川区東日暮里3丁目42-8","lat":35.73165527,"lon":139.77904754},{"name":"東日暮里四丁目","province":"東京都","city":"荒川区","address":"東京都荒川区東日暮里4丁目35-10","lat":35.72597504,"lon":139.77909476},{"name":"西日暮里一丁目東","province":"東京都","city":"荒川区","address":"東京都荒川区西日暮里1丁目3-1","lat":35.73554381,"lon":139.77718099},{"name":"町屋第二","province":"東京都","city":"荒川区","address":"東京都荒川区荒川7丁目46-1","lat":35.74194027,"lon":139.78047194},{"name":"西日暮里五丁目第二","province":"東京都","city":"荒川区","address":"東京都荒川区西日暮里5丁目10-9","lat":35.73234626,"lon":139.76898135},{"name":"西日暮里駅前","province":"東京都","city":"荒川区","address":"東京都荒川区西日暮里3丁目5-1","lat":35.73196836,"lon":139.76645372},{"name":"町屋一丁目","province":"東京都","city":"荒川区","address":"東京都荒川区町屋2丁目2-20","lat":35.74368443,"lon":139.78096337},{"name":"西日暮里一丁目西","province":"東京都","city":"荒川区","address":"東京都荒川区西日暮里1丁目18-5","lat":35.7359158,"lon":139.77484215},{"name":"東日暮里六丁目東","province":"東京都","city":"荒川区","address":"東京都荒川区東日暮里6丁目18-7","lat":35.72887198,"lon":139.77680599},{"name":"東日暮里三丁目南","province":"東京都","city":"荒川区","address":"東京都荒川区東日暮里6丁目6-8","lat":35.73056085,"lon":139.77850034},{"name":"新三河島駅前","province":"東京都","city":"荒川区","address":"東京都荒川区荒川5丁目18-3","lat":35.7378238,"lon":139.77374761},{"name":"西日暮里五丁目東","province":"東京都","city":"荒川区","address":"東京都荒川区西日暮里5丁目6-1","lat":35.73339342,"lon":139.76977294},{"name":"荒川区役所東","province":"東京都","city":"荒川区","address":"東京都荒川区荒川2丁目13-9","lat":35.73696654,"lon":139.7843308},{"name":"荒川区民会館北第一","province":"東京都","city":"荒川区","address":"東京都荒川区荒川2丁目14","lat":35.73626939,"lon":139.78453081},{"name":"荒川区民会館北第二","province":"東京都","city":"荒川区","address":"東京都荒川区荒川2丁目1-3","lat":35.73566385,"lon":139.78460854},{"name":"西日暮里六丁目","province":"東京都","city":"荒川区","address":"東京都荒川区西日暮里6丁目48-6","lat":35.73627917,"lon":139.76858125},{"name":"西日暮里二丁目北","province":"東京都","city":"荒川区","address":"東京都荒川区西日暮里2丁目40-10","lat":35.73146031,"lon":139.77015632},{"name":"地下鉄町屋駅南","province":"東京都","city":"荒川区","address":"東京都荒川区荒川7丁目43-3","lat":35.7409765,"lon":139.7795221},{"name":"日暮里南公園入口","province":"東京都","city":"荒川区","address":"東京都荒川区東日暮里5丁目7-1","lat":35.72707772,"lon":139.77872531},{"name":"かんかん森通り","province":"東京都","city":"荒川区","address":"東京都荒川区東日暮里6丁目14-2","lat":35.72931647,"lon":139.77861421},{"name":"アクロスあらかわ東","province":"東京都","city":"荒川区","address":"東京都荒川区荒川7丁目7-1","lat":35.74078519,"lon":139.78419137},{"name":"日暮里図書館入口","province":"東京都","city":"荒川区","address":"東京都荒川区西日暮里2丁目5-4","lat":35.73164111,"lon":139.77453943},{"name":"西日暮里駅東","province":"東京都","city":"荒川区","address":"東京都荒川区西日暮里5丁目34-5","lat":35.73280165,"lon":139.76727032},{"name":"ひぐらし小学校前","province":"東京都","city":"荒川区","address":"東京都荒川区西日暮里2丁目27-5","lat":35.73049102,"lon":139.77128406},{"name":"京成町屋駅前","province":"東京都","city":"荒川区","address":"東京都荒川区荒川7丁目40-1","lat":35.74234026,"lon":139.7815274},{"name":"ゆいの森あらかわ","province":"東京都","city":"荒川区","address":"東京都荒川区荒川2丁目28","lat":35.73854954,"lon":139.78417502},{"name":"西日暮里一丁目南","province":"東京都","city":"荒川区","address":"東京都荒川区西日暮里1丁目61-18","lat":35.7342129,"lon":139.77143117},{"name":"西日暮里二丁目東","province":"東京都","city":"荒川区","address":"東京都荒川区西日暮里2丁目13-1","lat":35.73030504,"lon":139.77343118},{"name":"第四日暮里小南","province":"東京都","city":"荒川区","address":"東京都荒川区西日暮里2丁目30-1","lat":35.73075217,"lon":139.77237289},{"name":"荒川町屋郵便局前","province":"東京都","city":"荒川区","address":"東京都荒川区町屋1丁目18-1","lat":35.74372064,"lon":139.78314102},{"name":"南千住給水所","province":"東京都","city":"荒川区","address":"東京都荒川区南千住8丁目2-6","lat":35.73577514,"lon":139.80766775},{"name":"大関横丁第二","province":"東京都","city":"荒川区","address":"東京都荒川区東日暮里1丁目3-4","lat":35.73041082,"lon":139.79079062},{"name":"東尾久五丁目","province":"東京都","city":"荒川区","address":"東京都荒川区東尾久2丁目49-7","lat":35.74498085,"lon":139.76946398},{"name":"熊の前","province":"東京都","city":"荒川区","address":"東京都荒川区東尾久8丁目14-1","lat":35.74944131,"lon":139.76929143},{"name":"宮の前","province":"東京都","city":"荒川区","address":"東京都荒川区西尾久2丁目4-17","lat":35.74989939,"lon":139.7651167},{"name":"熊野前交番前","province":"東京都","city":"荒川区","address":"東京都荒川区東尾久6丁目50-9","lat":35.74931641,"lon":139.77100242},{"name":"北豊島学園前","province":"東京都","city":"荒川区","address":"東京都荒川区東尾久6丁目34-24","lat":35.74915541,"lon":139.77331614},{"name":"東京都立大学前","province":"東京都","city":"荒川区","address":"東京都荒川区東尾久7丁目2-10","lat":35.74998303,"lon":139.77211339},{"name":"大門小学校入口","province":"東京都","city":"荒川区","address":"東京都荒川区町屋5丁目7","lat":35.74967765,"lon":139.77732407},{"name":"南千住警察署入口","province":"東京都","city":"荒川区","address":"東京都荒川区南千住6丁目47-8","lat":35.73462169,"lon":139.79419311},{"name":"泪橋","province":"東京都","city":"荒川区","address":"東京都荒川区南千住3丁目5-20","lat":35.72923876,"lon":139.79962882},{"name":"天王神社前","province":"東京都","city":"荒川区","address":"東京都荒川区南千住6丁目60-17","lat":35.73682984,"lon":139.79637343},{"name":"東日暮里一丁目都住前","province":"東京都","city":"荒川区","address":"東京都荒川区東日暮里1丁目5","lat":35.73125248,"lon":139.79047683},{"name":"千住大橋南","province":"東京都","city":"荒川区","address":"東京都荒川区南千住7丁目17-5","lat":35.73736035,"lon":139.79724834},{"name":"南千住二丁目","province":"東京都","city":"荒川区","address":"東京都荒川区南千住2丁目15-5","lat":35.72908002,"lon":139.79570084},{"name":"南千住五丁目","province":"東京都","city":"荒川区","address":"東京都荒川区南千住5丁目12-1","lat":35.73471054,"lon":139.79489023},{"name":"南千住七丁目","province":"東京都","city":"荒川区","address":"東京都荒川区南千住7丁目3","lat":35.73384948,"lon":139.79813714},{"name":"泪橋西","province":"東京都","city":"荒川区","address":"東京都荒川区南千住2丁目27-10","lat":35.72909684,"lon":139.79802027},{"name":"南千住二丁目仲通り","province":"東京都","city":"荒川区","address":"東京都荒川区南千住2丁目20-15","lat":35.730405,"lon":139.7957176},{"name":"南千住七丁目北","province":"東京都","city":"荒川区","address":"東京都荒川区南千住7丁目24-24","lat":35.73666891,"lon":139.799465},{"name":"南千住一丁目","province":"東京都","city":"荒川区","address":"東京都荒川区南千住1丁目32-9","lat":35.73291903,"lon":139.79228219},{"name":"南千住三丁目西交番前","province":"東京都","city":"荒川区","address":"東京都荒川区南千住2丁目31-8","lat":35.73001358,"lon":139.79867038},{"name":"南千住四丁目","province":"東京都","city":"荒川区","address":"東京都荒川区南千住4丁目9","lat":35.7362609,"lon":139.8037205},{"name":"南千住駅前","province":"東京都","city":"荒川区","address":"東京都荒川区南千住7丁目1-1","lat":35.73318285,"lon":139.79828712},{"name":"橋場橋通り入口","province":"東京都","city":"荒川区","address":"東京都荒川区南千住4丁目1-1","lat":35.7338137,"lon":139.80141504},{"name":"南千住三丁目","province":"東京都","city":"荒川区","address":"東京都荒川区南千住2丁目31-8","lat":35.73001358,"lon":139.79867038},{"name":"南千住八丁目","province":"東京都","city":"荒川区","address":"東京都荒川区南千住8丁目13","lat":35.73642518,"lon":139.81024806},{"name":"瑞光橋公園前","province":"東京都","city":"荒川区","address":"東京都荒川区南千住8丁目17-1","lat":35.73456159,"lon":139.80941238},{"name":"南千住けやき通り入口","province":"東京都","city":"荒川区","address":"東京都荒川区南千住4丁目9-4","lat":35.73695531,"lon":139.80453431},{"name":"隅田川駅北","province":"東京都","city":"荒川区","address":"東京都荒川区南千住4丁目9","lat":35.7362609,"lon":139.8037205},{"name":"白鬚橋西詰","province":"東京都","city":"荒川区","address":"東京都荒川区南千住3丁目28-67","lat":35.72846805,"lon":139.8084078},{"name":"日暮里中央通り","province":"東京都","city":"荒川区","address":"東京都荒川区東日暮里6丁目15-1","lat":35.72879428,"lon":139.77860864},{"name":"宮地","province":"東京都","city":"荒川区","address":"東京都荒川区荒川5丁目1-1","lat":35.73756853,"lon":139.77661979},{"name":"三河島駅前","province":"東京都","city":"荒川区","address":"東京都荒川区西日暮里1丁目6-10","lat":35.7334439,"lon":139.77674766},{"name":"サンパール荒川前","province":"東京都","city":"荒川区","address":"東京都荒川区荒川1丁目49-2","lat":35.73439995,"lon":139.78501953},{"name":"荒川三丁目","province":"東京都","city":"荒川区","address":"東京都荒川区荒川2丁目4-2","lat":35.73561922,"lon":139.78205309},{"name":"日暮里二丁目","province":"東京都","city":"荒川区","address":"東京都荒川区東日暮里4丁目36-18","lat":35.72504454,"lon":139.77908921},{"name":"西日暮里四丁目","province":"東京都","city":"荒川区","address":"東京都荒川区西日暮里3丁目23-14","lat":35.73128501,"lon":139.76493992},{"name":"西日暮里二丁目","province":"東京都","city":"荒川区","address":"東京都荒川区西日暮里2丁目25-1","lat":35.7295939,"lon":139.77148686},{"name":"第三日暮里小前","province":"東京都","city":"荒川区","address":"東京都荒川区東日暮里3丁目10-17","lat":35.72886384,"lon":139.78137513},{"name":"荒川七丁目","province":"東京都","city":"荒川区","address":"東京都荒川区荒川7丁目4-3","lat":35.74305417,"lon":139.7845799},{"name":"三河島駅前北","province":"東京都","city":"荒川区","address":"東京都荒川区荒川3丁目63-2","lat":35.7340579,"lon":139.77870315},{"name":"東日暮里六丁目","province":"東京都","city":"荒川区","address":"東京都荒川区東日暮里6丁目44-7","lat":35.72884694,"lon":139.77579772},{"name":"東日暮里五丁目","province":"東京都","city":"荒川区","address":"東京都荒川区東日暮里5丁目40-3","lat":35.72644708,"lon":139.77480338},{"name":"東日暮里三丁目","province":"東京都","city":"荒川区","address":"東京都荒川区東日暮里3丁目42-8","lat":35.73165527,"lon":139.77904754},{"name":"東日暮里四丁目","province":"東京都","city":"荒川区","address":"東京都荒川区東日暮里4丁目35-10","lat":35.72597504,"lon":139.77909476},{"name":"西日暮里一丁目東","province":"東京都","city":"荒川区","address":"東京都荒川区西日暮里1丁目3-1","lat":35.73554381,"lon":139.77718099},{"name":"町屋第二","province":"東京都","city":"荒川区","address":"東京都荒川区荒川7丁目46-1","lat":35.74194027,"lon":139.78047194},{"name":"西日暮里五丁目第二","province":"東京都","city":"荒川区","address":"東京都荒川区西日暮里5丁目10-9","lat":35.73234626,"lon":139.76898135},{"name":"西日暮里駅前","province":"東京都","city":"荒川区","address":"東京都荒川区西日暮里3丁目5-1","lat":35.73196836,"lon":139.76645372},{"name":"町屋一丁目","province":"東京都","city":"荒川区","address":"東京都荒川区町屋2丁目2-20","lat":35.74368443,"lon":139.78096337},{"name":"西日暮里一丁目西","province":"東京都","city":"荒川区","address":"東京都荒川区西日暮里1丁目18-5","lat":35.7359158,"lon":139.77484215},{"name":"東日暮里六丁目東","province":"東京都","city":"荒川区","address":"東京都荒川区東日暮里6丁目18-7","lat":35.72887198,"lon":139.77680599},{"name":"東日暮里三丁目南","province":"東京都","city":"荒川区","address":"東京都荒川区東日暮里6丁目6-8","lat":35.73056085,"lon":139.77850034},{"name":"新三河島駅前","province":"東京都","city":"荒川区","address":"東京都荒川区荒川5丁目18-3","lat":35.7378238,"lon":139.77374761},{"name":"西日暮里五丁目東","province":"東京都","city":"荒川区","address":"東京都荒川区西日暮里5丁目6-1","lat":35.73339342,"lon":139.76977294},{"name":"荒川区役所東","province":"東京都","city":"荒川区","address":"東京都荒川区荒川2丁目13-9","lat":35.73696654,"lon":139.7843308},{"name":"荒川区民会館北第一","province":"東京都","city":"荒川区","address":"東京都荒川区荒川2丁目14","lat":35.73626939,"lon":139.78453081},{"name":"荒川区民会館北第二","province":"東京都","city":"荒川区","address":"東京都荒川区荒川2丁目1-3","lat":35.73566385,"lon":139.78460854},{"name":"西日暮里六丁目","province":"東京都","city":"荒川区","address":"東京都荒川区西日暮里6丁目48-6","lat":35.73627917,"lon":139.76858125},{"name":"西日暮里二丁目北","province":"東京都","city":"荒川区","address":"東京都荒川区西日暮里2丁目40-10","lat":35.73146031,"lon":139.77015632},{"name":"地下鉄町屋駅南","province":"東京都","city":"荒川区","address":"東京都荒川区荒川7丁目43-3","lat":35.7409765,"lon":139.7795221},{"name":"日暮里南公園入口","province":"東京都","city":"荒川区","address":"東京都荒川区東日暮里5丁目7-1","lat":35.72707772,"lon":139.77872531},{"name":"かんかん森通り","province":"東京都","city":"荒川区","address":"東京都荒川区東日暮里6丁目14-2","lat":35.72931647,"lon":139.77861421},{"name":"アクロスあらかわ東","province":"東京都","city":"荒川区","address":"東京都荒川区荒川7丁目7-1","lat":35.74078519,"lon":139.78419137},{"name":"日暮里図書館入口","province":"東京都","city":"荒川区","address":"東京都荒川区西日暮里2丁目5-4","lat":35.73164111,"lon":139.77453943},{"name":"西日暮里駅東","province":"東京都","city":"荒川区","address":"東京都荒川区西日暮里5丁目34-5","lat":35.73280165,"lon":139.76727032},{"name":"ひぐらし小学校前","province":"東京都","city":"荒川区","address":"東京都荒川区西日暮里2丁目27-5","lat":35.73049102,"lon":139.77128406},{"name":"京成町屋駅前","province":"東京都","city":"荒川区","address":"東京都荒川区荒川7丁目40-1","lat":35.74234026,"lon":139.7815274},{"name":"ゆいの森あらかわ","province":"東京都","city":"荒川区","address":"東京都荒川区荒川2丁目28","lat":35.73854954,"lon":139.78417502},{"name":"西日暮里一丁目南","province":"東京都","city":"荒川区","address":"東京都荒川区西日暮里1丁目61-18","lat":35.7342129,"lon":139.77143117},{"name":"西日暮里二丁目東","province":"東京都","city":"荒川区","address":"東京都荒川区西日暮里2丁目13-1","lat":35.73030504,"lon":139.77343118},{"name":"第四日暮里小南","province":"東京都","city":"荒川区","address":"東京都荒川区西日暮里2丁目30-1","lat":35.73075217,"lon":139.77237289},{"name":"荒川町屋郵便局前","province":"東京都","city":"荒川区","address":"東京都荒川区町屋1丁目18-1","lat":35.74372064,"lon":139.78314102},{"name":"南千住給水所","province":"東京都","city":"荒川区","address":"東京都荒川区南千住8丁目2-6","lat":35.73577514,"lon":139.80766775},{"name":"大関横丁第二","province":"東京都","city":"荒川区","address":"東京都荒川区東日暮里1丁目3-4","lat":35.73041082,"lon":139.79079062},{"name":"東尾久五丁目","province":"東京都","city":"荒川区","address":"東京都荒川区東尾久2丁目49-7","lat":35.74498085,"lon":139.76946398},{"name":"熊の前","province":"東京都","city":"荒川区","address":"東京都荒川区東尾久8丁目14-1","lat":35.74944131,"lon":139.76929143},{"name":"宮の前","province":"東京都","city":"荒川区","address":"東京都荒川区西尾久2丁目4-17","lat":35.74989939,"lon":139.7651167},{"name":"熊野前交番前","province":"東京都","city":"荒川区","address":"東京都荒川区東尾久6丁目50-9","lat":35.74931641,"lon":139.77100242},{"name":"北豊島学園前","province":"東京都","city":"荒川区","address":"東京都荒川区東尾久6丁目34-24","lat":35.74915541,"lon":139.77331614},{"name":"東京都立大学前","province":"東京都","city":"荒川区","address":"東京都荒川区東尾久7丁目2-10","lat":35.74998303,"lon":139.77211339},{"name":"大門小学校入口","province":"東京都","city":"荒川区","address":"東京都荒川区町屋5丁目7","lat":35.74967765,"lon":139.77732407},{"name":"南千住警察署入口","province":"東京都","city":"荒川区","address":"東京都荒川区南千住6丁目47-8","lat":35.73462169,"lon":139.79419311},{"name":"泪橋","province":"東京都","city":"荒川区","address":"東京都荒川区南千住3丁目5-20","lat":35.72923876,"lon":139.79962882},{"name":"天王神社前","province":"東京都","city":"荒川区","address":"東京都荒川区南千住6丁目60-17","lat":35.73682984,"lon":139.79637343},{"name":"東日暮里一丁目都住前","province":"東京都","city":"荒川区","address":"東京都荒川区東日暮里1丁目5","lat":35.73125248,"lon":139.79047683},{"name":"千住大橋南","province":"東京都","city":"荒川区","address":"東京都荒川区南千住7丁目17-5","lat":35.73736035,"lon":139.79724834},{"name":"南千住二丁目","province":"東京都","city":"荒川区","address":"東京都荒川区南千住2丁目15-5","lat":35.72908002,"lon":139.79570084},{"name":"南千住五丁目","province":"東京都","city":"荒川区","address":"東京都荒川区南千住5丁目12-1","lat":35.73471054,"lon":139.79489023},{"name":"南千住七丁目","province":"東京都","city":"荒川区","address":"東京都荒川区南千住7丁目3","lat":35.73384948,"lon":139.79813714},{"name":"泪橋西","province":"東京都","city":"荒川区","address":"東京都荒川区南千住2丁目27-10","lat":35.72909684,"lon":139.79802027},{"name":"南千住二丁目仲通り","province":"東京都","city":"荒川区","address":"東京都荒川区南千住2丁目20-15","lat":35.730405,"lon":139.7957176},{"name":"南千住七丁目北","province":"東京都","city":"荒川区","address":"東京都荒川区南千住7丁目24-24","lat":35.73666891,"lon":139.799465},{"name":"南千住一丁目","province":"東京都","city":"荒川区","address":"東京都荒川区南千住1丁目32-9","lat":35.73291903,"lon":139.79228219},{"name":"南千住三丁目西交番前","province":"東京都","city":"荒川区","address":"東京都荒川区南千住2丁目31-8","lat":35.73001358,"lon":139.79867038},{"name":"南千住四丁目","province":"東京都","city":"荒川区","address":"東京都荒川区南千住4丁目9","lat":35.7362609,"lon":139.8037205},{"name":"南千住駅前","province":"東京都","city":"荒川区","address":"東京都荒川区南千住7丁目1-1","lat":35.73318285,"lon":139.79828712},{"name":"橋場橋通り入口","province":"東京都","city":"荒川区","address":"東京都荒川区南千住4丁目1-1","lat":35.7338137,"lon":139.80141504},{"name":"南千住三丁目","province":"東京都","city":"荒川区","address":"東京都荒川区南千住2丁目31-8","lat":35.73001358,"lon":139.79867038},{"name":"南千住八丁目","province":"東京都","city":"荒川区","address":"東京都荒川区南千住8丁目13","lat":35.73642518,"lon":139.81024806},{"name":"瑞光橋公園前","province":"東京都","city":"荒川区","address":"東京都荒川区南千住8丁目17-1","lat":35.73456159,"lon":139.80941238},{"name":"南千住けやき通り入口","province":"東京都","city":"荒川区","address":"東京都荒川区南千住4丁目9-4","lat":35.73695531,"lon":139.80453431},{"name":"隅田川駅北","province":"東京都","city":"荒川区","address":"東京都荒川区南千住4丁目9","lat":35.7362609,"lon":139.8037205},{"name":"白鬚橋西詰","province":"東京都","city":"荒川区","address":"東京都荒川区南千住3丁目28-67","lat":35.72846805,"lon":139.8084078},{"name":"日暮里中央通り","province":"東京都","city":"荒川区","address":"東京都荒川区東日暮里6丁目15-1","lat":35.72879428,"lon":139.77860864},{"name":"宮地","province":"東京都","city":"荒川区","address":"東京都荒川区荒川5丁目1-1","lat":35.73756853,"lon":139.77661979},{"name":"三河島駅前","province":"東京都","city":"荒川区","address":"東京都荒川区西日暮里1丁目6-10","lat":35.7334439,"lon":139.77674766},{"name":"サンパール荒川前","province":"東京都","city":"荒川区","address":"東京都荒川区荒川1丁目49-2","lat":35.73439995,"lon":139.78501953},{"name":"荒川三丁目","province":"東京都","city":"荒川区","address":"東京都荒川区荒川2丁目4-2","lat":35.73561922,"lon":139.78205309},{"name":"日暮里二丁目","province":"東京都","city":"荒川区","address":"東京都荒川区東日暮里4丁目36-18","lat":35.72504454,"lon":139.77908921},{"name":"西日暮里四丁目","province":"東京都","city":"荒川区","address":"東京都荒川区西日暮里3丁目23-14","lat":35.73128501,"lon":139.76493992},{"name":"西日暮里二丁目","province":"東京都","city":"荒川区","address":"東京都荒川区西日暮里2丁目25-1","lat":35.7295939,"lon":139.77148686},{"name":"第三日暮里小前","province":"東京都","city":"荒川区","address":"東京都荒川区東日暮里3丁目10-17","lat":35.72886384,"lon":139.78137513},{"name":"荒川七丁目","province":"東京都","city":"荒川区","address":"東京都荒川区荒川7丁目4-3","lat":35.74305417,"lon":139.7845799},{"name":"三河島駅前北","province":"東京都","city":"荒川区","address":"東京都荒川区荒川3丁目63-2","lat":35.7340579,"lon":139.77870315},{"name":"東日暮里六丁目","province":"東京都","city":"荒川区","address":"東京都荒川区東日暮里6丁目44-7","lat":35.72884694,"lon":139.77579772},{"name":"東日暮里五丁目","province":"東京都","city":"荒川区","address":"東京都荒川区東日暮里5丁目40-3","lat":35.72644708,"lon":139.77480338},{"name":"東日暮里三丁目","province":"東京都","city":"荒川区","address":"東京都荒川区東日暮里3丁目42-8","lat":35.73165527,"lon":139.77904754},{"name":"東日暮里四丁目","province":"東京都","city":"荒川区","address":"東京都荒川区東日暮里4丁目35-10","lat":35.72597504,"lon":139.77909476},{"name":"西日暮里一丁目東","province":"東京都","city":"荒川区","address":"東京都荒川区西日暮里1丁目3-1","lat":35.73554381,"lon":139.77718099},{"name":"町屋第二","province":"東京都","city":"荒川区","address":"東京都荒川区荒川7丁目46-1","lat":35.74194027,"lon":139.78047194},{"name":"西日暮里五丁目第二","province":"東京都","city":"荒川区","address":"東京都荒川区西日暮里5丁目10-9","lat":35.73234626,"lon":139.76898135},{"name":"西日暮里駅前","province":"東京都","city":"荒川区","address":"東京都荒川区西日暮里3丁目5-1","lat":35.73196836,"lon":139.76645372},{"name":"町屋一丁目","province":"東京都","city":"荒川区","address":"東京都荒川区町屋2丁目2-20","lat":35.74368443,"lon":139.78096337},{"name":"西日暮里一丁目西","province":"東京都","city":"荒川区","address":"東京都荒川区西日暮里1丁目18-5","lat":35.7359158,"lon":139.77484215},{"name":"東日暮里六丁目東","province":"東京都","city":"荒川区","address":"東京都荒川区東日暮里6丁目18-7","lat":35.72887198,"lon":139.77680599},{"name":"東日暮里三丁目南","province":"東京都","city":"荒川区","address":"東京都荒川区東日暮里6丁目6-8","lat":35.73056085,"lon":139.77850034},{"name":"新三河島駅前","province":"東京都","city":"荒川区","address":"東京都荒川区荒川5丁目18-3","lat":35.7378238,"lon":139.77374761},{"name":"西日暮里五丁目東","province":"東京都","city":"荒川区","address":"東京都荒川区西日暮里5丁目6-1","lat":35.73339342,"lon":139.76977294},{"name":"荒川区役所東","province":"東京都","city":"荒川区","address":"東京都荒川区荒川2丁目13-9","lat":35.73696654,"lon":139.7843308},{"name":"荒川区民会館北第一","province":"東京都","city":"荒川区","address":"東京都荒川区荒川2丁目14","lat":35.73626939,"lon":139.78453081},{"name":"荒川区民会館北第二","province":"東京都","city":"荒川区","address":"東京都荒川区荒川2丁目1-3","lat":35.73566385,"lon":139.78460854},{"name":"西日暮里六丁目","province":"東京都","city":"荒川区","address":"東京都荒川区西日暮里6丁目48-6","lat":35.73627917,"lon":139.76858125},{"name":"西日暮里二丁目北","province":"東京都","city":"荒川区","address":"東京都荒川区西日暮里2丁目40-10","lat":35.73146031,"lon":139.77015632},{"name":"地下鉄町屋駅南","province":"東京都","city":"荒川区","address":"東京都荒川区荒川7丁目43-3","lat":35.7409765,"lon":139.7795221},{"name":"日暮里南公園入口","province":"東京都","city":"荒川区","address":"東京都荒川区東日暮里5丁目7-1","lat":35.72707772,"lon":139.77872531},{"name":"かんかん森通り","province":"東京都","city":"荒川区","address":"東京都荒川区東日暮里6丁目14-2","lat":35.72931647,"lon":139.77861421},{"name":"アクロスあらかわ東","province":"東京都","city":"荒川区","address":"東京都荒川区荒川7丁目7-1","lat":35.74078519,"lon":139.78419137},{"name":"日暮里図書館入口","province":"東京都","city":"荒川区","address":"東京都荒川区西日暮里2丁目5-4","lat":35.73164111,"lon":139.77453943},{"name":"西日暮里駅東","province":"東京都","city":"荒川区","address":"東京都荒川区西日暮里5丁目34-5","lat":35.73280165,"lon":139.76727032},{"name":"ひぐらし小学校前","province":"東京都","city":"荒川区","address":"東京都荒川区西日暮里2丁目27-5","lat":35.73049102,"lon":139.77128406},{"name":"京成町屋駅前","province":"東京都","city":"荒川区","address":"東京都荒川区荒川7丁目40-1","lat":35.74234026,"lon":139.7815274},{"name":"ゆいの森あらかわ","province":"東京都","city":"荒川区","address":"東京都荒川区荒川2丁目28","lat":35.73854954,"lon":139.78417502},{"name":"西日暮里一丁目南","province":"東京都","city":"荒川区","address":"東京都荒川区西日暮里1丁目61-18","lat":35.7342129,"lon":139.77143117},{"name":"西日暮里二丁目東","province":"東京都","city":"荒川区","address":"東京都荒川区西日暮里2丁目13-1","lat":35.73030504,"lon":139.77343118},{"name":"第四日暮里小南","province":"東京都","city":"荒川区","address":"東京都荒川区西日暮里2丁目30-1","lat":35.73075217,"lon":139.77237289},{"name":"荒川町屋郵便局前","province":"東京都","city":"荒川区","address":"東京都荒川区町屋1丁目18-1","lat":35.74372064,"lon":139.78314102},{"name":"南千住給水所","province":"東京都","city":"荒川区","address":"東京都荒川区南千住8丁目2-6","lat":35.73577514,"lon":139.80766775},{"name":"大関横丁第二","province":"東京都","city":"荒川区","address":"東京都荒川区東日暮里1丁目3-4","lat":35.73041082,"lon":139.79079062},{"name":"東尾久五丁目","province":"東京都","city":"荒川区","address":"東京都荒川区東尾久2丁目49-7","lat":35.74498085,"lon":139.76946398},{"name":"熊の前","province":"東京都","city":"荒川区","address":"東京都荒川区東尾久8丁目14-1","lat":35.74944131,"lon":139.76929143},{"name":"宮の前","province":"東京都","city":"荒川区","address":"東京都荒川区西尾久2丁目4-17","lat":35.74989939,"lon":139.7651167},{"name":"熊野前交番前","province":"東京都","city":"荒川区","address":"東京都荒川区東尾久6丁目50-9","lat":35.74931641,"lon":139.77100242},{"name":"北豊島学園前","province":"東京都","city":"荒川区","address":"東京都荒川区東尾久6丁目34-24","lat":35.74915541,"lon":139.77331614},{"name":"東京都立大学前","province":"東京都","city":"荒川区","address":"東京都荒川区東尾久7丁目2-10","lat":35.74998303,"lon":139.77211339},{"name":"大門小学校入口","province":"東京都","city":"荒川区","address":"東京都荒川区町屋5丁目7","lat":35.74967765,"lon":139.77732407},{"name":"南千住警察署入口","province":"東京都","city":"荒川区","address":"東京都荒川区南千住6丁目47-8","lat":35.73462169,"lon":139.79419311},{"name":"泪橋","province":"東京都","city":"荒川区","address":"東京都荒川区南千住3丁目5-20","lat":35.72923876,"lon":139.79962882},{"name":"天王神社前","province":"東京都","city":"荒川区","address":"東京都荒川区南千住6丁目60-17","lat":35.73682984,"lon":139.79637343},{"name":"東日暮里一丁目都住前","province":"東京都","city":"荒川区","address":"東京都荒川区東日暮里1丁目5","lat":35.73125248,"lon":139.79047683},{"name":"千住大橋南","province":"東京都","city":"荒川区","address":"東京都荒川区南千住7丁目17-5","lat":35.73736035,"lon":139.79724834},{"name":"南千住二丁目","province":"東京都","city":"荒川区","address":"東京都荒川区南千住2丁目15-5","lat":35.72908002,"lon":139.79570084},{"name":"南千住五丁目","province":"東京都","city":"荒川区","address":"東京都荒川区南千住5丁目12-1","lat":35.73471054,"lon":139.79489023},{"name":"南千住七丁目","province":"東京都","city":"荒川区","address":"東京都荒川区南千住7丁目3","lat":35.73384948,"lon":139.79813714},{"name":"泪橋西","province":"東京都","city":"荒川区","address":"東京都荒川区南千住2丁目27-10","lat":35.72909684,"lon":139.79802027},{"name":"南千住二丁目仲通り","province":"東京都","city":"荒川区","address":"東京都荒川区南千住2丁目20-15","lat":35.730405,"lon":139.7957176},{"name":"南千住七丁目北","province":"東京都","city":"荒川区","address":"東京都荒川区南千住7丁目24-24","lat":35.73666891,"lon":139.799465},{"name":"南千住一丁目","province":"東京都","city":"荒川区","address":"東京都荒川区南千住1丁目32-9","lat":35.73291903,"lon":139.79228219},{"name":"南千住三丁目西交番前","province":"東京都","city":"荒川区","address":"東京都荒川区南千住2丁目31-8","lat":35.73001358,"lon":139.79867038},{"name":"南千住四丁目","province":"東京都","city":"荒川区","address":"東京都荒川区南千住4丁目9","lat":35.7362609,"lon":139.8037205},{"name":"南千住駅前","province":"東京都","city":"荒川区","address":"東京都荒川区南千住7丁目1-1","lat":35.73318285,"lon":139.79828712},{"name":"橋場橋通り入口","province":"東京都","city":"荒川区","address":"東京都荒川区南千住4丁目1-1","lat":35.7338137,"lon":139.80141504},{"name":"南千住三丁目","province":"東京都","city":"荒川区","address":"東京都荒川区南千住2丁目31-8","lat":35.73001358,"lon":139.79867038},{"name":"南千住八丁目","province":"東京都","city":"荒川区","address":"東京都荒川区南千住8丁目13","lat":35.73642518,"lon":139.81024806},{"name":"瑞光橋公園前","province":"東京都","city":"荒川区","address":"東京都荒川区南千住8丁目17-1","lat":35.73456159,"lon":139.80941238},{"name":"南千住けやき通り入口","province":"東京都","city":"荒川区","address":"東京都荒川区南千住4丁目9-4","lat":35.73695531,"lon":139.80453431},{"name":"隅田川駅北","province":"東京都","city":"荒川区","address":"東京都荒川区南千住4丁目9","lat":35.7362609,"lon":139.8037205},{"name":"白鬚橋西詰","province":"東京都","city":"荒川区","address":"東京都荒川区南千住3丁目28-67","lat":35.72846805,"lon":139.8084078},{"name":"日暮里中央通り","province":"東京都","city":"荒川区","address":"東京都荒川区東日暮里6丁目15-1","lat":35.72879428,"lon":139.77860864},{"name":"宮地","province":"東京都","city":"荒川区","address":"東京都荒川区荒川5丁目1-1","lat":35.73756853,"lon":139.77661979},{"name":"三河島駅前","province":"東京都","city":"荒川区","address":"東京都荒川区西日暮里1丁目6-10","lat":35.7334439,"lon":139.77674766},{"name":"サンパール荒川前","province":"東京都","city":"荒川区","address":"東京都荒川区荒川1丁目49-2","lat":35.73439995,"lon":139.78501953},{"name":"荒川三丁目","province":"東京都","city":"荒川区","address":"東京都荒川区荒川2丁目4-2","lat":35.73561922,"lon":139.78205309},{"name":"日暮里二丁目","province":"東京都","city":"荒川区","address":"東京都荒川区東日暮里4丁目36-18","lat":35.72504454,"lon":139.77908921},{"name":"西日暮里四丁目","province":"東京都","city":"荒川区","address":"東京都荒川区西日暮里3丁目23-14","lat":35.73128501,"lon":139.76493992},{"name":"西日暮里二丁目","province":"東京都","city":"荒川区","address":"東京都荒川区西日暮里2丁目25-1","lat":35.7295939,"lon":139.77148686},{"name":"第三日暮里小前","province":"東京都","city":"荒川区","address":"東京都荒川区東日暮里3丁目10-17","lat":35.72886384,"lon":139.78137513},{"name":"荒川七丁目","province":"東京都","city":"荒川区","address":"東京都荒川区荒川7丁目4-3","lat":35.74305417,"lon":139.7845799},{"name":"三河島駅前北","province":"東京都","city":"荒川区","address":"東京都荒川区荒川3丁目63-2","lat":35.7340579,"lon":139.77870315},{"name":"東日暮里六丁目","province":"東京都","city":"荒川区","address":"東京都荒川区東日暮里6丁目44-7","lat":35.72884694,"lon":139.77579772},{"name":"東日暮里五丁目","province":"東京都","city":"荒川区","address":"東京都荒川区東日暮里5丁目40-3","lat":35.72644708,"lon":139.77480338},{"name":"東日暮里三丁目","province":"東京都","city":"荒川区","address":"東京都荒川区東日暮里3丁目42-8","lat":35.73165527,"lon":139.77904754},{"name":"東日暮里四丁目","province":"東京都","city":"荒川区","address":"東京都荒川区東日暮里4丁目35-10","lat":35.72597504,"lon":139.77909476},{"name":"西日暮里一丁目東","province":"東京都","city":"荒川区","address":"東京都荒川区西日暮里1丁目3-1","lat":35.73554381,"lon":139.77718099},{"name":"町屋第二","province":"東京都","city":"荒川区","address":"東京都荒川区荒川7丁目46-1","lat":35.74194027,"lon":139.78047194},{"name":"西日暮里五丁目第二","province":"東京都","city":"荒川区","address":"東京都荒川区西日暮里5丁目10-9","lat":35.73234626,"lon":139.76898135},{"name":"西日暮里駅前","province":"東京都","city":"荒川区","address":"東京都荒川区西日暮里3丁目5-1","lat":35.73196836,"lon":139.76645372},{"name":"町屋一丁目","province":"東京都","city":"荒川区","address":"東京都荒川区町屋2丁目2-20","lat":35.74368443,"lon":139.78096337},{"name":"西日暮里一丁目西","province":"東京都","city":"荒川区","address":"東京都荒川区西日暮里1丁目18-5","lat":35.7359158,"lon":139.77484215},{"name":"東日暮里六丁目東","province":"東京都","city":"荒川区","address":"東京都荒川区東日暮里6丁目18-7","lat":35.72887198,"lon":139.77680599},{"name":"東日暮里三丁目南","province":"東京都","city":"荒川区","address":"東京都荒川区東日暮里6丁目6-8","lat":35.73056085,"lon":139.77850034},{"name":"新三河島駅前","province":"東京都","city":"荒川区","address":"東京都荒川区荒川5丁目18-3","lat":35.7378238,"lon":139.77374761},{"name":"西日暮里五丁目東","province":"東京都","city":"荒川区","address":"東京都荒川区西日暮里5丁目6-1","lat":35.73339342,"lon":139.76977294},{"name":"荒川区役所東","province":"東京都","city":"荒川区","address":"東京都荒川区荒川2丁目13-9","lat":35.73696654,"lon":139.7843308},{"name":"荒川区民会館北第一","province":"東京都","city":"荒川区","address":"東京都荒川区荒川2丁目14","lat":35.73626939,"lon":139.78453081},{"name":"荒川区民会館北第二","province":"東京都","city":"荒川区","address":"東京都荒川区荒川2丁目1-3","lat":35.73566385,"lon":139.78460854},{"name":"西日暮里六丁目","province":"東京都","city":"荒川区","address":"東京都荒川区西日暮里6丁目48-6","lat":35.73627917,"lon":139.76858125},{"name":"西日暮里二丁目北","province":"東京都","city":"荒川区","address":"東京都荒川区西日暮里2丁目40-10","lat":35.73146031,"lon":139.77015632},{"name":"地下鉄町屋駅南","province":"東京都","city":"荒川区","address":"東京都荒川区荒川7丁目43-3","lat":35.7409765,"lon":139.7795221},{"name":"日暮里南公園入口","province":"東京都","city":"荒川区","address":"東京都荒川区東日暮里5丁目7-1","lat":35.72707772,"lon":139.77872531},{"name":"かんかん森通り","province":"東京都","city":"荒川区","address":"東京都荒川区東日暮里6丁目14-2","lat":35.72931647,"lon":139.77861421},{"name":"アクロスあらかわ東","province":"東京都","city":"荒川区","address":"東京都荒川区荒川7丁目7-1","lat":35.74078519,"lon":139.78419137},{"name":"日暮里図書館入口","province":"東京都","city":"荒川区","address":"東京都荒川区西日暮里2丁目5-4","lat":35.73164111,"lon":139.77453943},{"name":"西日暮里駅東","province":"東京都","city":"荒川区","address":"東京都荒川区西日暮里5丁目34-5","lat":35.73280165,"lon":139.76727032},{"name":"ひぐらし小学校前","province":"東京都","city":"荒川区","address":"東京都荒川区西日暮里2丁目27-5","lat":35.73049102,"lon":139.77128406},{"name":"京成町屋駅前","province":"東京都","city":"荒川区","address":"東京都荒川区荒川7丁目40-1","lat":35.74234026,"lon":139.7815274},{"name":"ゆいの森あらかわ","province":"東京都","city":"荒川区","address":"東京都荒川区荒川2丁目28","lat":35.73854954,"lon":139.78417502},{"name":"西日暮里一丁目南","province":"東京都","city":"荒川区","address":"東京都荒川区西日暮里1丁目61-18","lat":35.7342129,"lon":139.77143117},{"name":"西日暮里二丁目東","province":"東京都","city":"荒川区","address":"東京都荒川区西日暮里2丁目13-1","lat":35.73030504,"lon":139.77343118},{"name":"第四日暮里小南","province":"東京都","city":"荒川区","address":"東京都荒川区西日暮里2丁目30-1","lat":35.73075217,"lon":139.77237289},{"name":"荒川町屋郵便局前","province":"東京都","city":"荒川区","address":"東京都荒川区町屋1丁目18-1","lat":35.74372064,"lon":139.78314102},{"name":"南千住給水所","province":"東京都","city":"荒川区","address":"東京都荒川区南千住8丁目2-6","lat":35.73577514,"lon":139.80766775},{"name":"大関横丁第二","province":"東京都","city":"荒川区","address":"東京都荒川区東日暮里1丁目3-4","lat":35.73041082,"lon":139.79079062},{"name":"東尾久五丁目","province":"東京都","city":"荒川区","address":"東京都荒川区東尾久2丁目49-7","lat":35.74498085,"lon":139.76946398},{"name":"熊の前","province":"東京都","city":"荒川区","address":"東京都荒川区東尾久8丁目14-1","lat":35.74944131,"lon":139.76929143},{"name":"宮の前","province":"東京都","city":"荒川区","address":"東京都荒川区西尾久2丁目4-17","lat":35.74989939,"lon":139.7651167},{"name":"熊野前交番前","province":"東京都","city":"荒川区","address":"東京都荒川区東尾久6丁目50-9","lat":35.74931641,"lon":139.77100242},{"name":"北豊島学園前","province":"東京都","city":"荒川区","address":"東京都荒川区東尾久6丁目34-24","lat":35.74915541,"lon":139.77331614},{"name":"東京都立大学前","province":"東京都","city":"荒川区","address":"東京都荒川区東尾久7丁目2-10","lat":35.74998303,"lon":139.77211339},{"name":"大門小学校入口","province":"東京都","city":"荒川区","address":"東京都荒川区町屋5丁目7","lat":35.74967765,"lon":139.77732407},{"name":"南千住警察署入口","province":"東京都","city":"荒川区","address":"東京都荒川区南千住6丁目47-8","lat":35.73462169,"lon":139.79419311},{"name":"泪橋","province":"東京都","city":"荒川区","address":"東京都荒川区南千住3丁目5-20","lat":35.72923876,"lon":139.79962882},{"name":"天王神社前","province":"東京都","city":"荒川区","address":"東京都荒川区南千住6丁目60-17","lat":35.73682984,"lon":139.79637343},{"name":"東日暮里一丁目都住前","province":"東京都","city":"荒川区","address":"東京都荒川区東日暮里1丁目5","lat":35.73125248,"lon":139.79047683},{"name":"千住大橋南","province":"東京都","city":"荒川区","address":"東京都荒川区南千住7丁目17-5","lat":35.73736035,"lon":139.79724834},{"name":"南千住二丁目","province":"東京都","city":"荒川区","address":"東京都荒川区南千住2丁目15-5","lat":35.72908002,"lon":139.79570084},{"name":"南千住五丁目","province":"東京都","city":"荒川区","address":"東京都荒川区南千住5丁目12-1","lat":35.73471054,"lon":139.79489023},{"name":"南千住七丁目","province":"東京都","city":"荒川区","address":"東京都荒川区南千住7丁目3","lat":35.73384948,"lon":139.79813714},{"name":"泪橋西","province":"東京都","city":"荒川区","address":"東京都荒川区南千住2丁目27-10","lat":35.72909684,"lon":139.79802027},{"name":"南千住二丁目仲通り","province":"東京都","city":"荒川区","address":"東京都荒川区南千住2丁目20-15","lat":35.730405,"lon":139.7957176},{"name":"南千住七丁目北","province":"東京都","city":"荒川区","address":"東京都荒川区南千住7丁目24-24","lat":35.73666891,"lon":139.799465},{"name":"南千住一丁目","province":"東京都","city":"荒川区","address":"東京都荒川区南千住1丁目32-9","lat":35.73291903,"lon":139.79228219},{"name":"南千住三丁目西交番前","province":"東京都","city":"荒川区","address":"東京都荒川区南千住2丁目31-8","lat":35.73001358,"lon":139.79867038},{"name":"南千住四丁目","province":"東京都","city":"荒川区","address":"東京都荒川区南千住4丁目9","lat":35.7362609,"lon":139.8037205},{"name":"南千住駅前","province":"東京都","city":"荒川区","address":"東京都荒川区南千住7丁目1-1","lat":35.73318285,"lon":139.79828712},{"name":"橋場橋通り入口","province":"東京都","city":"荒川区","address":"東京都荒川区南千住4丁目1-1","lat":35.7338137,"lon":139.80141504},{"name":"南千住三丁目","province":"東京都","city":"荒川区","address":"東京都荒川区南千住2丁目31-8","lat":35.73001358,"lon":139.79867038},{"name":"南千住八丁目","province":"東京都","city":"荒川区","address":"東京都荒川区南千住8丁目13","lat":35.73642518,"lon":139.81024806},{"name":"瑞光橋公園前","province":"東京都","city":"荒川区","address":"東京都荒川区南千住8丁目17-1","lat":35.73456159,"lon":139.80941238},{"name":"南千住けやき通り入口","province":"東京都","city":"荒川区","address":"東京都荒川区南千住4丁目9-4","lat":35.73695531,"lon":139.80453431},{"name":"隅田川駅北","province":"東京都","city":"荒川区","address":"東京都荒川区南千住4丁目9","lat":35.7362609,"lon":139.8037205},{"name":"白鬚橋西詰","province":"東京都","city":"荒川区","address":"東京都荒川区南千住3丁目28-67","lat":35.72846805,"lon":139.8084078},{"name":"日暮里中央通り","province":"東京都","city":"荒川区","address":"東京都荒川区東日暮里6丁目15-1","lat":35.72879428,"lon":139.77860864},{"name":"宮地","province":"東京都","city":"荒川区","address":"東京都荒川区荒川5丁目1-1","lat":35.73756853,"lon":139.77661979},{"name":"三河島駅前","province":"東京都","city":"荒川区","address":"東京都荒川区西日暮里1丁目6-10","lat":35.7334439,"lon":139.77674766},{"name":"サンパール荒川前","province":"東京都","city":"荒川区","address":"東京都荒川区荒川1丁目49-2","lat":35.73439995,"lon":139.78501953},{"name":"荒川三丁目","province":"東京都","city":"荒川区","address":"東京都荒川区荒川2丁目4-2","lat":35.73561922,"lon":139.78205309},{"name":"日暮里二丁目","province":"東京都","city":"荒川区","address":"東京都荒川区東日暮里4丁目36-18","lat":35.72504454,"lon":139.77908921},{"name":"西日暮里四丁目","province":"東京都","city":"荒川区","address":"東京都荒川区西日暮里3丁目23-14","lat":35.73128501,"lon":139.76493992},{"name":"西日暮里二丁目","province":"東京都","city":"荒川区","address":"東京都荒川区西日暮里2丁目25-1","lat":35.7295939,"lon":139.77148686},{"name":"第三日暮里小前","province":"東京都","city":"荒川区","address":"東京都荒川区東日暮里3丁目10-17","lat":35.72886384,"lon":139.78137513},{"name":"荒川七丁目","province":"東京都","city":"荒川区","address":"東京都荒川区荒川7丁目4-3","lat":35.74305417,"lon":139.7845799},{"name":"三河島駅前北","province":"東京都","city":"荒川区","address":"東京都荒川区荒川3丁目63-2","lat":35.7340579,"lon":139.77870315},{"name":"東日暮里六丁目","province":"東京都","city":"荒川区","address":"東京都荒川区東日暮里6丁目44-7","lat":35.72884694,"lon":139.77579772},{"name":"東日暮里五丁目","province":"東京都","city":"荒川区","address":"東京都荒川区東日暮里5丁目40-3","lat":35.72644708,"lon":139.77480338},{"name":"東日暮里三丁目","province":"東京都","city":"荒川区","address":"東京都荒川区東日暮里3丁目42-8","lat":35.73165527,"lon":139.77904754},{"name":"東日暮里四丁目","province":"東京都","city":"荒川区","address":"東京都荒川区東日暮里4丁目35-10","lat":35.72597504,"lon":139.77909476},{"name":"西日暮里一丁目東","province":"東京都","city":"荒川区","address":"東京都荒川区西日暮里1丁目3-1","lat":35.73554381,"lon":139.77718099},{"name":"町屋第二","province":"東京都","city":"荒川区","address":"東京都荒川区荒川7丁目46-1","lat":35.74194027,"lon":139.78047194},{"name":"西日暮里五丁目第二","province":"東京都","city":"荒川区","address":"東京都荒川区西日暮里5丁目10-9","lat":35.73234626,"lon":139.76898135},{"name":"西日暮里駅前","province":"東京都","city":"荒川区","address":"東京都荒川区西日暮里3丁目5-1","lat":35.73196836,"lon":139.76645372},{"name":"町屋一丁目","province":"東京都","city":"荒川区","address":"東京都荒川区町屋2丁目2-20","lat":35.74368443,"lon":139.78096337},{"name":"西日暮里一丁目西","province":"東京都","city":"荒川区","address":"東京都荒川区西日暮里1丁目18-5","lat":35.7359158,"lon":139.77484215},{"name":"東日暮里六丁目東","province":"東京都","city":"荒川区","address":"東京都荒川区東日暮里6丁目18-7","lat":35.72887198,"lon":139.77680599},{"name":"東日暮里三丁目南","province":"東京都","city":"荒川区","address":"東京都荒川区東日暮里6丁目6-8","lat":35.73056085,"lon":139.77850034},{"name":"新三河島駅前","province":"東京都","city":"荒川区","address":"東京都荒川区荒川5丁目18-3","lat":35.7378238,"lon":139.77374761},{"name":"西日暮里五丁目東","province":"東京都","city":"荒川区","address":"東京都荒川区西日暮里5丁目6-1","lat":35.73339342,"lon":139.76977294},{"name":"荒川区役所東","province":"東京都","city":"荒川区","address":"東京都荒川区荒川2丁目13-9","lat":35.73696654,"lon":139.7843308},{"name":"荒川区民会館北第一","province":"東京都","city":"荒川区","address":"東京都荒川区荒川2丁目14","lat":35.73626939,"lon":139.78453081},{"name":"荒川区民会館北第二","province":"東京都","city":"荒川区","address":"東京都荒川区荒川2丁目1-3","lat":35.73566385,"lon":139.78460854},{"name":"西日暮里六丁目","province":"東京都","city":"荒川区","address":"東京都荒川区西日暮里6丁目48-6","lat":35.73627917,"lon":139.76858125},{"name":"西日暮里二丁目北","province":"東京都","city":"荒川区","address":"東京都荒川区西日暮里2丁目40-10","lat":35.73146031,"lon":139.77015632},{"name":"地下鉄町屋駅南","province":"東京都","city":"荒川区","address":"東京都荒川区荒川7丁目43-3","lat":35.7409765,"lon":139.7795221},{"name":"日暮里南公園入口","province":"東京都","city":"荒川区","address":"東京都荒川区東日暮里5丁目7-1","lat":35.72707772,"lon":139.77872531},{"name":"かんかん森通り","province":"東京都","city":"荒川区","address":"東京都荒川区東日暮里6丁目14-2","lat":35.72931647,"lon":139.77861421},{"name":"アクロスあらかわ東","province":"東京都","city":"荒川区","address":"東京都荒川区荒川7丁目7-1","lat":35.74078519,"lon":139.78419137},{"name":"日暮里図書館入口","province":"東京都","city":"荒川区","address":"東京都荒川区西日暮里2丁目5-4","lat":35.73164111,"lon":139.77453943},{"name":"西日暮里駅東","province":"東京都","city":"荒川区","address":"東京都荒川区西日暮里5丁目34-5","lat":35.73280165,"lon":139.76727032},{"name":"ひぐらし小学校前","province":"東京都","city":"荒川区","address":"東京都荒川区西日暮里2丁目27-5","lat":35.73049102,"lon":139.77128406},{"name":"京成町屋駅前","province":"東京都","city":"荒川区","address":"東京都荒川区荒川7丁目40-1","lat":35.74234026,"lon":139.7815274},{"name":"ゆいの森あらかわ","province":"東京都","city":"荒川区","address":"東京都荒川区荒川2丁目28","lat":35.73854954,"lon":139.78417502},{"name":"西日暮里一丁目南","province":"東京都","city":"荒川区","address":"東京都荒川区西日暮里1丁目61-18","lat":35.7342129,"lon":139.77143117},{"name":"西日暮里二丁目東","province":"東京都","city":"荒川区","address":"東京都荒川区西日暮里2丁目13-1","lat":35.73030504,"lon":139.77343118},{"name":"第四日暮里小南","province":"東京都","city":"荒川区","address":"東京都荒川区西日暮里2丁目30-1","lat":35.73075217,"lon":139.77237289},{"name":"荒川町屋郵便局前","province":"東京都","city":"荒川区","address":"東京都荒川区町屋1丁目18-1","lat":35.74372064,"lon":139.78314102},{"name":"南千住給水所","province":"東京都","city":"荒川区","address":"東京都荒川区南千住8丁目2-6","lat":35.73577514,"lon":139.80766775},{"name":"大関横丁第二","province":"東京都","city":"荒川区","address":"東京都荒川区東日暮里1丁目3-4","lat":35.73041082,"lon":139.79079062},{"name":"東尾久五丁目","province":"東京都","city":"荒川区","address":"東京都荒川区東尾久2丁目49-7","lat":35.74498085,"lon":139.76946398},{"name":"熊の前","province":"東京都","city":"荒川区","address":"東京都荒川区東尾久8丁目14-1","lat":35.74944131,"lon":139.76929143},{"name":"宮の前","province":"東京都","city":"荒川区","address":"東京都荒川区西尾久2丁目4-17","lat":35.74989939,"lon":139.7651167},{"name":"熊野前交番前","province":"東京都","city":"荒川区","address":"東京都荒川区東尾久6丁目50-9","lat":35.74931641,"lon":139.77100242},{"name":"北豊島学園前","province":"東京都","city":"荒川区","address":"東京都荒川区東尾久6丁目34-24","lat":35.74915541,"lon":139.77331614},{"name":"東京都立大学前","province":"東京都","city":"荒川区","address":"東京都荒川区東尾久7丁目2-10","lat":35.74998303,"lon":139.77211339},{"name":"大門小学校入口","province":"東京都","city":"荒川区","address":"東京都荒川区町屋5丁目7","lat":35.74967765,"lon":139.77732407},{"name":"南千住警察署入口","province":"東京都","city":"荒川区","address":"東京都荒川区南千住6丁目47-8","lat":35.73462169,"lon":139.79419311},{"name":"泪橋","province":"東京都","city":"荒川区","address":"東京都荒川区南千住3丁目5-20","lat":35.72923876,"lon":139.79962882},{"name":"天王神社前","province":"東京都","city":"荒川区","address":"東京都荒川区南千住6丁目60-17","lat":35.73682984,"lon":139.79637343},{"name":"東日暮里一丁目都住前","province":"東京都","city":"荒川区","address":"東京都荒川区東日暮里1丁目5","lat":35.73125248,"lon":139.79047683},{"name":"千住大橋南","province":"東京都","city":"荒川区","address":"東京都荒川区南千住7丁目17-5","lat":35.73736035,"lon":139.79724834},{"name":"南千住二丁目","province":"東京都","city":"荒川区","address":"東京都荒川区南千住2丁目15-5","lat":35.72908002,"lon":139.79570084},{"name":"南千住五丁目","province":"東京都","city":"荒川区","address":"東京都荒川区南千住5丁目12-1","lat":35.73471054,"lon":139.79489023},{"name":"南千住七丁目","province":"東京都","city":"荒川区","address":"東京都荒川区南千住7丁目3","lat":35.73384948,"lon":139.79813714},{"name":"泪橋西","province":"東京都","city":"荒川区","address":"東京都荒川区南千住2丁目27-10","lat":35.72909684,"lon":139.79802027},{"name":"南千住二丁目仲通り","province":"東京都","city":"荒川区","address":"東京都荒川区南千住2丁目20-15","lat":35.730405,"lon":139.7957176},{"name":"南千住七丁目北","province":"東京都","city":"荒川区","address":"東京都荒川区南千住7丁目24-24","lat":35.73666891,"lon":139.799465},{"name":"南千住一丁目","province":"東京都","city":"荒川区","address":"東京都荒川区南千住1丁目32-9","lat":35.73291903,"lon":139.79228219},{"name":"南千住三丁目西交番前","province":"東京都","city":"荒川区","address":"東京都荒川区南千住2丁目31-8","lat":35.73001358,"lon":139.79867038},{"name":"南千住四丁目","province":"東京都","city":"荒川区","address":"東京都荒川区南千住4丁目9","lat":35.7362609,"lon":139.8037205},{"name":"南千住駅前","province":"東京都","city":"荒川区","address":"東京都荒川区南千住7丁目1-1","lat":35.73318285,"lon":139.79828712},{"name":"橋場橋通り入口","province":"東京都","city":"荒川区","address":"東京都荒川区南千住4丁目1-1","lat":35.7338137,"lon":139.80141504},{"name":"南千住三丁目","province":"東京都","city":"荒川区","address":"東京都荒川区南千住2丁目31-8","lat":35.73001358,"lon":139.79867038},{"name":"南千住八丁目","province":"東京都","city":"荒川区","address":"東京都荒川区南千住8丁目13","lat":35.73642518,"lon":139.81024806},{"name":"瑞光橋公園前","province":"東京都","city":"荒川区","address":"東京都荒川区南千住8丁目17-1","lat":35.73456159,"lon":139.80941238},{"name":"南千住けやき通り入口","province":"東京都","city":"荒川区","address":"東京都荒川区南千住4丁目9-4","lat":35.73695531,"lon":139.80453431},{"name":"隅田川駅北","province":"東京都","city":"荒川区","address":"東京都荒川区南千住4丁目9","lat":35.7362609,"lon":139.8037205},{"name":"白鬚橋西詰","province":"東京都","city":"荒川区","address":"東京都荒川区南千住3丁目28-67","lat":35.72846805,"lon":139.8084078},{"name":"日暮里中央通り","province":"東京都","city":"荒川区","address":"東京都荒川区東日暮里6丁目15-1","lat":35.72879428,"lon":139.77860864},{"name":"宮地","province":"東京都","city":"荒川区","address":"東京都荒川区荒川5丁目1-1","lat":35.73756853,"lon":139.77661979},{"name":"三河島駅前","province":"東京都","city":"荒川区","address":"東京都荒川区西日暮里1丁目6-10","lat":35.7334439,"lon":139.77674766},{"name":"サンパール荒川前","province":"東京都","city":"荒川区","address":"東京都荒川区荒川1丁目49-2","lat":35.73439995,"lon":139.78501953},{"name":"荒川三丁目","province":"東京都","city":"荒川区","address":"東京都荒川区荒川2丁目4-2","lat":35.73561922,"lon":139.78205309},{"name":"日暮里二丁目","province":"東京都","city":"荒川区","address":"東京都荒川区東日暮里4丁目36-18","lat":35.72504454,"lon":139.77908921},{"name":"西日暮里四丁目","province":"東京都","city":"荒川区","address":"東京都荒川区西日暮里3丁目23-14","lat":35.73128501,"lon":139.76493992},{"name":"西日暮里二丁目","province":"東京都","city":"荒川区","address":"東京都荒川区西日暮里2丁目25-1","lat":35.7295939,"lon":139.77148686},{"name":"第三日暮里小前","province":"東京都","city":"荒川区","address":"東京都荒川区東日暮里3丁目10-17","lat":35.72886384,"lon":139.78137513},{"name":"荒川七丁目","province":"東京都","city":"荒川区","address":"東京都荒川区荒川7丁目4-3","lat":35.74305417,"lon":139.7845799},{"name":"三河島駅前北","province":"東京都","city":"荒川区","address":"東京都荒川区荒川3丁目63-2","lat":35.7340579,"lon":139.77870315},{"name":"東日暮里六丁目","province":"東京都","city":"荒川区","address":"東京都荒川区東日暮里6丁目44-7","lat":35.72884694,"lon":139.77579772},{"name":"東日暮里五丁目","province":"東京都","city":"荒川区","address":"東京都荒川区東日暮里5丁目40-3","lat":35.72644708,"lon":139.77480338},{"name":"東日暮里三丁目","province":"東京都","city":"荒川区","address":"東京都荒川区東日暮里3丁目42-8","lat":35.73165527,"lon":139.77904754},{"name":"東日暮里四丁目","province":"東京都","city":"荒川区","address":"東京都荒川区東日暮里4丁目35-10","lat":35.72597504,"lon":139.77909476},{"name":"西日暮里一丁目東","province":"東京都","city":"荒川区","address":"東京都荒川区西日暮里1丁目3-1","lat":35.73554381,"lon":139.77718099},{"name":"町屋第二","province":"東京都","city":"荒川区","address":"東京都荒川区荒川7丁目46-1","lat":35.74194027,"lon":139.78047194},{"name":"西日暮里五丁目第二","province":"東京都","city":"荒川区","address":"東京都荒川区西日暮里5丁目10-9","lat":35.73234626,"lon":139.76898135},{"name":"西日暮里駅前","province":"東京都","city":"荒川区","address":"東京都荒川区西日暮里3丁目5-1","lat":35.73196836,"lon":139.76645372},{"name":"町屋一丁目","province":"東京都","city":"荒川区","address":"東京都荒川区町屋2丁目2-20","lat":35.74368443,"lon":139.78096337},{"name":"西日暮里一丁目西","province":"東京都","city":"荒川区","address":"東京都荒川区西日暮里1丁目18-5","lat":35.7359158,"lon":139.77484215},{"name":"東日暮里六丁目東","province":"東京都","city":"荒川区","address":"東京都荒川区東日暮里6丁目18-7","lat":35.72887198,"lon":139.77680599},{"name":"東日暮里三丁目南","province":"東京都","city":"荒川区","address":"東京都荒川区東日暮里6丁目6-8","lat":35.73056085,"lon":139.77850034},{"name":"新三河島駅前","province":"東京都","city":"荒川区","address":"東京都荒川区荒川5丁目18-3","lat":35.7378238,"lon":139.77374761},{"name":"西日暮里五丁目東","province":"東京都","city":"荒川区","address":"東京都荒川区西日暮里5丁目6-1","lat":35.73339342,"lon":139.76977294},{"name":"荒川区役所東","province":"東京都","city":"荒川区","address":"東京都荒川区荒川2丁目13-9","lat":35.73696654,"lon":139.7843308},{"name":"荒川区民会館北第一","province":"東京都","city":"荒川区","address":"東京都荒川区荒川2丁目14","lat":35.73626939,"lon":139.78453081},{"name":"荒川区民会館北第二","province":"東京都","city":"荒川区","address":"東京都荒川区荒川2丁目1-3","lat":35.73566385,"lon":139.78460854},{"name":"西日暮里六丁目","province":"東京都","city":"荒川区","address":"東京都荒川区西日暮里6丁目48-6","lat":35.73627917,"lon":139.76858125},{"name":"西日暮里二丁目北","province":"東京都","city":"荒川区","address":"東京都荒川区西日暮里2丁目40-10","lat":35.73146031,"lon":139.77015632},{"name":"地下鉄町屋駅南","province":"東京都","city":"荒川区","address":"東京都荒川区荒川7丁目43-3","lat":35.7409765,"lon":139.7795221},{"name":"日暮里南公園入口","province":"東京都","city":"荒川区","address":"東京都荒川区東日暮里5丁目7-1","lat":35.72707772,"lon":139.77872531},{"name":"かんかん森通り","province":"東京都","city":"荒川区","address":"東京都荒川区東日暮里6丁目14-2","lat":35.72931647,"lon":139.77861421},{"name":"アクロスあらかわ東","province":"東京都","city":"荒川区","address":"東京都荒川区荒川7丁目7-1","lat":35.74078519,"lon":139.78419137},{"name":"日暮里図書館入口","province":"東京都","city":"荒川区","address":"東京都荒川区西日暮里2丁目5-4","lat":35.73164111,"lon":139.77453943},{"name":"西日暮里駅東","province":"東京都","city":"荒川区","address":"東京都荒川区西日暮里5丁目34-5","lat":35.73280165,"lon":139.76727032},{"name":"ひぐらし小学校前","province":"東京都","city":"荒川区","address":"東京都荒川区西日暮里2丁目27-5","lat":35.73049102,"lon":139.77128406},{"name":"京成町屋駅前","province":"東京都","city":"荒川区","address":"東京都荒川区荒川7丁目40-1","lat":35.74234026,"lon":139.7815274},{"name":"ゆいの森あらかわ","province":"東京都","city":"荒川区","address":"東京都荒川区荒川2丁目28","lat":35.73854954,"lon":139.78417502},{"name":"西日暮里一丁目南","province":"東京都","city":"荒川区","address":"東京都荒川区西日暮里1丁目61-18","lat":35.7342129,"lon":139.77143117},{"name":"西日暮里二丁目東","province":"東京都","city":"荒川区","address":"東京都荒川区西日暮里2丁目13-1","lat":35.73030504,"lon":139.77343118},{"name":"第四日暮里小南","province":"東京都","city":"荒川区","address":"東京都荒川区西日暮里2丁目30-1","lat":35.73075217,"lon":139.77237289},{"name":"荒川町屋郵便局前","province":"東京都","city":"荒川区","address":"東京都荒川区町屋1丁目18-1","lat":35.74372064,"lon":139.78314102},{"name":"南千住給水所","province":"東京都","city":"荒川区","address":"東京都荒川区南千住8丁目2-6","lat":35.73577514,"lon":139.80766775},{"name":"大関横丁第二","province":"東京都","city":"荒川区","address":"東京都荒川区東日暮里1丁目3-4","lat":35.73041082,"lon":139.79079062},{"name":"東尾久五丁目","province":"東京都","city":"荒川区","address":"東京都荒川区東尾久2丁目49-7","lat":35.74498085,"lon":139.76946398},{"name":"熊の前","province":"東京都","city":"荒川区","address":"東京都荒川区東尾久8丁目14-1","lat":35.74944131,"lon":139.76929143},{"name":"宮の前","province":"東京都","city":"荒川区","address":"東京都荒川区西尾久2丁目4-17","lat":35.74989939,"lon":139.7651167},{"name":"熊野前交番前","province":"東京都","city":"荒川区","address":"東京都荒川区東尾久6丁目50-9","lat":35.74931641,"lon":139.77100242},{"name":"北豊島学園前","province":"東京都","city":"荒川区","address":"東京都荒川区東尾久6丁目34-24","lat":35.74915541,"lon":139.77331614},{"name":"東京都立大学前","province":"東京都","city":"荒川区","address":"東京都荒川区東尾久7丁目2-10","lat":35.74998303,"lon":139.77211339},{"name":"大門小学校入口","province":"東京都","city":"荒川区","address":"東京都荒川区町屋5丁目7","lat":35.74967765,"lon":139.77732407},{"name":"南千住警察署入口","province":"東京都","city":"荒川区","address":"東京都荒川区南千住6丁目47-8","lat":35.73462169,"lon":139.79419311},{"name":"泪橋","province":"東京都","city":"荒川区","address":"東京都荒川区南千住3丁目5-20","lat":35.72923876,"lon":139.79962882},{"name":"天王神社前","province":"東京都","city":"荒川区","address":"東京都荒川区南千住6丁目60-17","lat":35.73682984,"lon":139.79637343},{"name":"東日暮里一丁目都住前","province":"東京都","city":"荒川区","address":"東京都荒川区東日暮里1丁目5","lat":35.73125248,"lon":139.79047683},{"name":"千住大橋南","province":"東京都","city":"荒川区","address":"東京都荒川区南千住7丁目17-5","lat":35.73736035,"lon":139.79724834},{"name":"南千住二丁目","province":"東京都","city":"荒川区","address":"東京都荒川区南千住2丁目15-5","lat":35.72908002,"lon":139.79570084},{"name":"南千住五丁目","province":"東京都","city":"荒川区","address":"東京都荒川区南千住5丁目12-1","lat":35.73471054,"lon":139.79489023},{"name":"南千住七丁目","province":"東京都","city":"荒川区","address":"東京都荒川区南千住7丁目3","lat":35.73384948,"lon":139.79813714},{"name":"泪橋西","province":"東京都","city":"荒川区","address":"東京都荒川区南千住2丁目27-10","lat":35.72909684,"lon":139.79802027},{"name":"南千住二丁目仲通り","province":"東京都","city":"荒川区","address":"東京都荒川区南千住2丁目20-15","lat":35.730405,"lon":139.7957176},{"name":"南千住七丁目北","province":"東京都","city":"荒川区","address":"東京都荒川区南千住7丁目24-24","lat":35.73666891,"lon":139.799465},{"name":"南千住一丁目","province":"東京都","city":"荒川区","address":"東京都荒川区南千住1丁目32-9","lat":35.73291903,"lon":139.79228219},{"name":"南千住三丁目西交番前","province":"東京都","city":"荒川区","address":"東京都荒川区南千住2丁目31-8","lat":35.73001358,"lon":139.79867038},{"name":"南千住四丁目","province":"東京都","city":"荒川区","address":"東京都荒川区南千住4丁目9","lat":35.7362609,"lon":139.8037205},{"name":"南千住駅前","province":"東京都","city":"荒川区","address":"東京都荒川区南千住7丁目1-1","lat":35.73318285,"lon":139.79828712},{"name":"橋場橋通り入口","province":"東京都","city":"荒川区","address":"東京都荒川区南千住4丁目1-1","lat":35.7338137,"lon":139.80141504},{"name":"南千住三丁目","province":"東京都","city":"荒川区","address":"東京都荒川区南千住2丁目31-8","lat":35.73001358,"lon":139.79867038},{"name":"南千住八丁目","province":"東京都","city":"荒川区","address":"東京都荒川区南千住8丁目13","lat":35.73642518,"lon":139.81024806},{"name":"瑞光橋公園前","province":"東京都","city":"荒川区","address":"東京都荒川区南千住8丁目17-1","lat":35.73456159,"lon":139.80941238},{"name":"南千住けやき通り入口","province":"東京都","city":"荒川区","address":"東京都荒川区南千住4丁目9-4","lat":35.73695531,"lon":139.80453431},{"name":"隅田川駅北","province":"東京都","city":"荒川区","address":"東京都荒川区南千住4丁目9","lat":35.7362609,"lon":139.8037205},{"name":"白鬚橋西詰","province":"東京都","city":"荒川区","address":"東京都荒川区南千住3丁目28-67","lat":35.72846805,"lon":139.8084078},{"name":"日暮里中央通り","province":"東京都","city":"荒川区","address":"東京都荒川区東日暮里6丁目15-1","lat":35.72879428,"lon":139.77860864},{"name":"宮地","province":"東京都","city":"荒川区","address":"東京都荒川区荒川5丁目1-1","lat":35.73756853,"lon":139.77661979},{"name":"三河島駅前","province":"東京都","city":"荒川区","address":"東京都荒川区西日暮里1丁目6-10","lat":35.7334439,"lon":139.77674766},{"name":"サンパール荒川前","province":"東京都","city":"荒川区","address":"東京都荒川区荒川1丁目49-2","lat":35.73439995,"lon":139.78501953},{"name":"荒川三丁目","province":"東京都","city":"荒川区","address":"東京都荒川区荒川2丁目4-2","lat":35.73561922,"lon":139.78205309},{"name":"日暮里二丁目","province":"東京都","city":"荒川区","address":"東京都荒川区東日暮里4丁目36-18","lat":35.72504454,"lon":139.77908921},{"name":"西日暮里四丁目","province":"東京都","city":"荒川区","address":"東京都荒川区西日暮里3丁目23-14","lat":35.73128501,"lon":139.76493992},{"name":"西日暮里二丁目","province":"東京都","city":"荒川区","address":"東京都荒川区西日暮里2丁目25-1","lat":35.7295939,"lon":139.77148686},{"name":"第三日暮里小前","province":"東京都","city":"荒川区","address":"東京都荒川区東日暮里3丁目10-17","lat":35.72886384,"lon":139.78137513},{"name":"荒川七丁目","province":"東京都","city":"荒川区","address":"東京都荒川区荒川7丁目4-3","lat":35.74305417,"lon":139.7845799},{"name":"三河島駅前北","province":"東京都","city":"荒川区","address":"東京都荒川区荒川3丁目63-2","lat":35.7340579,"lon":139.77870315},{"name":"東日暮里六丁目","province":"東京都","city":"荒川区","address":"東京都荒川区東日暮里6丁目44-7","lat":35.72884694,"lon":139.77579772},{"name":"東日暮里五丁目","province":"東京都","city":"荒川区","address":"東京都荒川区東日暮里5丁目40-3","lat":35.72644708,"lon":139.77480338},{"name":"東日暮里三丁目","province":"東京都","city":"荒川区","address":"東京都荒川区東日暮里3丁目42-8","lat":35.73165527,"lon":139.77904754},{"name":"東日暮里四丁目","province":"東京都","city":"荒川区","address":"東京都荒川区東日暮里4丁目35-10","lat":35.72597504,"lon":139.77909476},{"name":"西日暮里一丁目東","province":"東京都","city":"荒川区","address":"東京都荒川区西日暮里1丁目3-1","lat":35.73554381,"lon":139.77718099},{"name":"町屋第二","province":"東京都","city":"荒川区","address":"東京都荒川区荒川7丁目46-1","lat":35.74194027,"lon":139.78047194},{"name":"西日暮里五丁目第二","province":"東京都","city":"荒川区","address":"東京都荒川区西日暮里5丁目10-9","lat":35.73234626,"lon":139.76898135},{"name":"西日暮里駅前","province":"東京都","city":"荒川区","address":"東京都荒川区西日暮里3丁目5-1","lat":35.73196836,"lon":139.76645372},{"name":"町屋一丁目","province":"東京都","city":"荒川区","address":"東京都荒川区町屋2丁目2-20","lat":35.74368443,"lon":139.78096337},{"name":"西日暮里一丁目西","province":"東京都","city":"荒川区","address":"東京都荒川区西日暮里1丁目18-5","lat":35.7359158,"lon":139.77484215},{"name":"東日暮里六丁目東","province":"東京都","city":"荒川区","address":"東京都荒川区東日暮里6丁目18-7","lat":35.72887198,"lon":139.77680599},{"name":"東日暮里三丁目南","province":"東京都","city":"荒川区","address":"東京都荒川区東日暮里6丁目6-8","lat":35.73056085,"lon":139.77850034},{"name":"新三河島駅前","province":"東京都","city":"荒川区","address":"東京都荒川区荒川5丁目18-3","lat":35.7378238,"lon":139.77374761},{"name":"西日暮里五丁目東","province":"東京都","city":"荒川区","address":"東京都荒川区西日暮里5丁目6-1","lat":35.73339342,"lon":139.76977294},{"name":"荒川区役所東","province":"東京都","city":"荒川区","address":"東京都荒川区荒川2丁目13-9","lat":35.73696654,"lon":139.7843308},{"name":"荒川区民会館北第一","province":"東京都","city":"荒川区","address":"東京都荒川区荒川2丁目14","lat":35.73626939,"lon":139.78453081},{"name":"荒川区民会館北第二","province":"東京都","city":"荒川区","address":"東京都荒川区荒川2丁目1-3","lat":35.73566385,"lon":139.78460854},{"name":"西日暮里六丁目","province":"東京都","city":"荒川区","address":"東京都荒川区西日暮里6丁目48-6","lat":35.73627917,"lon":139.76858125},{"name":"西日暮里二丁目北","province":"東京都","city":"荒川区","address":"東京都荒川区西日暮里2丁目40-10","lat":35.73146031,"lon":139.77015632},{"name":"地下鉄町屋駅南","province":"東京都","city":"荒川区","address":"東京都荒川区荒川7丁目43-3","lat":35.7409765,"lon":139.7795221},{"name":"日暮里南公園入口","province":"東京都","city":"荒川区","address":"東京都荒川区東日暮里5丁目7-1","lat":35.72707772,"lon":139.77872531},{"name":"かんかん森通り","province":"東京都","city":"荒川区","address":"東京都荒川区東日暮里6丁目14-2","lat":35.72931647,"lon":139.77861421},{"name":"アクロスあらかわ東","province":"東京都","city":"荒川区","address":"東京都荒川区荒川7丁目7-1","lat":35.74078519,"lon":139.78419137},{"name":"日暮里図書館入口","province":"東京都","city":"荒川区","address":"東京都荒川区西日暮里2丁目5-4","lat":35.73164111,"lon":139.77453943},{"name":"西日暮里駅東","province":"東京都","city":"荒川区","address":"東京都荒川区西日暮里5丁目34-5","lat":35.73280165,"lon":139.76727032},{"name":"ひぐらし小学校前","province":"東京都","city":"荒川区","address":"東京都荒川区西日暮里2丁目27-5","lat":35.73049102,"lon":139.77128406},{"name":"京成町屋駅前","province":"東京都","city":"荒川区","address":"東京都荒川区荒川7丁目40-1","lat":35.74234026,"lon":139.7815274},{"name":"ゆいの森あらかわ","province":"東京都","city":"荒川区","address":"東京都荒川区荒川2丁目28","lat":35.73854954,"lon":139.78417502},{"name":"西日暮里一丁目南","province":"東京都","city":"荒川区","address":"東京都荒川区西日暮里1丁目61-18","lat":35.7342129,"lon":139.77143117},{"name":"西日暮里二丁目東","province":"東京都","city":"荒川区","address":"東京都荒川区西日暮里2丁目13-1","lat":35.73030504,"lon":139.77343118},{"name":"第四日暮里小南","province":"東京都","city":"荒川区","address":"東京都荒川区西日暮里2丁目30-1","lat":35.73075217,"lon":139.77237289},{"name":"荒川町屋郵便局前","province":"東京都","city":"荒川区","address":"東京都荒川区町屋1丁目18-1","lat":35.74372064,"lon":139.78314102},{"name":"南千住給水所","province":"東京都","city":"荒川区","address":"東京都荒川区南千住8丁目2-6","lat":35.73577514,"lon":139.80766775},{"name":"大関横丁第二","province":"東京都","city":"荒川区","address":"東京都荒川区東日暮里1丁目3-4","lat":35.73041082,"lon":139.79079062},{"name":"東尾久五丁目","province":"東京都","city":"荒川区","address":"東京都荒川区東尾久2丁目49-7","lat":35.74498085,"lon":139.76946398},{"name":"熊の前","province":"東京都","city":"荒川区","address":"東京都荒川区東尾久8丁目14-1","lat":35.74944131,"lon":139.76929143},{"name":"宮の前","province":"東京都","city":"荒川区","address":"東京都荒川区西尾久2丁目4-17","lat":35.74989939,"lon":139.7651167},{"name":"熊野前交番前","province":"東京都","city":"荒川区","address":"東京都荒川区東尾久6丁目50-9","lat":35.74931641,"lon":139.77100242},{"name":"北豊島学園前","province":"東京都","city":"荒川区","address":"東京都荒川区東尾久6丁目34-24","lat":35.74915541,"lon":139.77331614},{"name":"東京都立大学前","province":"東京都","city":"荒川区","address":"東京都荒川区東尾久7丁目2-10","lat":35.74998303,"lon":139.77211339},{"name":"大門小学校入口","province":"東京都","city":"荒川区","address":"東京都荒川区町屋5丁目7","lat":35.74967765,"lon":139.77732407},{"name":"南千住警察署入口","province":"東京都","city":"荒川区","address":"東京都荒川区南千住6丁目47-8","lat":35.73462169,"lon":139.79419311},{"name":"泪橋","province":"東京都","city":"荒川区","address":"東京都荒川区南千住3丁目5-20","lat":35.72923876,"lon":139.79962882},{"name":"天王神社前","province":"東京都","city":"荒川区","address":"東京都荒川区南千住6丁目60-17","lat":35.73682984,"lon":139.79637343},{"name":"東日暮里一丁目都住前","province":"東京都","city":"荒川区","address":"東京都荒川区東日暮里1丁目5","lat":35.73125248,"lon":139.79047683},{"name":"千住大橋南","province":"東京都","city":"荒川区","address":"東京都荒川区南千住7丁目17-5","lat":35.73736035,"lon":139.79724834},{"name":"南千住二丁目","province":"東京都","city":"荒川区","address":"東京都荒川区南千住2丁目15-5","lat":35.72908002,"lon":139.79570084},{"name":"南千住五丁目","province":"東京都","city":"荒川区","address":"東京都荒川区南千住5丁目12-1","lat":35.73471054,"lon":139.79489023},{"name":"南千住七丁目","province":"東京都","city":"荒川区","address":"東京都荒川区南千住7丁目3","lat":35.73384948,"lon":139.79813714},{"name":"泪橋西","province":"東京都","city":"荒川区","address":"東京都荒川区南千住2丁目27-10","lat":35.72909684,"lon":139.79802027},{"name":"南千住二丁目仲通り","province":"東京都","city":"荒川区","address":"東京都荒川区南千住2丁目20-15","lat":35.730405,"lon":139.7957176},{"name":"南千住七丁目北","province":"東京都","city":"荒川区","address":"東京都荒川区南千住7丁目24-24","lat":35.73666891,"lon":139.799465},{"name":"南千住一丁目","province":"東京都","city":"荒川区","address":"東京都荒川区南千住1丁目32-9","lat":35.73291903,"lon":139.79228219},{"name":"南千住三丁目西交番前","province":"東京都","city":"荒川区","address":"東京都荒川区南千住2丁目31-8","lat":35.73001358,"lon":139.79867038},{"name":"南千住四丁目","province":"東京都","city":"荒川区","address":"東京都荒川区南千住4丁目9","lat":35.7362609,"lon":139.8037205},{"name":"南千住駅前","province":"東京都","city":"荒川区","address":"東京都荒川区南千住7丁目1-1","lat":35.73318285,"lon":139.79828712},{"name":"橋場橋通り入口","province":"東京都","city":"荒川区","address":"東京都荒川区南千住4丁目1-1","lat":35.7338137,"lon":139.80141504},{"name":"南千住三丁目","province":"東京都","city":"荒川区","address":"東京都荒川区南千住2丁目31-8","lat":35.73001358,"lon":139.79867038},{"name":"南千住八丁目","province":"東京都","city":"荒川区","address":"東京都荒川区南千住8丁目13","lat":35.73642518,"lon":139.81024806},{"name":"瑞光橋公園前","province":"東京都","city":"荒川区","address":"東京都荒川区南千住8丁目17-1","lat":35.73456159,"lon":139.80941238},{"name":"南千住けやき通り入口","province":"東京都","city":"荒川区","address":"東京都荒川区南千住4丁目9-4","lat":35.73695531,"lon":139.80453431},{"name":"隅田川駅北","province":"東京都","city":"荒川区","address":"東京都荒川区南千住4丁目9","lat":35.7362609,"lon":139.8037205},{"name":"白鬚橋西詰","province":"東京都","city":"荒川区","address":"東京都荒川区南千住3丁目28-67","lat":35.72846805,"lon":139.8084078},{"name":"日暮里中央通り","province":"東京都","city":"荒川区","address":"東京都荒川区東日暮里6丁目15-1","lat":35.72879428,"lon":139.77860864},{"name":"宮地","province":"東京都","city":"荒川区","address":"東京都荒川区荒川5丁目1-1","lat":35.73756853,"lon":139.77661979},{"name":"三河島駅前","province":"東京都","city":"荒川区","address":"東京都荒川区西日暮里1丁目6-10","lat":35.7334439,"lon":139.77674766},{"name":"サンパール荒川前","province":"東京都","city":"荒川区","address":"東京都荒川区荒川1丁目49-2","lat":35.73439995,"lon":139.78501953},{"name":"荒川三丁目","province":"東京都","city":"荒川区","address":"東京都荒川区荒川2丁目4-2","lat":35.73561922,"lon":139.78205309},{"name":"日暮里二丁目","province":"東京都","city":"荒川区","address":"東京都荒川区東日暮里4丁目36-18","lat":35.72504454,"lon":139.77908921},{"name":"西日暮里四丁目","province":"東京都","city":"荒川区","address":"東京都荒川区西日暮里3丁目23-14","lat":35.73128501,"lon":139.76493992},{"name":"西日暮里二丁目","province":"東京都","city":"荒川区","address":"東京都荒川区西日暮里2丁目25-1","lat":35.7295939,"lon":139.77148686},{"name":"第三日暮里小前","province":"東京都","city":"荒川区","address":"東京都荒川区東日暮里3丁目10-17","lat":35.72886384,"lon":139.78137513},{"name":"荒川七丁目","province":"東京都","city":"荒川区","address":"東京都荒川区荒川7丁目4-3","lat":35.74305417,"lon":139.7845799},{"name":"三河島駅前北","province":"東京都","city":"荒川区","address":"東京都荒川区荒川3丁目63-2","lat":35.7340579,"lon":139.77870315},{"name":"東日暮里六丁目","province":"東京都","city":"荒川区","address":"東京都荒川区東日暮里6丁目44-7","lat":35.72884694,"lon":139.77579772},{"name":"東日暮里五丁目","province":"東京都","city":"荒川区","address":"東京都荒川区東日暮里5丁目40-3","lat":35.72644708,"lon":139.77480338},{"name":"東日暮里三丁目","province":"東京都","city":"荒川区","address":"東京都荒川区東日暮里3丁目42-8","lat":35.73165527,"lon":139.77904754},{"name":"東日暮里四丁目","province":"東京都","city":"荒川区","address":"東京都荒川区東日暮里4丁目35-10","lat":35.72597504,"lon":139.77909476},{"name":"西日暮里一丁目東","province":"東京都","city":"荒川区","address":"東京都荒川区西日暮里1丁目3-1","lat":35.73554381,"lon":139.77718099},{"name":"町屋第二","province":"東京都","city":"荒川区","address":"東京都荒川区荒川7丁目46-1","lat":35.74194027,"lon":139.78047194},{"name":"西日暮里五丁目第二","province":"東京都","city":"荒川区","address":"東京都荒川区西日暮里5丁目10-9","lat":35.73234626,"lon":139.76898135},{"name":"西日暮里駅前","province":"東京都","city":"荒川区","address":"東京都荒川区西日暮里3丁目5-1","lat":35.73196836,"lon":139.76645372},{"name":"町屋一丁目","province":"東京都","city":"荒川区","address":"東京都荒川区町屋2丁目2-20","lat":35.74368443,"lon":139.78096337},{"name":"西日暮里一丁目西","province":"東京都","city":"荒川区","address":"東京都荒川区西日暮里1丁目18-5","lat":35.7359158,"lon":139.77484215},{"name":"東日暮里六丁目東","province":"東京都","city":"荒川区","address":"東京都荒川区東日暮里6丁目18-7","lat":35.72887198,"lon":139.77680599},{"name":"東日暮里三丁目南","province":"東京都","city":"荒川区","address":"東京都荒川区東日暮里6丁目6-8","lat":35.73056085,"lon":139.77850034},{"name":"新三河島駅前","province":"東京都","city":"荒川区","address":"東京都荒川区荒川5丁目18-3","lat":35.7378238,"lon":139.77374761},{"name":"西日暮里五丁目東","province":"東京都","city":"荒川区","address":"東京都荒川区西日暮里5丁目6-1","lat":35.73339342,"lon":139.76977294},{"name":"荒川区役所東","province":"東京都","city":"荒川区","address":"東京都荒川区荒川2丁目13-9","lat":35.73696654,"lon":139.7843308},{"name":"荒川区民会館北第一","province":"東京都","city":"荒川区","address":"東京都荒川区荒川2丁目14","lat":35.73626939,"lon":139.78453081},{"name":"荒川区民会館北第二","province":"東京都","city":"荒川区","address":"東京都荒川区荒川2丁目1-3","lat":35.73566385,"lon":139.78460854},{"name":"西日暮里六丁目","province":"東京都","city":"荒川区","address":"東京都荒川区西日暮里6丁目48-6","lat":35.73627917,"lon":139.76858125},{"name":"西日暮里二丁目北","province":"東京都","city":"荒川区","address":"東京都荒川区西日暮里2丁目40-10","lat":35.73146031,"lon":139.77015632},{"name":"地下鉄町屋駅南","province":"東京都","city":"荒川区","address":"東京都荒川区荒川7丁目43-3","lat":35.7409765,"lon":139.7795221},{"name":"日暮里南公園入口","province":"東京都","city":"荒川区","address":"東京都荒川区東日暮里5丁目7-1","lat":35.72707772,"lon":139.77872531},{"name":"かんかん森通り","province":"東京都","city":"荒川区","address":"東京都荒川区東日暮里6丁目14-2","lat":35.72931647,"lon":139.77861421},{"name":"アクロスあらかわ東","province":"東京都","city":"荒川区","address":"東京都荒川区荒川7丁目7-1","lat":35.74078519,"lon":139.78419137},{"name":"日暮里図書館入口","province":"東京都","city":"荒川区","address":"東京都荒川区西日暮里2丁目5-4","lat":35.73164111,"lon":139.77453943},{"name":"西日暮里駅東","province":"東京都","city":"荒川区","address":"東京都荒川区西日暮里5丁目34-5","lat":35.73280165,"lon":139.76727032},{"name":"ひぐらし小学校前","province":"東京都","city":"荒川区","address":"東京都荒川区西日暮里2丁目27-5","lat":35.73049102,"lon":139.77128406},{"name":"京成町屋駅前","province":"東京都","city":"荒川区","address":"東京都荒川区荒川7丁目40-1","lat":35.74234026,"lon":139.7815274},{"name":"ゆいの森あらかわ","province":"東京都","city":"荒川区","address":"東京都荒川区荒川2丁目28","lat":35.73854954,"lon":139.78417502},{"name":"西日暮里一丁目南","province":"東京都","city":"荒川区","address":"東京都荒川区西日暮里1丁目61-18","lat":35.7342129,"lon":139.77143117},{"name":"西日暮里二丁目東","province":"東京都","city":"荒川区","address":"東京都荒川区西日暮里2丁目13-1","lat":35.73030504,"lon":139.77343118},{"name":"第四日暮里小南","province":"東京都","city":"荒川区","address":"東京都荒川区西日暮里2丁目30-1","lat":35.73075217,"lon":139.77237289},{"name":"荒川町屋郵便局前","province":"東京都","city":"荒川区","address":"東京都荒川区町屋1丁目18-1","lat":35.74372064,"lon":139.78314102},{"name":"南千住給水所","province":"東京都","city":"荒川区","address":"東京都荒川区南千住8丁目2-6","lat":35.73577514,"lon":139.80766775},{"name":"大関横丁第二","province":"東京都","city":"荒川区","address":"東京都荒川区東日暮里1丁目3-4","lat":35.73041082,"lon":139.79079062},{"name":"東尾久五丁目","province":"東京都","city":"荒川区","address":"東京都荒川区東尾久2丁目49-7","lat":35.74498085,"lon":139.76946398},{"name":"熊の前","province":"東京都","city":"荒川区","address":"東京都荒川区東尾久8丁目14-1","lat":35.74944131,"lon":139.76929143},{"name":"宮の前","province":"東京都","city":"荒川区","address":"東京都荒川区西尾久2丁目4-17","lat":35.74989939,"lon":139.7651167},{"name":"熊野前交番前","province":"東京都","city":"荒川区","address":"東京都荒川区東尾久6丁目50-9","lat":35.74931641,"lon":139.77100242},{"name":"北豊島学園前","province":"東京都","city":"荒川区","address":"東京都荒川区東尾久6丁目34-24","lat":35.74915541,"lon":139.77331614},{"name":"東京都立大学前","province":"東京都","city":"荒川区","address":"東京都荒川区東尾久7丁目2-10","lat":35.74998303,"lon":139.77211339},{"name":"大門小学校入口","province":"東京都","city":"荒川区","address":"東京都荒川区町屋5丁目7","lat":35.74967765,"lon":139.77732407},{"name":"南千住警察署入口","province":"東京都","city":"荒川区","address":"東京都荒川区南千住6丁目47-8","lat":35.73462169,"lon":139.79419311},{"name":"泪橋","province":"東京都","city":"荒川区","address":"東京都荒川区南千住3丁目5-20","lat":35.72923876,"lon":139.79962882},{"name":"天王神社前","province":"東京都","city":"荒川区","address":"東京都荒川区南千住6丁目60-17","lat":35.73682984,"lon":139.79637343},{"name":"東日暮里一丁目都住前","province":"東京都","city":"荒川区","address":"東京都荒川区東日暮里1丁目5","lat":35.73125248,"lon":139.79047683},{"name":"千住大橋南","province":"東京都","city":"荒川区","address":"東京都荒川区南千住7丁目17-5","lat":35.73736035,"lon":139.79724834},{"name":"南千住二丁目","province":"東京都","city":"荒川区","address":"東京都荒川区南千住2丁目15-5","lat":35.72908002,"lon":139.79570084},{"name":"南千住五丁目","province":"東京都","city":"荒川区","address":"東京都荒川区南千住5丁目12-1","lat":35.73471054,"lon":139.79489023},{"name":"南千住七丁目","province":"東京都","city":"荒川区","address":"東京都荒川区南千住7丁目3","lat":35.73384948,"lon":139.79813714},{"name":"泪橋西","province":"東京都","city":"荒川区","address":"東京都荒川区南千住2丁目27-10","lat":35.72909684,"lon":139.79802027},{"name":"南千住二丁目仲通り","province":"東京都","city":"荒川区","address":"東京都荒川区南千住2丁目20-15","lat":35.730405,"lon":139.7957176},{"name":"南千住七丁目北","province":"東京都","city":"荒川区","address":"東京都荒川区南千住7丁目24-24","lat":35.73666891,"lon":139.799465},{"name":"南千住一丁目","province":"東京都","city":"荒川区","address":"東京都荒川区南千住1丁目32-9","lat":35.73291903,"lon":139.79228219},{"name":"南千住三丁目西交番前","province":"東京都","city":"荒川区","address":"東京都荒川区南千住2丁目31-8","lat":35.73001358,"lon":139.79867038},{"name":"南千住四丁目","province":"東京都","city":"荒川区","address":"東京都荒川区南千住4丁目9","lat":35.7362609,"lon":139.8037205},{"name":"南千住駅前","province":"東京都","city":"荒川区","address":"東京都荒川区南千住7丁目1-1","lat":35.73318285,"lon":139.79828712},{"name":"橋場橋通り入口","province":"東京都","city":"荒川区","address":"東京都荒川区南千住4丁目1-1","lat":35.7338137,"lon":139.80141504},{"name":"南千住三丁目","province":"東京都","city":"荒川区","address":"東京都荒川区南千住2丁目31-8","lat":35.73001358,"lon":139.79867038},{"name":"南千住八丁目","province":"東京都","city":"荒川区","address":"東京都荒川区南千住8丁目13","lat":35.73642518,"lon":139.81024806},{"name":"瑞光橋公園前","province":"東京都","city":"荒川区","address":"東京都荒川区南千住8丁目17-1","lat":35.73456159,"lon":139.80941238},{"name":"南千住けやき通り入口","province":"東京都","city":"荒川区","address":"東京都荒川区南千住4丁目9-4","lat":35.73695531,"lon":139.80453431},{"name":"隅田川駅北","province":"東京都","city":"荒川区","address":"東京都荒川区南千住4丁目9","lat":35.7362609,"lon":139.8037205},{"name":"白鬚橋西詰","province":"東京都","city":"荒川区","address":"東京都荒川区南千住3丁目28-67","lat":35.72846805,"lon":139.8084078},{"name":"日暮里中央通り","province":"東京都","city":"荒川区","address":"東京都荒川区東日暮里6丁目15-1","lat":35.72879428,"lon":139.77860864},{"name":"宮地","province":"東京都","city":"荒川区","address":"東京都荒川区荒川5丁目1-1","lat":35.73756853,"lon":139.77661979},{"name":"三河島駅前","province":"東京都","city":"荒川区","address":"東京都荒川区西日暮里1丁目6-10","lat":35.7334439,"lon":139.77674766},{"name":"サンパール荒川前","province":"東京都","city":"荒川区","address":"東京都荒川区荒川1丁目49-2","lat":35.73439995,"lon":139.78501953},{"name":"荒川三丁目","province":"東京都","city":"荒川区","address":"東京都荒川区荒川2丁目4-2","lat":35.73561922,"lon":139.78205309},{"name":"日暮里二丁目","province":"東京都","city":"荒川区","address":"東京都荒川区東日暮里4丁目36-18","lat":35.72504454,"lon":139.77908921},{"name":"西日暮里四丁目","province":"東京都","city":"荒川区","address":"東京都荒川区西日暮里3丁目23-14","lat":35.73128501,"lon":139.76493992},{"name":"西日暮里二丁目","province":"東京都","city":"荒川区","address":"東京都荒川区西日暮里2丁目25-1","lat":35.7295939,"lon":139.77148686},{"name":"第三日暮里小前","province":"東京都","city":"荒川区","address":"東京都荒川区東日暮里3丁目10-17","lat":35.72886384,"lon":139.78137513},{"name":"荒川七丁目","province":"東京都","city":"荒川区","address":"東京都荒川区荒川7丁目4-3","lat":35.74305417,"lon":139.7845799},{"name":"三河島駅前北","province":"東京都","city":"荒川区","address":"東京都荒川区荒川3丁目63-2","lat":35.7340579,"lon":139.77870315},{"name":"東日暮里六丁目","province":"東京都","city":"荒川区","address":"東京都荒川区東日暮里6丁目44-7","lat":35.72884694,"lon":139.77579772},{"name":"東日暮里五丁目","province":"東京都","city":"荒川区","address":"東京都荒川区東日暮里5丁目40-3","lat":35.72644708,"lon":139.77480338},{"name":"東日暮里三丁目","province":"東京都","city":"荒川区","address":"東京都荒川区東日暮里3丁目42-8","lat":35.73165527,"lon":139.77904754},{"name":"東日暮里四丁目","province":"東京都","city":"荒川区","address":"東京都荒川区東日暮里4丁目35-10","lat":35.72597504,"lon":139.77909476},{"name":"西日暮里一丁目東","province":"東京都","city":"荒川区","address":"東京都荒川区西日暮里1丁目3-1","lat":35.73554381,"lon":139.77718099},{"name":"町屋第二","province":"東京都","city":"荒川区","address":"東京都荒川区荒川7丁目46-1","lat":35.74194027,"lon":139.78047194},{"name":"西日暮里五丁目第二","province":"東京都","city":"荒川区","address":"東京都荒川区西日暮里5丁目10-9","lat":35.73234626,"lon":139.76898135},{"name":"西日暮里駅前","province":"東京都","city":"荒川区","address":"東京都荒川区西日暮里3丁目5-1","lat":35.73196836,"lon":139.76645372},{"name":"町屋一丁目","province":"東京都","city":"荒川区","address":"東京都荒川区町屋2丁目2-20","lat":35.74368443,"lon":139.78096337},{"name":"西日暮里一丁目西","province":"東京都","city":"荒川区","address":"東京都荒川区西日暮里1丁目18-5","lat":35.7359158,"lon":139.77484215},{"name":"東日暮里六丁目東","province":"東京都","city":"荒川区","address":"東京都荒川区東日暮里6丁目18-7","lat":35.72887198,"lon":139.77680599},{"name":"東日暮里三丁目南","province":"東京都","city":"荒川区","address":"東京都荒川区東日暮里6丁目6-8","lat":35.73056085,"lon":139.77850034},{"name":"新三河島駅前","province":"東京都","city":"荒川区","address":"東京都荒川区荒川5丁目18-3","lat":35.7378238,"lon":139.77374761},{"name":"西日暮里五丁目東","province":"東京都","city":"荒川区","address":"東京都荒川区西日暮里5丁目6-1","lat":35.73339342,"lon":139.76977294},{"name":"荒川区役所東","province":"東京都","city":"荒川区","address":"東京都荒川区荒川2丁目13-9","lat":35.73696654,"lon":139.7843308},{"name":"荒川区民会館北第一","province":"東京都","city":"荒川区","address":"東京都荒川区荒川2丁目14","lat":35.73626939,"lon":139.78453081},{"name":"荒川区民会館北第二","province":"東京都","city":"荒川区","address":"東京都荒川区荒川2丁目1-3","lat":35.73566385,"lon":139.78460854},{"name":"西日暮里六丁目","province":"東京都","city":"荒川区","address":"東京都荒川区西日暮里6丁目48-6","lat":35.73627917,"lon":139.76858125},{"name":"西日暮里二丁目北","province":"東京都","city":"荒川区","address":"東京都荒川区西日暮里2丁目40-10","lat":35.73146031,"lon":139.77015632},{"name":"地下鉄町屋駅南","province":"東京都","city":"荒川区","address":"東京都荒川区荒川7丁目43-3","lat":35.7409765,"lon":139.7795221},{"name":"日暮里南公園入口","province":"東京都","city":"荒川区","address":"東京都荒川区東日暮里5丁目7-1","lat":35.72707772,"lon":139.77872531},{"name":"かんかん森通り","province":"東京都","city":"荒川区","address":"東京都荒川区東日暮里6丁目14-2","lat":35.72931647,"lon":139.77861421},{"name":"アクロスあらかわ東","province":"東京都","city":"荒川区","address":"東京都荒川区荒川7丁目7-1","lat":35.74078519,"lon":139.78419137},{"name":"日暮里図書館入口","province":"東京都","city":"荒川区","address":"東京都荒川区西日暮里2丁目5-4","lat":35.73164111,"lon":139.77453943},{"name":"西日暮里駅東","province":"東京都","city":"荒川区","address":"東京都荒川区西日暮里5丁目34-5","lat":35.73280165,"lon":139.76727032},{"name":"ひぐらし小学校前","province":"東京都","city":"荒川区","address":"東京都荒川区西日暮里2丁目27-5","lat":35.73049102,"lon":139.77128406},{"name":"京成町屋駅前","province":"東京都","city":"荒川区","address":"東京都荒川区荒川7丁目40-1","lat":35.74234026,"lon":139.7815274},{"name":"ゆいの森あらかわ","province":"東京都","city":"荒川区","address":"東京都荒川区荒川2丁目28","lat":35.73854954,"lon":139.78417502},{"name":"西日暮里一丁目南","province":"東京都","city":"荒川区","address":"東京都荒川区西日暮里1丁目61-18","lat":35.7342129,"lon":139.77143117},{"name":"西日暮里二丁目東","province":"東京都","city":"荒川区","address":"東京都荒川区西日暮里2丁目13-1","lat":35.73030504,"lon":139.77343118},{"name":"第四日暮里小南","province":"東京都","city":"荒川区","address":"東京都荒川区西日暮里2丁目30-1","lat":35.73075217,"lon":139.77237289},{"name":"荒川町屋郵便局前","province":"東京都","city":"荒川区","address":"東京都荒川区町屋1丁目18-1","lat":35.74372064,"lon":139.78314102},{"name":"南千住給水所","province":"東京都","city":"荒川区","address":"東京都荒川区南千住8丁目2-6","lat":35.73577514,"lon":139.80766775},{"name":"大関横丁第二","province":"東京都","city":"荒川区","address":"東京都荒川区東日暮里1丁目3-4","lat":35.73041082,"lon":139.79079062},{"name":"東尾久五丁目","province":"東京都","city":"荒川区","address":"東京都荒川区東尾久2丁目49-7","lat":35.74498085,"lon":139.76946398},{"name":"熊の前","province":"東京都","city":"荒川区","address":"東京都荒川区東尾久8丁目14-1","lat":35.74944131,"lon":139.76929143},{"name":"宮の前","province":"東京都","city":"荒川区","address":"東京都荒川区西尾久2丁目4-17","lat":35.74989939,"lon":139.7651167},{"name":"熊野前交番前","province":"東京都","city":"荒川区","address":"東京都荒川区東尾久6丁目50-9","lat":35.74931641,"lon":139.77100242},{"name":"北豊島学園前","province":"東京都","city":"荒川区","address":"東京都荒川区東尾久6丁目34-24","lat":35.74915541,"lon":139.77331614},{"name":"東京都立大学前","province":"東京都","city":"荒川区","address":"東京都荒川区東尾久7丁目2-10","lat":35.74998303,"lon":139.77211339},{"name":"大門小学校入口","province":"東京都","city":"荒川区","address":"東京都荒川区町屋5丁目7","lat":35.74967765,"lon":139.77732407},{"name":"南千住警察署入口","province":"東京都","city":"荒川区","address":"東京都荒川区南千住6丁目47-8","lat":35.73462169,"lon":139.79419311},{"name":"泪橋","province":"東京都","city":"荒川区","address":"東京都荒川区南千住3丁目5-20","lat":35.72923876,"lon":139.79962882},{"name":"天王神社前","province":"東京都","city":"荒川区","address":"東京都荒川区南千住6丁目60-17","lat":35.73682984,"lon":139.79637343},{"name":"東日暮里一丁目都住前","province":"東京都","city":"荒川区","address":"東京都荒川区東日暮里1丁目5","lat":35.73125248,"lon":139.79047683},{"name":"千住大橋南","province":"東京都","city":"荒川区","address":"東京都荒川区南千住7丁目17-5","lat":35.73736035,"lon":139.79724834},{"name":"南千住二丁目","province":"東京都","city":"荒川区","address":"東京都荒川区南千住2丁目15-5","lat":35.72908002,"lon":139.79570084},{"name":"南千住五丁目","province":"東京都","city":"荒川区","address":"東京都荒川区南千住5丁目12-1","lat":35.73471054,"lon":139.79489023},{"name":"南千住七丁目","province":"東京都","city":"荒川区","address":"東京都荒川区南千住7丁目3","lat":35.73384948,"lon":139.79813714},{"name":"泪橋西","province":"東京都","city":"荒川区","address":"東京都荒川区南千住2丁目27-10","lat":35.72909684,"lon":139.79802027},{"name":"南千住二丁目仲通り","province":"東京都","city":"荒川区","address":"東京都荒川区南千住2丁目20-15","lat":35.730405,"lon":139.7957176},{"name":"南千住七丁目北","province":"東京都","city":"荒川区","address":"東京都荒川区南千住7丁目24-24","lat":35.73666891,"lon":139.799465},{"name":"南千住一丁目","province":"東京都","city":"荒川区","address":"東京都荒川区南千住1丁目32-9","lat":35.73291903,"lon":139.79228219},{"name":"南千住三丁目西交番前","province":"東京都","city":"荒川区","address":"東京都荒川区南千住2丁目31-8","lat":35.73001358,"lon":139.79867038},{"name":"南千住四丁目","province":"東京都","city":"荒川区","address":"東京都荒川区南千住4丁目9","lat":35.7362609,"lon":139.8037205},{"name":"南千住駅前","province":"東京都","city":"荒川区","address":"東京都荒川区南千住7丁目1-1","lat":35.73318285,"lon":139.79828712},{"name":"橋場橋通り入口","province":"東京都","city":"荒川区","address":"東京都荒川区南千住4丁目1-1","lat":35.7338137,"lon":139.80141504},{"name":"南千住三丁目","province":"東京都","city":"荒川区","address":"東京都荒川区南千住2丁目31-8","lat":35.73001358,"lon":139.79867038},{"name":"南千住八丁目","province":"東京都","city":"荒川区","address":"東京都荒川区南千住8丁目13","lat":35.73642518,"lon":139.81024806},{"name":"瑞光橋公園前","province":"東京都","city":"荒川区","address":"東京都荒川区南千住8丁目17-1","lat":35.73456159,"lon":139.80941238},{"name":"南千住けやき通り入口","province":"東京都","city":"荒川区","address":"東京都荒川区南千住4丁目9-4","lat":35.73695531,"lon":139.80453431},{"name":"隅田川駅北","province":"東京都","city":"荒川区","address":"東京都荒川区南千住4丁目9","lat":35.7362609,"lon":139.8037205},{"name":"白鬚橋西詰","province":"東京都","city":"荒川区","address":"東京都荒川区南千住3丁目28-67","lat":35.72846805,"lon":139.8084078},{"name":"日暮里中央通り","province":"東京都","city":"荒川区","address":"東京都荒川区東日暮里6丁目15-1","lat":35.72879428,"lon":139.77860864},{"name":"宮地","province":"東京都","city":"荒川区","address":"東京都荒川区荒川5丁目1-1","lat":35.73756853,"lon":139.77661979},{"name":"三河島駅前","province":"東京都","city":"荒川区","address":"東京都荒川区西日暮里1丁目6-10","lat":35.7334439,"lon":139.77674766},{"name":"サンパール荒川前","province":"東京都","city":"荒川区","address":"東京都荒川区荒川1丁目49-2","lat":35.73439995,"lon":139.78501953},{"name":"荒川三丁目","province":"東京都","city":"荒川区","address":"東京都荒川区荒川2丁目4-2","lat":35.73561922,"lon":139.78205309},{"name":"日暮里二丁目","province":"東京都","city":"荒川区","address":"東京都荒川区東日暮里4丁目36-18","lat":35.72504454,"lon":139.77908921},{"name":"西日暮里四丁目","province":"東京都","city":"荒川区","address":"東京都荒川区西日暮里3丁目23-14","lat":35.73128501,"lon":139.76493992},{"name":"西日暮里二丁目","province":"東京都","city":"荒川区","address":"東京都荒川区西日暮里2丁目25-1","lat":35.7295939,"lon":139.77148686},{"name":"第三日暮里小前","province":"東京都","city":"荒川区","address":"東京都荒川区東日暮里3丁目10-17","lat":35.72886384,"lon":139.78137513},{"name":"荒川七丁目","province":"東京都","city":"荒川区","address":"東京都荒川区荒川7丁目4-3","lat":35.74305417,"lon":139.7845799},{"name":"三河島駅前北","province":"東京都","city":"荒川区","address":"東京都荒川区荒川3丁目63-2","lat":35.7340579,"lon":139.77870315},{"name":"東日暮里六丁目","province":"東京都","city":"荒川区","address":"東京都荒川区東日暮里6丁目44-7","lat":35.72884694,"lon":139.77579772},{"name":"東日暮里五丁目","province":"東京都","city":"荒川区","address":"東京都荒川区東日暮里5丁目40-3","lat":35.72644708,"lon":139.77480338},{"name":"東日暮里三丁目","province":"東京都","city":"荒川区","address":"東京都荒川区東日暮里3丁目42-8","lat":35.73165527,"lon":139.77904754},{"name":"東日暮里四丁目","province":"東京都","city":"荒川区","address":"東京都荒川区東日暮里4丁目35-10","lat":35.72597504,"lon":139.77909476},{"name":"西日暮里一丁目東","province":"東京都","city":"荒川区","address":"東京都荒川区西日暮里1丁目3-1","lat":35.73554381,"lon":139.77718099},{"name":"町屋第二","province":"東京都","city":"荒川区","address":"東京都荒川区荒川7丁目46-1","lat":35.74194027,"lon":139.78047194},{"name":"西日暮里五丁目第二","province":"東京都","city":"荒川区","address":"東京都荒川区西日暮里5丁目10-9","lat":35.73234626,"lon":139.76898135},{"name":"西日暮里駅前","province":"東京都","city":"荒川区","address":"東京都荒川区西日暮里3丁目5-1","lat":35.73196836,"lon":139.76645372},{"name":"町屋一丁目","province":"東京都","city":"荒川区","address":"東京都荒川区町屋2丁目2-20","lat":35.74368443,"lon":139.78096337},{"name":"西日暮里一丁目西","province":"東京都","city":"荒川区","address":"東京都荒川区西日暮里1丁目18-5","lat":35.7359158,"lon":139.77484215},{"name":"東日暮里六丁目東","province":"東京都","city":"荒川区","address":"東京都荒川区東日暮里6丁目18-7","lat":35.72887198,"lon":139.77680599},{"name":"東日暮里三丁目南","province":"東京都","city":"荒川区","address":"東京都荒川区東日暮里6丁目6-8","lat":35.73056085,"lon":139.77850034},{"name":"新三河島駅前","province":"東京都","city":"荒川区","address":"東京都荒川区荒川5丁目18-3","lat":35.7378238,"lon":139.77374761},{"name":"西日暮里五丁目東","province":"東京都","city":"荒川区","address":"東京都荒川区西日暮里5丁目6-1","lat":35.73339342,"lon":139.76977294},{"name":"荒川区役所東","province":"東京都","city":"荒川区","address":"東京都荒川区荒川2丁目13-9","lat":35.73696654,"lon":139.7843308},{"name":"荒川区民会館北第一","province":"東京都","city":"荒川区","address":"東京都荒川区荒川2丁目14","lat":35.73626939,"lon":139.78453081},{"name":"荒川区民会館北第二","province":"東京都","city":"荒川区","address":"東京都荒川区荒川2丁目1-3","lat":35.73566385,"lon":139.78460854},{"name":"西日暮里六丁目","province":"東京都","city":"荒川区","address":"東京都荒川区西日暮里6丁目48-6","lat":35.73627917,"lon":139.76858125},{"name":"西日暮里二丁目北","province":"東京都","city":"荒川区","address":"東京都荒川区西日暮里2丁目40-10","lat":35.73146031,"lon":139.77015632},{"name":"地下鉄町屋駅南","province":"東京都","city":"荒川区","address":"東京都荒川区荒川7丁目43-3","lat":35.7409765,"lon":139.7795221},{"name":"日暮里南公園入口","province":"東京都","city":"荒川区","address":"東京都荒川区東日暮里5丁目7-1","lat":35.72707772,"lon":139.77872531},{"name":"かんかん森通り","province":"東京都","city":"荒川区","address":"東京都荒川区東日暮里6丁目14-2","lat":35.72931647,"lon":139.77861421},{"name":"アクロスあらかわ東","province":"東京都","city":"荒川区","address":"東京都荒川区荒川7丁目7-1","lat":35.74078519,"lon":139.78419137},{"name":"日暮里図書館入口","province":"東京都","city":"荒川区","address":"東京都荒川区西日暮里2丁目5-4","lat":35.73164111,"lon":139.77453943},{"name":"西日暮里駅東","province":"東京都","city":"荒川区","address":"東京都荒川区西日暮里5丁目34-5","lat":35.73280165,"lon":139.76727032},{"name":"ひぐらし小学校前","province":"東京都","city":"荒川区","address":"東京都荒川区西日暮里2丁目27-5","lat":35.73049102,"lon":139.77128406},{"name":"京成町屋駅前","province":"東京都","city":"荒川区","address":"東京都荒川区荒川7丁目40-1","lat":35.74234026,"lon":139.7815274},{"name":"ゆいの森あらかわ","province":"東京都","city":"荒川区","address":"東京都荒川区荒川2丁目28","lat":35.73854954,"lon":139.78417502},{"name":"西日暮里一丁目南","province":"東京都","city":"荒川区","address":"東京都荒川区西日暮里1丁目61-18","lat":35.7342129,"lon":139.77143117},{"name":"西日暮里二丁目東","province":"東京都","city":"荒川区","address":"東京都荒川区西日暮里2丁目13-1","lat":35.73030504,"lon":139.77343118},{"name":"第四日暮里小南","province":"東京都","city":"荒川区","address":"東京都荒川区西日暮里2丁目30-1","lat":35.73075217,"lon":139.77237289},{"name":"荒川町屋郵便局前","province":"東京都","city":"荒川区","address":"東京都荒川区町屋1丁目18-1","lat":35.74372064,"lon":139.78314102},{"name":"南千住給水所","province":"東京都","city":"荒川区","address":"東京都荒川区南千住8丁目2-6","lat":35.73577514,"lon":139.80766775},{"name":"大関横丁第二","province":"東京都","city":"荒川区","address":"東京都荒川区東日暮里1丁目3-4","lat":35.73041082,"lon":139.79079062},{"name":"東尾久五丁目","province":"東京都","city":"荒川区","address":"東京都荒川区東尾久2丁目49-7","lat":35.74498085,"lon":139.76946398},{"name":"熊の前","province":"東京都","city":"荒川区","address":"東京都荒川区東尾久8丁目14-1","lat":35.74944131,"lon":139.76929143},{"name":"宮の前","province":"東京都","city":"荒川区","address":"東京都荒川区西尾久2丁目4-17","lat":35.74989939,"lon":139.7651167},{"name":"熊野前交番前","province":"東京都","city":"荒川区","address":"東京都荒川区東尾久6丁目50-9","lat":35.74931641,"lon":139.77100242},{"name":"北豊島学園前","province":"東京都","city":"荒川区","address":"東京都荒川区東尾久6丁目34-24","lat":35.74915541,"lon":139.77331614},{"name":"東京都立大学前","province":"東京都","city":"荒川区","address":"東京都荒川区東尾久7丁目2-10","lat":35.74998303,"lon":139.77211339},{"name":"大門小学校入口","province":"東京都","city":"荒川区","address":"東京都荒川区町屋5丁目7","lat":35.74967765,"lon":139.77732407},{"name":"南千住警察署入口","province":"東京都","city":"荒川区","address":"東京都荒川区南千住6丁目47-8","lat":35.73462169,"lon":139.79419311},{"name":"泪橋","province":"東京都","city":"荒川区","address":"東京都荒川区南千住3丁目5-20","lat":35.72923876,"lon":139.79962882},{"name":"天王神社前","province":"東京都","city":"荒川区","address":"東京都荒川区南千住6丁目60-17","lat":35.73682984,"lon":139.79637343},{"name":"東日暮里一丁目都住前","province":"東京都","city":"荒川区","address":"東京都荒川区東日暮里1丁目5","lat":35.73125248,"lon":139.79047683},{"name":"千住大橋南","province":"東京都","city":"荒川区","address":"東京都荒川区南千住7丁目17-5","lat":35.73736035,"lon":139.79724834},{"name":"南千住二丁目","province":"東京都","city":"荒川区","address":"東京都荒川区南千住2丁目15-5","lat":35.72908002,"lon":139.79570084},{"name":"南千住五丁目","province":"東京都","city":"荒川区","address":"東京都荒川区南千住5丁目12-1","lat":35.73471054,"lon":139.79489023},{"name":"南千住七丁目","province":"東京都","city":"荒川区","address":"東京都荒川区南千住7丁目3","lat":35.73384948,"lon":139.79813714},{"name":"泪橋西","province":"東京都","city":"荒川区","address":"東京都荒川区南千住2丁目27-10","lat":35.72909684,"lon":139.79802027},{"name":"南千住二丁目仲通り","province":"東京都","city":"荒川区","address":"東京都荒川区南千住2丁目20-15","lat":35.730405,"lon":139.7957176},{"name":"南千住七丁目北","province":"東京都","city":"荒川区","address":"東京都荒川区南千住7丁目24-24","lat":35.73666891,"lon":139.799465},{"name":"南千住一丁目","province":"東京都","city":"荒川区","address":"東京都荒川区南千住1丁目32-9","lat":35.73291903,"lon":139.79228219},{"name":"南千住三丁目西交番前","province":"東京都","city":"荒川区","address":"東京都荒川区南千住2丁目31-8","lat":35.73001358,"lon":139.79867038},{"name":"南千住四丁目","province":"東京都","city":"荒川区","address":"東京都荒川区南千住4丁目9","lat":35.7362609,"lon":139.8037205},{"name":"南千住駅前","province":"東京都","city":"荒川区","address":"東京都荒川区南千住7丁目1-1","lat":35.73318285,"lon":139.79828712},{"name":"橋場橋通り入口","province":"東京都","city":"荒川区","address":"東京都荒川区南千住4丁目1-1","lat":35.7338137,"lon":139.80141504},{"name":"南千住三丁目","province":"東京都","city":"荒川区","address":"東京都荒川区南千住2丁目31-8","lat":35.73001358,"lon":139.79867038},{"name":"南千住八丁目","province":"東京都","city":"荒川区","address":"東京都荒川区南千住8丁目13","lat":35.73642518,"lon":139.81024806},{"name":"瑞光橋公園前","province":"東京都","city":"荒川区","address":"東京都荒川区南千住8丁目17-1","lat":35.73456159,"lon":139.80941238},{"name":"南千住けやき通り入口","province":"東京都","city":"荒川区","address":"東京都荒川区南千住4丁目9-4","lat":35.73695531,"lon":139.80453431},{"name":"隅田川駅北","province":"東京都","city":"荒川区","address":"東京都荒川区南千住4丁目9","lat":35.7362609,"lon":139.8037205},{"name":"白鬚橋西詰","province":"東京都","city":"荒川区","address":"東京都荒川区南千住3丁目28-67","lat":35.72846805,"lon":139.8084078},{"name":"日暮里中央通り","province":"東京都","city":"荒川区","address":"東京都荒川区東日暮里6丁目15-1","lat":35.72879428,"lon":139.77860864},{"name":"宮地","province":"東京都","city":"荒川区","address":"東京都荒川区荒川5丁目1-1","lat":35.73756853,"lon":139.77661979},{"name":"三河島駅前","province":"東京都","city":"荒川区","address":"東京都荒川区西日暮里1丁目6-10","lat":35.7334439,"lon":139.77674766},{"name":"サンパール荒川前","province":"東京都","city":"荒川区","address":"東京都荒川区荒川1丁目49-2","lat":35.73439995,"lon":139.78501953},{"name":"荒川三丁目","province":"東京都","city":"荒川区","address":"東京都荒川区荒川2丁目4-2","lat":35.73561922,"lon":139.78205309},{"name":"日暮里二丁目","province":"東京都","city":"荒川区","address":"東京都荒川区東日暮里4丁目36-18","lat":35.72504454,"lon":139.77908921},{"name":"西日暮里四丁目","province":"東京都","city":"荒川区","address":"東京都荒川区西日暮里3丁目23-14","lat":35.73128501,"lon":139.76493992},{"name":"西日暮里二丁目","province":"東京都","city":"荒川区","address":"東京都荒川区西日暮里2丁目25-1","lat":35.7295939,"lon":139.77148686},{"name":"第三日暮里小前","province":"東京都","city":"荒川区","address":"東京都荒川区東日暮里3丁目10-17","lat":35.72886384,"lon":139.78137513},{"name":"荒川七丁目","province":"東京都","city":"荒川区","address":"東京都荒川区荒川7丁目4-3","lat":35.74305417,"lon":139.7845799},{"name":"三河島駅前北","province":"東京都","city":"荒川区","address":"東京都荒川区荒川3丁目63-2","lat":35.7340579,"lon":139.77870315},{"name":"東日暮里六丁目","province":"東京都","city":"荒川区","address":"東京都荒川区東日暮里6丁目44-7","lat":35.72884694,"lon":139.77579772},{"name":"東日暮里五丁目","province":"東京都","city":"荒川区","address":"東京都荒川区東日暮里5丁目40-3","lat":35.72644708,"lon":139.77480338},{"name":"東日暮里三丁目","province":"東京都","city":"荒川区","address":"東京都荒川区東日暮里3丁目42-8","lat":35.73165527,"lon":139.77904754},{"name":"東日暮里四丁目","province":"東京都","city":"荒川区","address":"東京都荒川区東日暮里4丁目35-10","lat":35.72597504,"lon":139.77909476},{"name":"西日暮里一丁目東","province":"東京都","city":"荒川区","address":"東京都荒川区西日暮里1丁目3-1","lat":35.73554381,"lon":139.77718099},{"name":"町屋第二","province":"東京都","city":"荒川区","address":"東京都荒川区荒川7丁目46-1","lat":35.74194027,"lon":139.78047194},{"name":"西日暮里五丁目第二","province":"東京都","city":"荒川区","address":"東京都荒川区西日暮里5丁目10-9","lat":35.73234626,"lon":139.76898135},{"name":"西日暮里駅前","province":"東京都","city":"荒川区","address":"東京都荒川区西日暮里3丁目5-1","lat":35.73196836,"lon":139.76645372},{"name":"町屋一丁目","province":"東京都","city":"荒川区","address":"東京都荒川区町屋2丁目2-20","lat":35.74368443,"lon":139.78096337},{"name":"西日暮里一丁目西","province":"東京都","city":"荒川区","address":"東京都荒川区西日暮里1丁目18-5","lat":35.7359158,"lon":139.77484215},{"name":"東日暮里六丁目東","province":"東京都","city":"荒川区","address":"東京都荒川区東日暮里6丁目18-7","lat":35.72887198,"lon":139.77680599},{"name":"東日暮里三丁目南","province":"東京都","city":"荒川区","address":"東京都荒川区東日暮里6丁目6-8","lat":35.73056085,"lon":139.77850034},{"name":"新三河島駅前","province":"東京都","city":"荒川区","address":"東京都荒川区荒川5丁目18-3","lat":35.7378238,"lon":139.77374761},{"name":"西日暮里五丁目東","province":"東京都","city":"荒川区","address":"東京都荒川区西日暮里5丁目6-1","lat":35.73339342,"lon":139.76977294},{"name":"荒川区役所東","province":"東京都","city":"荒川区","address":"東京都荒川区荒川2丁目13-9","lat":35.73696654,"lon":139.7843308},{"name":"荒川区民会館北第一","province":"東京都","city":"荒川区","address":"東京都荒川区荒川2丁目14","lat":35.73626939,"lon":139.78453081},{"name":"荒川区民会館北第二","province":"東京都","city":"荒川区","address":"東京都荒川区荒川2丁目1-3","lat":35.73566385,"lon":139.78460854},{"name":"西日暮里六丁目","province":"東京都","city":"荒川区","address":"東京都荒川区西日暮里6丁目48-6","lat":35.73627917,"lon":139.76858125},{"name":"西日暮里二丁目北","province":"東京都","city":"荒川区","address":"東京都荒川区西日暮里2丁目40-10","lat":35.73146031,"lon":139.77015632},{"name":"地下鉄町屋駅南","province":"東京都","city":"荒川区","address":"東京都荒川区荒川7丁目43-3","lat":35.7409765,"lon":139.7795221},{"name":"日暮里南公園入口","province":"東京都","city":"荒川区","address":"東京都荒川区東日暮里5丁目7-1","lat":35.72707772,"lon":139.77872531},{"name":"かんかん森通り","province":"東京都","city":"荒川区","address":"東京都荒川区東日暮里6丁目14-2","lat":35.72931647,"lon":139.77861421},{"name":"アクロスあらかわ東","province":"東京都","city":"荒川区","address":"東京都荒川区荒川7丁目7-1","lat":35.74078519,"lon":139.78419137},{"name":"日暮里図書館入口","province":"東京都","city":"荒川区","address":"東京都荒川区西日暮里2丁目5-4","lat":35.73164111,"lon":139.77453943},{"name":"西日暮里駅東","province":"東京都","city":"荒川区","address":"東京都荒川区西日暮里5丁目34-5","lat":35.73280165,"lon":139.76727032},{"name":"ひぐらし小学校前","province":"東京都","city":"荒川区","address":"東京都荒川区西日暮里2丁目27-5","lat":35.73049102,"lon":139.77128406},{"name":"京成町屋駅前","province":"東京都","city":"荒川区","address":"東京都荒川区荒川7丁目40-1","lat":35.74234026,"lon":139.7815274},{"name":"ゆいの森あらかわ","province":"東京都","city":"荒川区","address":"東京都荒川区荒川2丁目28","lat":35.73854954,"lon":139.78417502},{"name":"西日暮里一丁目南","province":"東京都","city":"荒川区","address":"東京都荒川区西日暮里1丁目61-18","lat":35.7342129,"lon":139.77143117},{"name":"西日暮里二丁目東","province":"東京都","city":"荒川区","address":"東京都荒川区西日暮里2丁目13-1","lat":35.73030504,"lon":139.77343118},{"name":"第四日暮里小南","province":"東京都","city":"荒川区","address":"東京都荒川区西日暮里2丁目30-1","lat":35.73075217,"lon":139.77237289},{"name":"荒川町屋郵便局前","province":"東京都","city":"荒川区","address":"東京都荒川区町屋1丁目18-1","lat":35.74372064,"lon":139.78314102},{"name":"南千住給水所","province":"東京都","city":"荒川区","address":"東京都荒川区南千住8丁目2-6","lat":35.73577514,"lon":139.80766775},{"name":"大関横丁第二","province":"東京都","city":"荒川区","address":"東京都荒川区東日暮里1丁目3-4","lat":35.73041082,"lon":139.79079062},{"name":"東尾久五丁目","province":"東京都","city":"荒川区","address":"東京都荒川区東尾久2丁目49-7","lat":35.74498085,"lon":139.76946398},{"name":"熊の前","province":"東京都","city":"荒川区","address":"東京都荒川区東尾久8丁目14-1","lat":35.74944131,"lon":139.76929143},{"name":"宮の前","province":"東京都","city":"荒川区","address":"東京都荒川区西尾久2丁目4-17","lat":35.74989939,"lon":139.7651167},{"name":"熊野前交番前","province":"東京都","city":"荒川区","address":"東京都荒川区東尾久6丁目50-9","lat":35.74931641,"lon":139.77100242},{"name":"北豊島学園前","province":"東京都","city":"荒川区","address":"東京都荒川区東尾久6丁目34-24","lat":35.74915541,"lon":139.77331614},{"name":"東京都立大学前","province":"東京都","city":"荒川区","address":"東京都荒川区東尾久7丁目2-10","lat":35.74998303,"lon":139.77211339},{"name":"大門小学校入口","province":"東京都","city":"荒川区","address":"東京都荒川区町屋5丁目7","lat":35.74967765,"lon":139.77732407},{"name":"南千住警察署入口","province":"東京都","city":"荒川区","address":"東京都荒川区南千住6丁目47-8","lat":35.73462169,"lon":139.79419311},{"name":"泪橋","province":"東京都","city":"荒川区","address":"東京都荒川区南千住3丁目5-20","lat":35.72923876,"lon":139.79962882},{"name":"天王神社前","province":"東京都","city":"荒川区","address":"東京都荒川区南千住6丁目60-17","lat":35.73682984,"lon":139.79637343},{"name":"東日暮里一丁目都住前","province":"東京都","city":"荒川区","address":"東京都荒川区東日暮里1丁目5","lat":35.73125248,"lon":139.79047683},{"name":"千住大橋南","province":"東京都","city":"荒川区","address":"東京都荒川区南千住7丁目17-5","lat":35.73736035,"lon":139.79724834},{"name":"南千住二丁目","province":"東京都","city":"荒川区","address":"東京都荒川区南千住2丁目15-5","lat":35.72908002,"lon":139.79570084},{"name":"南千住五丁目","province":"東京都","city":"荒川区","address":"東京都荒川区南千住5丁目12-1","lat":35.73471054,"lon":139.79489023},{"name":"南千住七丁目","province":"東京都","city":"荒川区","address":"東京都荒川区南千住7丁目3","lat":35.73384948,"lon":139.79813714},{"name":"泪橋西","province":"東京都","city":"荒川区","address":"東京都荒川区南千住2丁目27-10","lat":35.72909684,"lon":139.79802027},{"name":"南千住二丁目仲通り","province":"東京都","city":"荒川区","address":"東京都荒川区南千住2丁目20-15","lat":35.730405,"lon":139.7957176},{"name":"南千住七丁目北","province":"東京都","city":"荒川区","address":"東京都荒川区南千住7丁目24-24","lat":35.73666891,"lon":139.799465},{"name":"南千住一丁目","province":"東京都","city":"荒川区","address":"東京都荒川区南千住1丁目32-9","lat":35.73291903,"lon":139.79228219},{"name":"南千住三丁目西交番前","province":"東京都","city":"荒川区","address":"東京都荒川区南千住2丁目31-8","lat":35.73001358,"lon":139.79867038},{"name":"南千住四丁目","province":"東京都","city":"荒川区","address":"東京都荒川区南千住4丁目9","lat":35.7362609,"lon":139.8037205},{"name":"南千住駅前","province":"東京都","city":"荒川区","address":"東京都荒川区南千住7丁目1-1","lat":35.73318285,"lon":139.79828712},{"name":"橋場橋通り入口","province":"東京都","city":"荒川区","address":"東京都荒川区南千住4丁目1-1","lat":35.7338137,"lon":139.80141504},{"name":"南千住三丁目","province":"東京都","city":"荒川区","address":"東京都荒川区南千住2丁目31-8","lat":35.73001358,"lon":139.79867038},{"name":"南千住八丁目","province":"東京都","city":"荒川区","address":"東京都荒川区南千住8丁目13","lat":35.73642518,"lon":139.81024806},{"name":"瑞光橋公園前","province":"東京都","city":"荒川区","address":"東京都荒川区南千住8丁目17-1","lat":35.73456159,"lon":139.80941238},{"name":"南千住けやき通り入口","province":"東京都","city":"荒川区","address":"東京都荒川区南千住4丁目9-4","lat":35.73695531,"lon":139.80453431},{"name":"隅田川駅北","province":"東京都","city":"荒川区","address":"東京都荒川区南千住4丁目9","lat":35.7362609,"lon":139.8037205},{"name":"白鬚橋西詰","province":"東京都","city":"荒川区","address":"東京都荒川区南千住3丁目28-67","lat":35.72846805,"lon":139.8084078},{"name":"日暮里中央通り","province":"東京都","city":"荒川区","address":"東京都荒川区東日暮里6丁目15-1","lat":35.72879428,"lon":139.77860864},{"name":"宮地","province":"東京都","city":"荒川区","address":"東京都荒川区荒川5丁目1-1","lat":35.73756853,"lon":139.77661979},{"name":"三河島駅前","province":"東京都","city":"荒川区","address":"東京都荒川区西日暮里1丁目6-10","lat":35.7334439,"lon":139.77674766},{"name":"サンパール荒川前","province":"東京都","city":"荒川区","address":"東京都荒川区荒川1丁目49-2","lat":35.73439995,"lon":139.78501953},{"name":"荒川三丁目","province":"東京都","city":"荒川区","address":"東京都荒川区荒川2丁目4-2","lat":35.73561922,"lon":139.78205309},{"name":"日暮里二丁目","province":"東京都","city":"荒川区","address":"東京都荒川区東日暮里4丁目36-18","lat":35.72504454,"lon":139.77908921},{"name":"西日暮里四丁目","province":"東京都","city":"荒川区","address":"東京都荒川区西日暮里3丁目23-14","lat":35.73128501,"lon":139.76493992},{"name":"西日暮里二丁目","province":"東京都","city":"荒川区","address":"東京都荒川区西日暮里2丁目25-1","lat":35.7295939,"lon":139.77148686},{"name":"第三日暮里小前","province":"東京都","city":"荒川区","address":"東京都荒川区東日暮里3丁目10-17","lat":35.72886384,"lon":139.78137513},{"name":"荒川七丁目","province":"東京都","city":"荒川区","address":"東京都荒川区荒川7丁目4-3","lat":35.74305417,"lon":139.7845799},{"name":"三河島駅前北","province":"東京都","city":"荒川区","address":"東京都荒川区荒川3丁目63-2","lat":35.7340579,"lon":139.77870315},{"name":"東日暮里六丁目","province":"東京都","city":"荒川区","address":"東京都荒川区東日暮里6丁目44-7","lat":35.72884694,"lon":139.77579772},{"name":"東日暮里五丁目","province":"東京都","city":"荒川区","address":"東京都荒川区東日暮里5丁目40-3","lat":35.72644708,"lon":139.77480338},{"name":"東日暮里三丁目","province":"東京都","city":"荒川区","address":"東京都荒川区東日暮里3丁目42-8","lat":35.73165527,"lon":139.77904754},{"name":"東日暮里四丁目","province":"東京都","city":"荒川区","address":"東京都荒川区東日暮里4丁目35-10","lat":35.72597504,"lon":139.77909476},{"name":"西日暮里一丁目東","province":"東京都","city":"荒川区","address":"東京都荒川区西日暮里1丁目3-1","lat":35.73554381,"lon":139.77718099},{"name":"町屋第二","province":"東京都","city":"荒川区","address":"東京都荒川区荒川7丁目46-1","lat":35.74194027,"lon":139.78047194},{"name":"西日暮里五丁目第二","province":"東京都","city":"荒川区","address":"東京都荒川区西日暮里5丁目10-9","lat":35.73234626,"lon":139.76898135},{"name":"西日暮里駅前","province":"東京都","city":"荒川区","address":"東京都荒川区西日暮里3丁目5-1","lat":35.73196836,"lon":139.76645372},{"name":"町屋一丁目","province":"東京都","city":"荒川区","address":"東京都荒川区町屋2丁目2-20","lat":35.74368443,"lon":139.78096337},{"name":"西日暮里一丁目西","province":"東京都","city":"荒川区","address":"東京都荒川区西日暮里1丁目18-5","lat":35.7359158,"lon":139.77484215},{"name":"東日暮里六丁目東","province":"東京都","city":"荒川区","address":"東京都荒川区東日暮里6丁目18-7","lat":35.72887198,"lon":139.77680599},{"name":"東日暮里三丁目南","province":"東京都","city":"荒川区","address":"東京都荒川区東日暮里6丁目6-8","lat":35.73056085,"lon":139.77850034},{"name":"新三河島駅前","province":"東京都","city":"荒川区","address":"東京都荒川区荒川5丁目18-3","lat":35.7378238,"lon":139.77374761},{"name":"西日暮里五丁目東","province":"東京都","city":"荒川区","address":"東京都荒川区西日暮里5丁目6-1","lat":35.73339342,"lon":139.76977294},{"name":"荒川区役所東","province":"東京都","city":"荒川区","address":"東京都荒川区荒川2丁目13-9","lat":35.73696654,"lon":139.7843308},{"name":"荒川区民会館北第一","province":"東京都","city":"荒川区","address":"東京都荒川区荒川2丁目14","lat":35.73626939,"lon":139.78453081},{"name":"荒川区民会館北第二","province":"東京都","city":"荒川区","address":"東京都荒川区荒川2丁目1-3","lat":35.73566385,"lon":139.78460854},{"name":"西日暮里六丁目","province":"東京都","city":"荒川区","address":"東京都荒川区西日暮里6丁目48-6","lat":35.73627917,"lon":139.76858125},{"name":"西日暮里二丁目北","province":"東京都","city":"荒川区","address":"東京都荒川区西日暮里2丁目40-10","lat":35.73146031,"lon":139.77015632},{"name":"地下鉄町屋駅南","province":"東京都","city":"荒川区","address":"東京都荒川区荒川7丁目43-3","lat":35.7409765,"lon":139.7795221},{"name":"日暮里南公園入口","province":"東京都","city":"荒川区","address":"東京都荒川区東日暮里5丁目7-1","lat":35.72707772,"lon":139.77872531},{"name":"かんかん森通り","province":"東京都","city":"荒川区","address":"東京都荒川区東日暮里6丁目14-2","lat":35.72931647,"lon":139.77861421},{"name":"アクロスあらかわ東","province":"東京都","city":"荒川区","address":"東京都荒川区荒川7丁目7-1","lat":35.74078519,"lon":139.78419137},{"name":"日暮里図書館入口","province":"東京都","city":"荒川区","address":"東京都荒川区西日暮里2丁目5-4","lat":35.73164111,"lon":139.77453943},{"name":"西日暮里駅東","province":"東京都","city":"荒川区","address":"東京都荒川区西日暮里5丁目34-5","lat":35.73280165,"lon":139.76727032},{"name":"ひぐらし小学校前","province":"東京都","city":"荒川区","address":"東京都荒川区西日暮里2丁目27-5","lat":35.73049102,"lon":139.77128406},{"name":"京成町屋駅前","province":"東京都","city":"荒川区","address":"東京都荒川区荒川7丁目40-1","lat":35.74234026,"lon":139.7815274},{"name":"ゆいの森あらかわ","province":"東京都","city":"荒川区","address":"東京都荒川区荒川2丁目28","lat":35.73854954,"lon":139.78417502},{"name":"西日暮里一丁目南","province":"東京都","city":"荒川区","address":"東京都荒川区西日暮里1丁目61-18","lat":35.7342129,"lon":139.77143117},{"name":"西日暮里二丁目東","province":"東京都","city":"荒川区","address":"東京都荒川区西日暮里2丁目13-1","lat":35.73030504,"lon":139.77343118},{"name":"第四日暮里小南","province":"東京都","city":"荒川区","address":"東京都荒川区西日暮里2丁目30-1","lat":35.73075217,"lon":139.77237289},{"name":"荒川町屋郵便局前","province":"東京都","city":"荒川区","address":"東京都荒川区町屋1丁目18-1","lat":35.74372064,"lon":139.78314102},{"name":"南千住給水所","province":"東京都","city":"荒川区","address":"東京都荒川区南千住8丁目2-6","lat":35.73577514,"lon":139.80766775},{"name":"大関横丁第二","province":"東京都","city":"荒川区","address":"東京都荒川区東日暮里1丁目3-4","lat":35.73041082,"lon":139.79079062},{"name":"東尾久五丁目","province":"東京都","city":"荒川区","address":"東京都荒川区東尾久2丁目49-7","lat":35.74498085,"lon":139.76946398},{"name":"熊の前","province":"東京都","city":"荒川区","address":"東京都荒川区東尾久8丁目14-1","lat":35.74944131,"lon":139.76929143},{"name":"宮の前","province":"東京都","city":"荒川区","address":"東京都荒川区西尾久2丁目4-17","lat":35.74989939,"lon":139.7651167},{"name":"熊野前交番前","province":"東京都","city":"荒川区","address":"東京都荒川区東尾久6丁目50-9","lat":35.74931641,"lon":139.77100242},{"name":"北豊島学園前","province":"東京都","city":"荒川区","address":"東京都荒川区東尾久6丁目34-24","lat":35.74915541,"lon":139.77331614},{"name":"東京都立大学前","province":"東京都","city":"荒川区","address":"東京都荒川区東尾久7丁目2-10","lat":35.74998303,"lon":139.77211339},{"name":"大門小学校入口","province":"東京都","city":"荒川区","address":"東京都荒川区町屋5丁目7","lat":35.74967765,"lon":139.77732407},{"name":"南千住警察署入口","province":"東京都","city":"荒川区","address":"東京都荒川区南千住6丁目47-8","lat":35.73462169,"lon":139.79419311},{"name":"泪橋","province":"東京都","city":"荒川区","address":"東京都荒川区南千住3丁目5-20","lat":35.72923876,"lon":139.79962882},{"name":"天王神社前","province":"東京都","city":"荒川区","address":"東京都荒川区南千住6丁目60-17","lat":35.73682984,"lon":139.79637343},{"name":"東日暮里一丁目都住前","province":"東京都","city":"荒川区","address":"東京都荒川区東日暮里1丁目5","lat":35.73125248,"lon":139.79047683},{"name":"千住大橋南","province":"東京都","city":"荒川区","address":"東京都荒川区南千住7丁目17-5","lat":35.73736035,"lon":139.79724834},{"name":"南千住二丁目","province":"東京都","city":"荒川区","address":"東京都荒川区南千住2丁目15-5","lat":35.72908002,"lon":139.79570084},{"name":"南千住五丁目","province":"東京都","city":"荒川区","address":"東京都荒川区南千住5丁目12-1","lat":35.73471054,"lon":139.79489023},{"name":"南千住七丁目","province":"東京都","city":"荒川区","address":"東京都荒川区南千住7丁目3","lat":35.73384948,"lon":139.79813714},{"name":"泪橋西","province":"東京都","city":"荒川区","address":"東京都荒川区南千住2丁目27-10","lat":35.72909684,"lon":139.79802027},{"name":"南千住二丁目仲通り","province":"東京都","city":"荒川区","address":"東京都荒川区南千住2丁目20-15","lat":35.730405,"lon":139.7957176},{"name":"南千住七丁目北","province":"東京都","city":"荒川区","address":"東京都荒川区南千住7丁目24-24","lat":35.73666891,"lon":139.799465},{"name":"南千住一丁目","province":"東京都","city":"荒川区","address":"東京都荒川区南千住1丁目32-9","lat":35.73291903,"lon":139.79228219},{"name":"南千住三丁目西交番前","province":"東京都","city":"荒川区","address":"東京都荒川区南千住2丁目31-8","lat":35.73001358,"lon":139.79867038},{"name":"南千住四丁目","province":"東京都","city":"荒川区","address":"東京都荒川区南千住4丁目9","lat":35.7362609,"lon":139.8037205},{"name":"南千住駅前","province":"東京都","city":"荒川区","address":"東京都荒川区南千住7丁目1-1","lat":35.73318285,"lon":139.79828712},{"name":"橋場橋通り入口","province":"東京都","city":"荒川区","address":"東京都荒川区南千住4丁目1-1","lat":35.7338137,"lon":139.80141504},{"name":"南千住三丁目","province":"東京都","city":"荒川区","address":"東京都荒川区南千住2丁目31-8","lat":35.73001358,"lon":139.79867038},{"name":"南千住八丁目","province":"東京都","city":"荒川区","address":"東京都荒川区南千住8丁目13","lat":35.73642518,"lon":139.81024806},{"name":"瑞光橋公園前","province":"東京都","city":"荒川区","address":"東京都荒川区南千住8丁目17-1","lat":35.73456159,"lon":139.80941238},{"name":"南千住けやき通り入口","province":"東京都","city":"荒川区","address":"東京都荒川区南千住4丁目9-4","lat":35.73695531,"lon":139.80453431},{"name":"隅田川駅北","province":"東京都","city":"荒川区","address":"東京都荒川区南千住4丁目9","lat":35.7362609,"lon":139.8037205},{"name":"白鬚橋西詰","province":"東京都","city":"荒川区","address":"東京都荒川区南千住3丁目28-67","lat":35.72846805,"lon":139.8084078},{"name":"日暮里中央通り","province":"東京都","city":"荒川区","address":"東京都荒川区東日暮里6丁目15-1","lat":35.72879428,"lon":139.77860864},{"name":"宮地","province":"東京都","city":"荒川区","address":"東京都荒川区荒川5丁目1-1","lat":35.73756853,"lon":139.77661979},{"name":"三河島駅前","province":"東京都","city":"荒川区","address":"東京都荒川区西日暮里1丁目6-10","lat":35.7334439,"lon":139.77674766},{"name":"サンパール荒川前","province":"東京都","city":"荒川区","address":"東京都荒川区荒川1丁目49-2","lat":35.73439995,"lon":139.78501953},{"name":"荒川三丁目","province":"東京都","city":"荒川区","address":"東京都荒川区荒川2丁目4-2","lat":35.73561922,"lon":139.78205309},{"name":"日暮里二丁目","province":"東京都","city":"荒川区","address":"東京都荒川区東日暮里4丁目36-18","lat":35.72504454,"lon":139.77908921},{"name":"西日暮里四丁目","province":"東京都","city":"荒川区","address":"東京都荒川区西日暮里3丁目23-14","lat":35.73128501,"lon":139.76493992},{"name":"西日暮里二丁目","province":"東京都","city":"荒川区","address":"東京都荒川区西日暮里2丁目25-1","lat":35.7295939,"lon":139.77148686},{"name":"第三日暮里小前","province":"東京都","city":"荒川区","address":"東京都荒川区東日暮里3丁目10-17","lat":35.72886384,"lon":139.78137513},{"name":"荒川七丁目","province":"東京都","city":"荒川区","address":"東京都荒川区荒川7丁目4-3","lat":35.74305417,"lon":139.7845799},{"name":"三河島駅前北","province":"東京都","city":"荒川区","address":"東京都荒川区荒川3丁目63-2","lat":35.7340579,"lon":139.77870315},{"name":"東日暮里六丁目","province":"東京都","city":"荒川区","address":"東京都荒川区東日暮里6丁目44-7","lat":35.72884694,"lon":139.77579772},{"name":"東日暮里五丁目","province":"東京都","city":"荒川区","address":"東京都荒川区東日暮里5丁目40-3","lat":35.72644708,"lon":139.77480338},{"name":"東日暮里三丁目","province":"東京都","city":"荒川区","address":"東京都荒川区東日暮里3丁目42-8","lat":35.73165527,"lon":139.77904754},{"name":"東日暮里四丁目","province":"東京都","city":"荒川区","address":"東京都荒川区東日暮里4丁目35-10","lat":35.72597504,"lon":139.77909476},{"name":"西日暮里一丁目東","province":"東京都","city":"荒川区","address":"東京都荒川区西日暮里1丁目3-1","lat":35.73554381,"lon":139.77718099},{"name":"町屋第二","province":"東京都","city":"荒川区","address":"東京都荒川区荒川7丁目46-1","lat":35.74194027,"lon":139.78047194},{"name":"西日暮里五丁目第二","province":"東京都","city":"荒川区","address":"東京都荒川区西日暮里5丁目10-9","lat":35.73234626,"lon":139.76898135},{"name":"西日暮里駅前","province":"東京都","city":"荒川区","address":"東京都荒川区西日暮里3丁目5-1","lat":35.73196836,"lon":139.76645372},{"name":"町屋一丁目","province":"東京都","city":"荒川区","address":"東京都荒川区町屋2丁目2-20","lat":35.74368443,"lon":139.78096337},{"name":"西日暮里一丁目西","province":"東京都","city":"荒川区","address":"東京都荒川区西日暮里1丁目18-5","lat":35.7359158,"lon":139.77484215},{"name":"東日暮里六丁目東","province":"東京都","city":"荒川区","address":"東京都荒川区東日暮里6丁目18-7","lat":35.72887198,"lon":139.77680599},{"name":"東日暮里三丁目南","province":"東京都","city":"荒川区","address":"東京都荒川区東日暮里6丁目6-8","lat":35.73056085,"lon":139.77850034},{"name":"新三河島駅前","province":"東京都","city":"荒川区","address":"東京都荒川区荒川5丁目18-3","lat":35.7378238,"lon":139.77374761},{"name":"西日暮里五丁目東","province":"東京都","city":"荒川区","address":"東京都荒川区西日暮里5丁目6-1","lat":35.73339342,"lon":139.76977294},{"name":"荒川区役所東","province":"東京都","city":"荒川区","address":"東京都荒川区荒川2丁目13-9","lat":35.73696654,"lon":139.7843308},{"name":"荒川区民会館北第一","province":"東京都","city":"荒川区","address":"東京都荒川区荒川2丁目14","lat":35.73626939,"lon":139.78453081},{"name":"荒川区民会館北第二","province":"東京都","city":"荒川区","address":"東京都荒川区荒川2丁目1-3","lat":35.73566385,"lon":139.78460854},{"name":"西日暮里六丁目","province":"東京都","city":"荒川区","address":"東京都荒川区西日暮里6丁目48-6","lat":35.73627917,"lon":139.76858125},{"name":"西日暮里二丁目北","province":"東京都","city":"荒川区","address":"東京都荒川区西日暮里2丁目40-10","lat":35.73146031,"lon":139.77015632},{"name":"地下鉄町屋駅南","province":"東京都","city":"荒川区","address":"東京都荒川区荒川7丁目43-3","lat":35.7409765,"lon":139.7795221},{"name":"日暮里南公園入口","province":"東京都","city":"荒川区","address":"東京都荒川区東日暮里5丁目7-1","lat":35.72707772,"lon":139.77872531},{"name":"かんかん森通り","province":"東京都","city":"荒川区","address":"東京都荒川区東日暮里6丁目14-2","lat":35.72931647,"lon":139.77861421},{"name":"アクロスあらかわ東","province":"東京都","city":"荒川区","address":"東京都荒川区荒川7丁目7-1","lat":35.74078519,"lon":139.78419137},{"name":"日暮里図書館入口","province":"東京都","city":"荒川区","address":"東京都荒川区西日暮里2丁目5-4","lat":35.73164111,"lon":139.77453943},{"name":"西日暮里駅東","province":"東京都","city":"荒川区","address":"東京都荒川区西日暮里5丁目34-5","lat":35.73280165,"lon":139.76727032},{"name":"ひぐらし小学校前","province":"東京都","city":"荒川区","address":"東京都荒川区西日暮里2丁目27-5","lat":35.73049102,"lon":139.77128406},{"name":"京成町屋駅前","province":"東京都","city":"荒川区","address":"東京都荒川区荒川7丁目40-1","lat":35.74234026,"lon":139.7815274},{"name":"ゆいの森あらかわ","province":"東京都","city":"荒川区","address":"東京都荒川区荒川2丁目28","lat":35.73854954,"lon":139.78417502},{"name":"西日暮里一丁目南","province":"東京都","city":"荒川区","address":"東京都荒川区西日暮里1丁目61-18","lat":35.7342129,"lon":139.77143117},{"name":"西日暮里二丁目東","province":"東京都","city":"荒川区","address":"東京都荒川区西日暮里2丁目13-1","lat":35.73030504,"lon":139.77343118},{"name":"第四日暮里小南","province":"東京都","city":"荒川区","address":"東京都荒川区西日暮里2丁目30-1","lat":35.73075217,"lon":139.77237289},{"name":"荒川町屋郵便局前","province":"東京都","city":"荒川区","address":"東京都荒川区町屋1丁目18-1","lat":35.74372064,"lon":139.78314102},{"name":"南千住給水所","province":"東京都","city":"荒川区","address":"東京都荒川区南千住8丁目2-6","lat":35.73577514,"lon":139.80766775},{"name":"大関横丁第二","province":"東京都","city":"荒川区","address":"東京都荒川区東日暮里1丁目3-4","lat":35.73041082,"lon":139.79079062},{"name":"東尾久五丁目","province":"東京都","city":"荒川区","address":"東京都荒川区東尾久2丁目49-7","lat":35.74498085,"lon":139.76946398},{"name":"熊の前","province":"東京都","city":"荒川区","address":"東京都荒川区東尾久8丁目14-1","lat":35.74944131,"lon":139.76929143},{"name":"宮の前","province":"東京都","city":"荒川区","address":"東京都荒川区西尾久2丁目4-17","lat":35.74989939,"lon":139.7651167},{"name":"熊野前交番前","province":"東京都","city":"荒川区","address":"東京都荒川区東尾久6丁目50-9","lat":35.74931641,"lon":139.77100242},{"name":"北豊島学園前","province":"東京都","city":"荒川区","address":"東京都荒川区東尾久6丁目34-24","lat":35.74915541,"lon":139.77331614},{"name":"東京都立大学前","province":"東京都","city":"荒川区","address":"東京都荒川区東尾久7丁目2-10","lat":35.74998303,"lon":139.77211339},{"name":"大門小学校入口","province":"東京都","city":"荒川区","address":"東京都荒川区町屋5丁目7","lat":35.74967765,"lon":139.77732407},{"name":"南千住警察署入口","province":"東京都","city":"荒川区","address":"東京都荒川区南千住6丁目47-8","lat":35.73462169,"lon":139.79419311},{"name":"泪橋","province":"東京都","city":"荒川区","address":"東京都荒川区南千住3丁目5-20","lat":35.72923876,"lon":139.79962882},{"name":"天王神社前","province":"東京都","city":"荒川区","address":"東京都荒川区南千住6丁目60-17","lat":35.73682984,"lon":139.79637343},{"name":"東日暮里一丁目都住前","province":"東京都","city":"荒川区","address":"東京都荒川区東日暮里1丁目5","lat":35.73125248,"lon":139.79047683},{"name":"千住大橋南","province":"東京都","city":"荒川区","address":"東京都荒川区南千住7丁目17-5","lat":35.73736035,"lon":139.79724834},{"name":"南千住二丁目","province":"東京都","city":"荒川区","address":"東京都荒川区南千住2丁目15-5","lat":35.72908002,"lon":139.79570084},{"name":"南千住五丁目","province":"東京都","city":"荒川区","address":"東京都荒川区南千住5丁目12-1","lat":35.73471054,"lon":139.79489023},{"name":"南千住七丁目","province":"東京都","city":"荒川区","address":"東京都荒川区南千住7丁目3","lat":35.73384948,"lon":139.79813714},{"name":"泪橋西","province":"東京都","city":"荒川区","address":"東京都荒川区南千住2丁目27-10","lat":35.72909684,"lon":139.79802027},{"name":"南千住二丁目仲通り","province":"東京都","city":"荒川区","address":"東京都荒川区南千住2丁目20-15","lat":35.730405,"lon":139.7957176},{"name":"南千住七丁目北","province":"東京都","city":"荒川区","address":"東京都荒川区南千住7丁目24-24","lat":35.73666891,"lon":139.799465},{"name":"南千住一丁目","province":"東京都","city":"荒川区","address":"東京都荒川区南千住1丁目32-9","lat":35.73291903,"lon":139.79228219},{"name":"南千住三丁目西交番前","province":"東京都","city":"荒川区","address":"東京都荒川区南千住2丁目31-8","lat":35.73001358,"lon":139.79867038},{"name":"南千住四丁目","province":"東京都","city":"荒川区","address":"東京都荒川区南千住4丁目9","lat":35.7362609,"lon":139.8037205},{"name":"南千住駅前","province":"東京都","city":"荒川区","address":"東京都荒川区南千住7丁目1-1","lat":35.73318285,"lon":139.79828712},{"name":"橋場橋通り入口","province":"東京都","city":"荒川区","address":"東京都荒川区南千住4丁目1-1","lat":35.7338137,"lon":139.80141504},{"name":"南千住三丁目","province":"東京都","city":"荒川区","address":"東京都荒川区南千住2丁目31-8","lat":35.73001358,"lon":139.79867038},{"name":"南千住八丁目","province":"東京都","city":"荒川区","address":"東京都荒川区南千住8丁目13","lat":35.73642518,"lon":139.81024806},{"name":"瑞光橋公園前","province":"東京都","city":"荒川区","address":"東京都荒川区南千住8丁目17-1","lat":35.73456159,"lon":139.80941238},{"name":"南千住けやき通り入口","province":"東京都","city":"荒川区","address":"東京都荒川区南千住4丁目9-4","lat":35.73695531,"lon":139.80453431},{"name":"隅田川駅北","province":"東京都","city":"荒川区","address":"東京都荒川区南千住4丁目9","lat":35.7362609,"lon":139.8037205},{"name":"白鬚橋西詰","province":"東京都","city":"荒川区","address":"東京都荒川区南千住3丁目28-67","lat":35.72846805,"lon":139.8084078},{"name":"日暮里中央通り","province":"東京都","city":"荒川区","address":"東京都荒川区東日暮里6丁目15-1","lat":35.72879428,"lon":139.77860864},{"name":"宮地","province":"東京都","city":"荒川区","address":"東京都荒川区荒川5丁目1-1","lat":35.73756853,"lon":139.77661979},{"name":"三河島駅前","province":"東京都","city":"荒川区","address":"東京都荒川区西日暮里1丁目6-10","lat":35.7334439,"lon":139.77674766},{"name":"サンパール荒川前","province":"東京都","city":"荒川区","address":"東京都荒川区荒川1丁目49-2","lat":35.73439995,"lon":139.78501953},{"name":"荒川三丁目","province":"東京都","city":"荒川区","address":"東京都荒川区荒川2丁目4-2","lat":35.73561922,"lon":139.78205309},{"name":"日暮里二丁目","province":"東京都","city":"荒川区","address":"東京都荒川区東日暮里4丁目36-18","lat":35.72504454,"lon":139.77908921},{"name":"西日暮里四丁目","province":"東京都","city":"荒川区","address":"東京都荒川区西日暮里3丁目23-14","lat":35.73128501,"lon":139.76493992},{"name":"西日暮里二丁目","province":"東京都","city":"荒川区","address":"東京都荒川区西日暮里2丁目25-1","lat":35.7295939,"lon":139.77148686},{"name":"第三日暮里小前","province":"東京都","city":"荒川区","address":"東京都荒川区東日暮里3丁目10-17","lat":35.72886384,"lon":139.78137513},{"name":"荒川七丁目","province":"東京都","city":"荒川区","address":"東京都荒川区荒川7丁目4-3","lat":35.74305417,"lon":139.7845799},{"name":"三河島駅前北","province":"東京都","city":"荒川区","address":"東京都荒川区荒川3丁目63-2","lat":35.7340579,"lon":139.77870315},{"name":"東日暮里六丁目","province":"東京都","city":"荒川区","address":"東京都荒川区東日暮里6丁目44-7","lat":35.72884694,"lon":139.77579772},{"name":"東日暮里五丁目","province":"東京都","city":"荒川区","address":"東京都荒川区東日暮里5丁目40-3","lat":35.72644708,"lon":139.77480338},{"name":"東日暮里三丁目","province":"東京都","city":"荒川区","address":"東京都荒川区東日暮里3丁目42-8","lat":35.73165527,"lon":139.77904754},{"name":"東日暮里四丁目","province":"東京都","city":"荒川区","address":"東京都荒川区東日暮里4丁目35-10","lat":35.72597504,"lon":139.77909476},{"name":"西日暮里一丁目東","province":"東京都","city":"荒川区","address":"東京都荒川区西日暮里1丁目3-1","lat":35.73554381,"lon":139.77718099},{"name":"町屋第二","province":"東京都","city":"荒川区","address":"東京都荒川区荒川7丁目46-1","lat":35.74194027,"lon":139.78047194},{"name":"西日暮里五丁目第二","province":"東京都","city":"荒川区","address":"東京都荒川区西日暮里5丁目10-9","lat":35.73234626,"lon":139.76898135},{"name":"西日暮里駅前","province":"東京都","city":"荒川区","address":"東京都荒川区西日暮里3丁目5-1","lat":35.73196836,"lon":139.76645372},{"name":"町屋一丁目","province":"東京都","city":"荒川区","address":"東京都荒川区町屋2丁目2-20","lat":35.74368443,"lon":139.78096337},{"name":"西日暮里一丁目西","province":"東京都","city":"荒川区","address":"東京都荒川区西日暮里1丁目18-5","lat":35.7359158,"lon":139.77484215},{"name":"東日暮里六丁目東","province":"東京都","city":"荒川区","address":"東京都荒川区東日暮里6丁目18-7","lat":35.72887198,"lon":139.77680599},{"name":"東日暮里三丁目南","province":"東京都","city":"荒川区","address":"東京都荒川区東日暮里6丁目6-8","lat":35.73056085,"lon":139.77850034},{"name":"新三河島駅前","province":"東京都","city":"荒川区","address":"東京都荒川区荒川5丁目18-3","lat":35.7378238,"lon":139.77374761},{"name":"西日暮里五丁目東","province":"東京都","city":"荒川区","address":"東京都荒川区西日暮里5丁目6-1","lat":35.73339342,"lon":139.76977294},{"name":"荒川区役所東","province":"東京都","city":"荒川区","address":"東京都荒川区荒川2丁目13-9","lat":35.73696654,"lon":139.7843308},{"name":"荒川区民会館北第一","province":"東京都","city":"荒川区","address":"東京都荒川区荒川2丁目14","lat":35.73626939,"lon":139.78453081},{"name":"荒川区民会館北第二","province":"東京都","city":"荒川区","address":"東京都荒川区荒川2丁目1-3","lat":35.73566385,"lon":139.78460854},{"name":"西日暮里六丁目","province":"東京都","city":"荒川区","address":"東京都荒川区西日暮里6丁目48-6","lat":35.73627917,"lon":139.76858125},{"name":"西日暮里二丁目北","province":"東京都","city":"荒川区","address":"東京都荒川区西日暮里2丁目40-10","lat":35.73146031,"lon":139.77015632},{"name":"地下鉄町屋駅南","province":"東京都","city":"荒川区","address":"東京都荒川区荒川7丁目43-3","lat":35.7409765,"lon":139.7795221},{"name":"日暮里南公園入口","province":"東京都","city":"荒川区","address":"東京都荒川区東日暮里5丁目7-1","lat":35.72707772,"lon":139.77872531},{"name":"かんかん森通り","province":"東京都","city":"荒川区","address":"東京都荒川区東日暮里6丁目14-2","lat":35.72931647,"lon":139.77861421},{"name":"アクロスあらかわ東","province":"東京都","city":"荒川区","address":"東京都荒川区荒川7丁目7-1","lat":35.74078519,"lon":139.78419137},{"name":"日暮里図書館入口","province":"東京都","city":"荒川区","address":"東京都荒川区西日暮里2丁目5-4","lat":35.73164111,"lon":139.77453943},{"name":"西日暮里駅東","province":"東京都","city":"荒川区","address":"東京都荒川区西日暮里5丁目34-5","lat":35.73280165,"lon":139.76727032},{"name":"ひぐらし小学校前","province":"東京都","city":"荒川区","address":"東京都荒川区西日暮里2丁目27-5","lat":35.73049102,"lon":139.77128406},{"name":"京成町屋駅前","province":"東京都","city":"荒川区","address":"東京都荒川区荒川7丁目40-1","lat":35.74234026,"lon":139.7815274},{"name":"ゆいの森あらかわ","province":"東京都","city":"荒川区","address":"東京都荒川区荒川2丁目28","lat":35.73854954,"lon":139.78417502},{"name":"西日暮里一丁目南","province":"東京都","city":"荒川区","address":"東京都荒川区西日暮里1丁目61-18","lat":35.7342129,"lon":139.77143117},{"name":"西日暮里二丁目東","province":"東京都","city":"荒川区","address":"東京都荒川区西日暮里2丁目13-1","lat":35.73030504,"lon":139.77343118},{"name":"第四日暮里小南","province":"東京都","city":"荒川区","address":"東京都荒川区西日暮里2丁目30-1","lat":35.73075217,"lon":139.77237289},{"name":"荒川町屋郵便局前","province":"東京都","city":"荒川区","address":"東京都荒川区町屋1丁目18-1","lat":35.74372064,"lon":139.78314102},{"name":"南千住給水所","province":"東京都","city":"荒川区","address":"東京都荒川区南千住8丁目2-6","lat":35.73577514,"lon":139.80766775},{"name":"大関横丁第二","province":"東京都","city":"荒川区","address":"東京都荒川区東日暮里1丁目3-4","lat":35.73041082,"lon":139.79079062},{"name":"東尾久五丁目","province":"東京都","city":"荒川区","address":"東京都荒川区東尾久2丁目49-7","lat":35.74498085,"lon":139.76946398},{"name":"熊の前","province":"東京都","city":"荒川区","address":"東京都荒川区東尾久8丁目14-1","lat":35.74944131,"lon":139.76929143},{"name":"宮の前","province":"東京都","city":"荒川区","address":"東京都荒川区西尾久2丁目4-17","lat":35.74989939,"lon":139.7651167},{"name":"熊野前交番前","province":"東京都","city":"荒川区","address":"東京都荒川区東尾久6丁目50-9","lat":35.74931641,"lon":139.77100242},{"name":"北豊島学園前","province":"東京都","city":"荒川区","address":"東京都荒川区東尾久6丁目34-24","lat":35.74915541,"lon":139.77331614},{"name":"東京都立大学前","province":"東京都","city":"荒川区","address":"東京都荒川区東尾久7丁目2-10","lat":35.74998303,"lon":139.77211339},{"name":"大門小学校入口","province":"東京都","city":"荒川区","address":"東京都荒川区町屋5丁目7","lat":35.74967765,"lon":139.77732407},{"name":"南千住警察署入口","province":"東京都","city":"荒川区","address":"東京都荒川区南千住6丁目47-8","lat":35.73462169,"lon":139.79419311},{"name":"泪橋","province":"東京都","city":"荒川区","address":"東京都荒川区南千住3丁目5-20","lat":35.72923876,"lon":139.79962882},{"name":"天王神社前","province":"東京都","city":"荒川区","address":"東京都荒川区南千住6丁目60-17","lat":35.73682984,"lon":139.79637343},{"name":"東日暮里一丁目都住前","province":"東京都","city":"荒川区","address":"東京都荒川区東日暮里1丁目5","lat":35.73125248,"lon":139.79047683},{"name":"千住大橋南","province":"東京都","city":"荒川区","address":"東京都荒川区南千住7丁目17-5","lat":35.73736035,"lon":139.79724834},{"name":"南千住二丁目","province":"東京都","city":"荒川区","address":"東京都荒川区南千住2丁目15-5","lat":35.72908002,"lon":139.79570084},{"name":"南千住五丁目","province":"東京都","city":"荒川区","address":"東京都荒川区南千住5丁目12-1","lat":35.73471054,"lon":139.79489023},{"name":"南千住七丁目","province":"東京都","city":"荒川区","address":"東京都荒川区南千住7丁目3","lat":35.73384948,"lon":139.79813714},{"name":"泪橋西","province":"東京都","city":"荒川区","address":"東京都荒川区南千住2丁目27-10","lat":35.72909684,"lon":139.79802027},{"name":"南千住二丁目仲通り","province":"東京都","city":"荒川区","address":"東京都荒川区南千住2丁目20-15","lat":35.730405,"lon":139.7957176},{"name":"南千住七丁目北","province":"東京都","city":"荒川区","address":"東京都荒川区南千住7丁目24-24","lat":35.73666891,"lon":139.799465},{"name":"南千住一丁目","province":"東京都","city":"荒川区","address":"東京都荒川区南千住1丁目32-9","lat":35.73291903,"lon":139.79228219},{"name":"南千住三丁目西交番前","province":"東京都","city":"荒川区","address":"東京都荒川区南千住2丁目31-8","lat":35.73001358,"lon":139.79867038},{"name":"南千住四丁目","province":"東京都","city":"荒川区","address":"東京都荒川区南千住4丁目9","lat":35.7362609,"lon":139.8037205},{"name":"南千住駅前","province":"東京都","city":"荒川区","address":"東京都荒川区南千住7丁目1-1","lat":35.73318285,"lon":139.79828712},{"name":"橋場橋通り入口","province":"東京都","city":"荒川区","address":"東京都荒川区南千住4丁目1-1","lat":35.7338137,"lon":139.80141504},{"name":"南千住三丁目","province":"東京都","city":"荒川区","address":"東京都荒川区南千住2丁目31-8","lat":35.73001358,"lon":139.79867038},{"name":"南千住八丁目","province":"東京都","city":"荒川区","address":"東京都荒川区南千住8丁目13","lat":35.73642518,"lon":139.81024806},{"name":"瑞光橋公園前","province":"東京都","city":"荒川区","address":"東京都荒川区南千住8丁目17-1","lat":35.73456159,"lon":139.80941238},{"name":"南千住けやき通り入口","province":"東京都","city":"荒川区","address":"東京都荒川区南千住4丁目9-4","lat":35.73695531,"lon":139.80453431},{"name":"隅田川駅北","province":"東京都","city":"荒川区","address":"東京都荒川区南千住4丁目9","lat":35.7362609,"lon":139.8037205},{"name":"白鬚橋西詰","province":"東京都","city":"荒川区","address":"東京都荒川区南千住3丁目28-67","lat":35.72846805,"lon":139.8084078},{"name":"日暮里中央通り","province":"東京都","city":"荒川区","address":"東京都荒川区東日暮里6丁目15-1","lat":35.72879428,"lon":139.77860864},{"name":"宮地","province":"東京都","city":"荒川区","address":"東京都荒川区荒川5丁目1-1","lat":35.73756853,"lon":139.77661979},{"name":"三河島駅前","province":"東京都","city":"荒川区","address":"東京都荒川区西日暮里1丁目6-10","lat":35.7334439,"lon":139.77674766},{"name":"サンパール荒川前","province":"東京都","city":"荒川区","address":"東京都荒川区荒川1丁目49-2","lat":35.73439995,"lon":139.78501953},{"name":"荒川三丁目","province":"東京都","city":"荒川区","address":"東京都荒川区荒川2丁目4-2","lat":35.73561922,"lon":139.78205309},{"name":"日暮里二丁目","province":"東京都","city":"荒川区","address":"東京都荒川区東日暮里4丁目36-18","lat":35.72504454,"lon":139.77908921},{"name":"西日暮里四丁目","province":"東京都","city":"荒川区","address":"東京都荒川区西日暮里3丁目23-14","lat":35.73128501,"lon":139.76493992},{"name":"西日暮里二丁目","province":"東京都","city":"荒川区","address":"東京都荒川区西日暮里2丁目25-1","lat":35.7295939,"lon":139.77148686},{"name":"第三日暮里小前","province":"東京都","city":"荒川区","address":"東京都荒川区東日暮里3丁目10-17","lat":35.72886384,"lon":139.78137513},{"name":"荒川七丁目","province":"東京都","city":"荒川区","address":"東京都荒川区荒川7丁目4-3","lat":35.74305417,"lon":139.7845799},{"name":"三河島駅前北","province":"東京都","city":"荒川区","address":"東京都荒川区荒川3丁目63-2","lat":35.7340579,"lon":139.77870315},{"name":"東日暮里六丁目","province":"東京都","city":"荒川区","address":"東京都荒川区東日暮里6丁目44-7","lat":35.72884694,"lon":139.77579772},{"name":"東日暮里五丁目","province":"東京都","city":"荒川区","address":"東京都荒川区東日暮里5丁目40-3","lat":35.72644708,"lon":139.77480338},{"name":"東日暮里三丁目","province":"東京都","city":"荒川区","address":"東京都荒川区東日暮里3丁目42-8","lat":35.73165527,"lon":139.77904754},{"name":"東日暮里四丁目","province":"東京都","city":"荒川区","address":"東京都荒川区東日暮里4丁目35-10","lat":35.72597504,"lon":139.77909476},{"name":"西日暮里一丁目東","province":"東京都","city":"荒川区","address":"東京都荒川区西日暮里1丁目3-1","lat":35.73554381,"lon":139.77718099},{"name":"町屋第二","province":"東京都","city":"荒川区","address":"東京都荒川区荒川7丁目46-1","lat":35.74194027,"lon":139.78047194},{"name":"西日暮里五丁目第二","province":"東京都","city":"荒川区","address":"東京都荒川区西日暮里5丁目10-9","lat":35.73234626,"lon":139.76898135},{"name":"西日暮里駅前","province":"東京都","city":"荒川区","address":"東京都荒川区西日暮里3丁目5-1","lat":35.73196836,"lon":139.76645372},{"name":"町屋一丁目","province":"東京都","city":"荒川区","address":"東京都荒川区町屋2丁目2-20","lat":35.74368443,"lon":139.78096337},{"name":"西日暮里一丁目西","province":"東京都","city":"荒川区","address":"東京都荒川区西日暮里1丁目18-5","lat":35.7359158,"lon":139.77484215},{"name":"東日暮里六丁目東","province":"東京都","city":"荒川区","address":"東京都荒川区東日暮里6丁目18-7","lat":35.72887198,"lon":139.77680599},{"name":"東日暮里三丁目南","province":"東京都","city":"荒川区","address":"東京都荒川区東日暮里6丁目6-8","lat":35.73056085,"lon":139.77850034},{"name":"新三河島駅前","province":"東京都","city":"荒川区","address":"東京都荒川区荒川5丁目18-3","lat":35.7378238,"lon":139.77374761},{"name":"西日暮里五丁目東","province":"東京都","city":"荒川区","address":"東京都荒川区西日暮里5丁目6-1","lat":35.73339342,"lon":139.76977294},{"name":"荒川区役所東","province":"東京都","city":"荒川区","address":"東京都荒川区荒川2丁目13-9","lat":35.73696654,"lon":139.7843308},{"name":"荒川区民会館北第一","province":"東京都","city":"荒川区","address":"東京都荒川区荒川2丁目14","lat":35.73626939,"lon":139.78453081},{"name":"荒川区民会館北第二","province":"東京都","city":"荒川区","address":"東京都荒川区荒川2丁目1-3","lat":35.73566385,"lon":139.78460854},{"name":"西日暮里六丁目","province":"東京都","city":"荒川区","address":"東京都荒川区西日暮里6丁目48-6","lat":35.73627917,"lon":139.76858125},{"name":"西日暮里二丁目北","province":"東京都","city":"荒川区","address":"東京都荒川区西日暮里2丁目40-10","lat":35.73146031,"lon":139.77015632},{"name":"地下鉄町屋駅南","province":"東京都","city":"荒川区","address":"東京都荒川区荒川7丁目43-3","lat":35.7409765,"lon":139.7795221},{"name":"日暮里南公園入口","province":"東京都","city":"荒川区","address":"東京都荒川区東日暮里5丁目7-1","lat":35.72707772,"lon":139.77872531},{"name":"かんかん森通り","province":"東京都","city":"荒川区","address":"東京都荒川区東日暮里6丁目14-2","lat":35.72931647,"lon":139.77861421},{"name":"アクロスあらかわ東","province":"東京都","city":"荒川区","address":"東京都荒川区荒川7丁目7-1","lat":35.74078519,"lon":139.78419137},{"name":"日暮里図書館入口","province":"東京都","city":"荒川区","address":"東京都荒川区西日暮里2丁目5-4","lat":35.73164111,"lon":139.77453943},{"name":"西日暮里駅東","province":"東京都","city":"荒川区","address":"東京都荒川区西日暮里5丁目34-5","lat":35.73280165,"lon":139.76727032},{"name":"ひぐらし小学校前","province":"東京都","city":"荒川区","address":"東京都荒川区西日暮里2丁目27-5","lat":35.73049102,"lon":139.77128406},{"name":"京成町屋駅前","province":"東京都","city":"荒川区","address":"東京都荒川区荒川7丁目40-1","lat":35.74234026,"lon":139.7815274},{"name":"ゆいの森あらかわ","province":"東京都","city":"荒川区","address":"東京都荒川区荒川2丁目28","lat":35.73854954,"lon":139.78417502},{"name":"西日暮里一丁目南","province":"東京都","city":"荒川区","address":"東京都荒川区西日暮里1丁目61-18","lat":35.7342129,"lon":139.77143117},{"name":"西日暮里二丁目東","province":"東京都","city":"荒川区","address":"東京都荒川区西日暮里2丁目13-1","lat":35.73030504,"lon":139.77343118},{"name":"第四日暮里小南","province":"東京都","city":"荒川区","address":"東京都荒川区西日暮里2丁目30-1","lat":35.73075217,"lon":139.77237289},{"name":"荒川町屋郵便局前","province":"東京都","city":"荒川区","address":"東京都荒川区町屋1丁目18-1","lat":35.74372064,"lon":139.78314102},{"name":"南千住給水所","province":"東京都","city":"荒川区","address":"東京都荒川区南千住8丁目2-6","lat":35.73577514,"lon":139.80766775},{"name":"大関横丁第二","province":"東京都","city":"荒川区","address":"東京都荒川区東日暮里1丁目3-4","lat":35.73041082,"lon":139.79079062},{"name":"東尾久五丁目","province":"東京都","city":"荒川区","address":"東京都荒川区東尾久2丁目49-7","lat":35.74498085,"lon":139.76946398},{"name":"熊の前","province":"東京都","city":"荒川区","address":"東京都荒川区東尾久8丁目14-1","lat":35.74944131,"lon":139.76929143},{"name":"宮の前","province":"東京都","city":"荒川区","address":"東京都荒川区西尾久2丁目4-17","lat":35.74989939,"lon":139.7651167},{"name":"熊野前交番前","province":"東京都","city":"荒川区","address":"東京都荒川区東尾久6丁目50-9","lat":35.74931641,"lon":139.77100242},{"name":"北豊島学園前","province":"東京都","city":"荒川区","address":"東京都荒川区東尾久6丁目34-24","lat":35.74915541,"lon":139.77331614},{"name":"東京都立大学前","province":"東京都","city":"荒川区","address":"東京都荒川区東尾久7丁目2-10","lat":35.74998303,"lon":139.77211339},{"name":"大門小学校入口","province":"東京都","city":"荒川区","address":"東京都荒川区町屋5丁目7","lat":35.74967765,"lon":139.77732407},{"name":"南千住警察署入口","province":"東京都","city":"荒川区","address":"東京都荒川区南千住6丁目47-8","lat":35.73462169,"lon":139.79419311},{"name":"泪橋","province":"東京都","city":"荒川区","address":"東京都荒川区南千住3丁目5-20","lat":35.72923876,"lon":139.79962882},{"name":"天王神社前","province":"東京都","city":"荒川区","address":"東京都荒川区南千住6丁目60-17","lat":35.73682984,"lon":139.79637343},{"name":"東日暮里一丁目都住前","province":"東京都","city":"荒川区","address":"東京都荒川区東日暮里1丁目5","lat":35.73125248,"lon":139.79047683},{"name":"千住大橋南","province":"東京都","city":"荒川区","address":"東京都荒川区南千住7丁目17-5","lat":35.73736035,"lon":139.79724834},{"name":"南千住二丁目","province":"東京都","city":"荒川区","address":"東京都荒川区南千住2丁目15-5","lat":35.72908002,"lon":139.79570084},{"name":"南千住五丁目","province":"東京都","city":"荒川区","address":"東京都荒川区南千住5丁目12-1","lat":35.73471054,"lon":139.79489023},{"name":"南千住七丁目","province":"東京都","city":"荒川区","address":"東京都荒川区南千住7丁目3","lat":35.73384948,"lon":139.79813714},{"name":"泪橋西","province":"東京都","city":"荒川区","address":"東京都荒川区南千住2丁目27-10","lat":35.72909684,"lon":139.79802027},{"name":"南千住二丁目仲通り","province":"東京都","city":"荒川区","address":"東京都荒川区南千住2丁目20-15","lat":35.730405,"lon":139.7957176},{"name":"南千住七丁目北","province":"東京都","city":"荒川区","address":"東京都荒川区南千住7丁目24-24","lat":35.73666891,"lon":139.799465},{"name":"南千住一丁目","province":"東京都","city":"荒川区","address":"東京都荒川区南千住1丁目32-9","lat":35.73291903,"lon":139.79228219},{"name":"南千住三丁目西交番前","province":"東京都","city":"荒川区","address":"東京都荒川区南千住2丁目31-8","lat":35.73001358,"lon":139.79867038},{"name":"南千住四丁目","province":"東京都","city":"荒川区","address":"東京都荒川区南千住4丁目9","lat":35.7362609,"lon":139.8037205},{"name":"南千住駅前","province":"東京都","city":"荒川区","address":"東京都荒川区南千住7丁目1-1","lat":35.73318285,"lon":139.79828712},{"name":"橋場橋通り入口","province":"東京都","city":"荒川区","address":"東京都荒川区南千住4丁目1-1","lat":35.7338137,"lon":139.80141504},{"name":"南千住三丁目","province":"東京都","city":"荒川区","address":"東京都荒川区南千住2丁目31-8","lat":35.73001358,"lon":139.79867038},{"name":"南千住八丁目","province":"東京都","city":"荒川区","address":"東京都荒川区南千住8丁目13","lat":35.73642518,"lon":139.81024806},{"name":"瑞光橋公園前","province":"東京都","city":"荒川区","address":"東京都荒川区南千住8丁目17-1","lat":35.73456159,"lon":139.80941238},{"name":"南千住けやき通り入口","province":"東京都","city":"荒川区","address":"東京都荒川区南千住4丁目9-4","lat":35.73695531,"lon":139.80453431},{"name":"隅田川駅北","province":"東京都","city":"荒川区","address":"東京都荒川区南千住4丁目9","lat":35.7362609,"lon":139.8037205},{"name":"白鬚橋西詰","province":"東京都","city":"荒川区","address":"東京都荒川区南千住3丁目28-67","lat":35.72846805,"lon":139.8084078},{"name":"日暮里中央通り","province":"東京都","city":"荒川区","address":"東京都荒川区東日暮里6丁目15-1","lat":35.72879428,"lon":139.77860864},{"name":"宮地","province":"東京都","city":"荒川区","address":"東京都荒川区荒川5丁目1-1","lat":35.73756853,"lon":139.77661979},{"name":"三河島駅前","province":"東京都","city":"荒川区","address":"東京都荒川区西日暮里1丁目6-10","lat":35.7334439,"lon":139.77674766},{"name":"サンパール荒川前","province":"東京都","city":"荒川区","address":"東京都荒川区荒川1丁目49-2","lat":35.73439995,"lon":139.78501953},{"name":"荒川三丁目","province":"東京都","city":"荒川区","address":"東京都荒川区荒川2丁目4-2","lat":35.73561922,"lon":139.78205309},{"name":"日暮里二丁目","province":"東京都","city":"荒川区","address":"東京都荒川区東日暮里4丁目36-18","lat":35.72504454,"lon":139.77908921},{"name":"西日暮里四丁目","province":"東京都","city":"荒川区","address":"東京都荒川区西日暮里3丁目23-14","lat":35.73128501,"lon":139.76493992},{"name":"西日暮里二丁目","province":"東京都","city":"荒川区","address":"東京都荒川区西日暮里2丁目25-1","lat":35.7295939,"lon":139.77148686},{"name":"第三日暮里小前","province":"東京都","city":"荒川区","address":"東京都荒川区東日暮里3丁目10-17","lat":35.72886384,"lon":139.78137513},{"name":"荒川七丁目","province":"東京都","city":"荒川区","address":"東京都荒川区荒川7丁目4-3","lat":35.74305417,"lon":139.7845799},{"name":"三河島駅前北","province":"東京都","city":"荒川区","address":"東京都荒川区荒川3丁目63-2","lat":35.7340579,"lon":139.77870315},{"name":"東日暮里六丁目","province":"東京都","city":"荒川区","address":"東京都荒川区東日暮里6丁目44-7","lat":35.72884694,"lon":139.77579772},{"name":"東日暮里五丁目","province":"東京都","city":"荒川区","address":"東京都荒川区東日暮里5丁目40-3","lat":35.72644708,"lon":139.77480338},{"name":"東日暮里三丁目","province":"東京都","city":"荒川区","address":"東京都荒川区東日暮里3丁目42-8","lat":35.73165527,"lon":139.77904754},{"name":"東日暮里四丁目","province":"東京都","city":"荒川区","address":"東京都荒川区東日暮里4丁目35-10","lat":35.72597504,"lon":139.77909476},{"name":"西日暮里一丁目東","province":"東京都","city":"荒川区","address":"東京都荒川区西日暮里1丁目3-1","lat":35.73554381,"lon":139.77718099},{"name":"町屋第二","province":"東京都","city":"荒川区","address":"東京都荒川区荒川7丁目46-1","lat":35.74194027,"lon":139.78047194},{"name":"西日暮里五丁目第二","province":"東京都","city":"荒川区","address":"東京都荒川区西日暮里5丁目10-9","lat":35.73234626,"lon":139.76898135},{"name":"西日暮里駅前","province":"東京都","city":"荒川区","address":"東京都荒川区西日暮里3丁目5-1","lat":35.73196836,"lon":139.76645372},{"name":"町屋一丁目","province":"東京都","city":"荒川区","address":"東京都荒川区町屋2丁目2-20","lat":35.74368443,"lon":139.78096337},{"name":"西日暮里一丁目西","province":"東京都","city":"荒川区","address":"東京都荒川区西日暮里1丁目18-5","lat":35.7359158,"lon":139.77484215},{"name":"東日暮里六丁目東","province":"東京都","city":"荒川区","address":"東京都荒川区東日暮里6丁目18-7","lat":35.72887198,"lon":139.77680599},{"name":"東日暮里三丁目南","province":"東京都","city":"荒川区","address":"東京都荒川区東日暮里6丁目6-8","lat":35.73056085,"lon":139.77850034},{"name":"新三河島駅前","province":"東京都","city":"荒川区","address":"東京都荒川区荒川5丁目18-3","lat":35.7378238,"lon":139.77374761},{"name":"西日暮里五丁目東","province":"東京都","city":"荒川区","address":"東京都荒川区西日暮里5丁目6-1","lat":35.73339342,"lon":139.76977294},{"name":"荒川区役所東","province":"東京都","city":"荒川区","address":"東京都荒川区荒川2丁目13-9","lat":35.73696654,"lon":139.7843308},{"name":"荒川区民会館北第一","province":"東京都","city":"荒川区","address":"東京都荒川区荒川2丁目14","lat":35.73626939,"lon":139.78453081},{"name":"荒川区民会館北第二","province":"東京都","city":"荒川区","address":"東京都荒川区荒川2丁目1-3","lat":35.73566385,"lon":139.78460854},{"name":"西日暮里六丁目","province":"東京都","city":"荒川区","address":"東京都荒川区西日暮里6丁目48-6","lat":35.73627917,"lon":139.76858125},{"name":"西日暮里二丁目北","province":"東京都","city":"荒川区","address":"東京都荒川区西日暮里2丁目40-10","lat":35.73146031,"lon":139.77015632},{"name":"地下鉄町屋駅南","province":"東京都","city":"荒川区","address":"東京都荒川区荒川7丁目43-3","lat":35.7409765,"lon":139.7795221},{"name":"日暮里南公園入口","province":"東京都","city":"荒川区","address":"東京都荒川区東日暮里5丁目7-1","lat":35.72707772,"lon":139.77872531},{"name":"かんかん森通り","province":"東京都","city":"荒川区","address":"東京都荒川区東日暮里6丁目14-2","lat":35.72931647,"lon":139.77861421},{"name":"アクロスあらかわ東","province":"東京都","city":"荒川区","address":"東京都荒川区荒川7丁目7-1","lat":35.74078519,"lon":139.78419137},{"name":"日暮里図書館入口","province":"東京都","city":"荒川区","address":"東京都荒川区西日暮里2丁目5-4","lat":35.73164111,"lon":139.77453943},{"name":"西日暮里駅東","province":"東京都","city":"荒川区","address":"東京都荒川区西日暮里5丁目34-5","lat":35.73280165,"lon":139.76727032},{"name":"ひぐらし小学校前","province":"東京都","city":"荒川区","address":"東京都荒川区西日暮里2丁目27-5","lat":35.73049102,"lon":139.77128406},{"name":"京成町屋駅前","province":"東京都","city":"荒川区","address":"東京都荒川区荒川7丁目40-1","lat":35.74234026,"lon":139.7815274},{"name":"ゆいの森あらかわ","province":"東京都","city":"荒川区","address":"東京都荒川区荒川2丁目28","lat":35.73854954,"lon":139.78417502},{"name":"西日暮里一丁目南","province":"東京都","city":"荒川区","address":"東京都荒川区西日暮里1丁目61-18","lat":35.7342129,"lon":139.77143117},{"name":"西日暮里二丁目東","province":"東京都","city":"荒川区","address":"東京都荒川区西日暮里2丁目13-1","lat":35.73030504,"lon":139.77343118},{"name":"第四日暮里小南","province":"東京都","city":"荒川区","address":"東京都荒川区西日暮里2丁目30-1","lat":35.73075217,"lon":139.77237289},{"name":"荒川町屋郵便局前","province":"東京都","city":"荒川区","address":"東京都荒川区町屋1丁目18-1","lat":35.74372064,"lon":139.78314102},{"name":"南千住給水所","province":"東京都","city":"荒川区","address":"東京都荒川区南千住8丁目2-6","lat":35.73577514,"lon":139.80766775},{"name":"大関横丁第二","province":"東京都","city":"荒川区","address":"東京都荒川区東日暮里1丁目3-4","lat":35.73041082,"lon":139.79079062},{"name":"東尾久五丁目","province":"東京都","city":"荒川区","address":"東京都荒川区東尾久2丁目49-7","lat":35.74498085,"lon":139.76946398},{"name":"熊の前","province":"東京都","city":"荒川区","address":"東京都荒川区東尾久8丁目14-1","lat":35.74944131,"lon":139.76929143},{"name":"宮の前","province":"東京都","city":"荒川区","address":"東京都荒川区西尾久2丁目4-17","lat":35.74989939,"lon":139.7651167},{"name":"熊野前交番前","province":"東京都","city":"荒川区","address":"東京都荒川区東尾久6丁目50-9","lat":35.74931641,"lon":139.77100242},{"name":"北豊島学園前","province":"東京都","city":"荒川区","address":"東京都荒川区東尾久6丁目34-24","lat":35.74915541,"lon":139.77331614},{"name":"東京都立大学前","province":"東京都","city":"荒川区","address":"東京都荒川区東尾久7丁目2-10","lat":35.74998303,"lon":139.77211339},{"name":"大門小学校入口","province":"東京都","city":"荒川区","address":"東京都荒川区町屋5丁目7","lat":35.74967765,"lon":139.77732407},{"name":"南千住警察署入口","province":"東京都","city":"荒川区","address":"東京都荒川区南千住6丁目47-8","lat":35.73462169,"lon":139.79419311},{"name":"泪橋","province":"東京都","city":"荒川区","address":"東京都荒川区南千住3丁目5-20","lat":35.72923876,"lon":139.79962882},{"name":"天王神社前","province":"東京都","city":"荒川区","address":"東京都荒川区南千住6丁目60-17","lat":35.73682984,"lon":139.79637343},{"name":"東日暮里一丁目都住前","province":"東京都","city":"荒川区","address":"東京都荒川区東日暮里1丁目5","lat":35.73125248,"lon":139.79047683},{"name":"千住大橋南","province":"東京都","city":"荒川区","address":"東京都荒川区南千住7丁目17-5","lat":35.73736035,"lon":139.79724834},{"name":"南千住二丁目","province":"東京都","city":"荒川区","address":"東京都荒川区南千住2丁目15-5","lat":35.72908002,"lon":139.79570084},{"name":"南千住五丁目","province":"東京都","city":"荒川区","address":"東京都荒川区南千住5丁目12-1","lat":35.73471054,"lon":139.79489023},{"name":"南千住七丁目","province":"東京都","city":"荒川区","address":"東京都荒川区南千住7丁目3","lat":35.73384948,"lon":139.79813714},{"name":"泪橋西","province":"東京都","city":"荒川区","address":"東京都荒川区南千住2丁目27-10","lat":35.72909684,"lon":139.79802027},{"name":"南千住二丁目仲通り","province":"東京都","city":"荒川区","address":"東京都荒川区南千住2丁目20-15","lat":35.730405,"lon":139.7957176},{"name":"南千住七丁目北","province":"東京都","city":"荒川区","address":"東京都荒川区南千住7丁目24-24","lat":35.73666891,"lon":139.799465},{"name":"南千住一丁目","province":"東京都","city":"荒川区","address":"東京都荒川区南千住1丁目32-9","lat":35.73291903,"lon":139.79228219},{"name":"南千住三丁目西交番前","province":"東京都","city":"荒川区","address":"東京都荒川区南千住2丁目31-8","lat":35.73001358,"lon":139.79867038},{"name":"南千住四丁目","province":"東京都","city":"荒川区","address":"東京都荒川区南千住4丁目9","lat":35.7362609,"lon":139.8037205},{"name":"南千住駅前","province":"東京都","city":"荒川区","address":"東京都荒川区南千住7丁目1-1","lat":35.73318285,"lon":139.79828712},{"name":"橋場橋通り入口","province":"東京都","city":"荒川区","address":"東京都荒川区南千住4丁目1-1","lat":35.7338137,"lon":139.80141504},{"name":"南千住三丁目","province":"東京都","city":"荒川区","address":"東京都荒川区南千住2丁目31-8","lat":35.73001358,"lon":139.79867038},{"name":"南千住八丁目","province":"東京都","city":"荒川区","address":"東京都荒川区南千住8丁目13","lat":35.73642518,"lon":139.81024806},{"name":"瑞光橋公園前","province":"東京都","city":"荒川区","address":"東京都荒川区南千住8丁目17-1","lat":35.73456159,"lon":139.80941238},{"name":"南千住けやき通り入口","province":"東京都","city":"荒川区","address":"東京都荒川区南千住4丁目9-4","lat":35.73695531,"lon":139.80453431},{"name":"隅田川駅北","province":"東京都","city":"荒川区","address":"東京都荒川区南千住4丁目9","lat":35.7362609,"lon":139.8037205},{"name":"白鬚橋西詰","province":"東京都","city":"荒川区","address":"東京都荒川区南千住3丁目28-67","lat":35.72846805,"lon":139.8084078},{"name":"日暮里中央通り","province":"東京都","city":"荒川区","address":"東京都荒川区東日暮里6丁目15-1","lat":35.72879428,"lon":139.77860864},{"name":"宮地","province":"東京都","city":"荒川区","address":"東京都荒川区荒川5丁目1-1","lat":35.73756853,"lon":139.77661979},{"name":"三河島駅前","province":"東京都","city":"荒川区","address":"東京都荒川区西日暮里1丁目6-10","lat":35.7334439,"lon":139.77674766},{"name":"サンパール荒川前","province":"東京都","city":"荒川区","address":"東京都荒川区荒川1丁目49-2","lat":35.73439995,"lon":139.78501953},{"name":"荒川三丁目","province":"東京都","city":"荒川区","address":"東京都荒川区荒川2丁目4-2","lat":35.73561922,"lon":139.78205309},{"name":"日暮里二丁目","province":"東京都","city":"荒川区","address":"東京都荒川区東日暮里4丁目36-18","lat":35.72504454,"lon":139.77908921},{"name":"西日暮里四丁目","province":"東京都","city":"荒川区","address":"東京都荒川区西日暮里3丁目23-14","lat":35.73128501,"lon":139.76493992},{"name":"西日暮里二丁目","province":"東京都","city":"荒川区","address":"東京都荒川区西日暮里2丁目25-1","lat":35.7295939,"lon":139.77148686},{"name":"第三日暮里小前","province":"東京都","city":"荒川区","address":"東京都荒川区東日暮里3丁目10-17","lat":35.72886384,"lon":139.78137513},{"name":"荒川七丁目","province":"東京都","city":"荒川区","address":"東京都荒川区荒川7丁目4-3","lat":35.74305417,"lon":139.7845799},{"name":"三河島駅前北","province":"東京都","city":"荒川区","address":"東京都荒川区荒川3丁目63-2","lat":35.7340579,"lon":139.77870315},{"name":"東日暮里六丁目","province":"東京都","city":"荒川区","address":"東京都荒川区東日暮里6丁目44-7","lat":35.72884694,"lon":139.77579772},{"name":"東日暮里五丁目","province":"東京都","city":"荒川区","address":"東京都荒川区東日暮里5丁目40-3","lat":35.72644708,"lon":139.77480338},{"name":"東日暮里三丁目","province":"東京都","city":"荒川区","address":"東京都荒川区東日暮里3丁目42-8","lat":35.73165527,"lon":139.77904754},{"name":"東日暮里四丁目","province":"東京都","city":"荒川区","address":"東京都荒川区東日暮里4丁目35-10","lat":35.72597504,"lon":139.77909476},{"name":"西日暮里一丁目東","province":"東京都","city":"荒川区","address":"東京都荒川区西日暮里1丁目3-1","lat":35.73554381,"lon":139.77718099},{"name":"町屋第二","province":"東京都","city":"荒川区","address":"東京都荒川区荒川7丁目46-1","lat":35.74194027,"lon":139.78047194},{"name":"西日暮里五丁目第二","province":"東京都","city":"荒川区","address":"東京都荒川区西日暮里5丁目10-9","lat":35.73234626,"lon":139.76898135},{"name":"西日暮里駅前","province":"東京都","city":"荒川区","address":"東京都荒川区西日暮里3丁目5-1","lat":35.73196836,"lon":139.76645372},{"name":"町屋一丁目","province":"東京都","city":"荒川区","address":"東京都荒川区町屋2丁目2-20","lat":35.74368443,"lon":139.78096337},{"name":"西日暮里一丁目西","province":"東京都","city":"荒川区","address":"東京都荒川区西日暮里1丁目18-5","lat":35.7359158,"lon":139.77484215},{"name":"東日暮里六丁目東","province":"東京都","city":"荒川区","address":"東京都荒川区東日暮里6丁目18-7","lat":35.72887198,"lon":139.77680599},{"name":"東日暮里三丁目南","province":"東京都","city":"荒川区","address":"東京都荒川区東日暮里6丁目6-8","lat":35.73056085,"lon":139.77850034},{"name":"新三河島駅前","province":"東京都","city":"荒川区","address":"東京都荒川区荒川5丁目18-3","lat":35.7378238,"lon":139.77374761},{"name":"西日暮里五丁目東","province":"東京都","city":"荒川区","address":"東京都荒川区西日暮里5丁目6-1","lat":35.73339342,"lon":139.76977294},{"name":"荒川区役所東","province":"東京都","city":"荒川区","address":"東京都荒川区荒川2丁目13-9","lat":35.73696654,"lon":139.7843308},{"name":"荒川区民会館北第一","province":"東京都","city":"荒川区","address":"東京都荒川区荒川2丁目14","lat":35.73626939,"lon":139.78453081},{"name":"荒川区民会館北第二","province":"東京都","city":"荒川区","address":"東京都荒川区荒川2丁目1-3","lat":35.73566385,"lon":139.78460854},{"name":"西日暮里六丁目","province":"東京都","city":"荒川区","address":"東京都荒川区西日暮里6丁目48-6","lat":35.73627917,"lon":139.76858125},{"name":"西日暮里二丁目北","province":"東京都","city":"荒川区","address":"東京都荒川区西日暮里2丁目40-10","lat":35.73146031,"lon":139.77015632},{"name":"地下鉄町屋駅南","province":"東京都","city":"荒川区","address":"東京都荒川区荒川7丁目43-3","lat":35.7409765,"lon":139.7795221},{"name":"日暮里南公園入口","province":"東京都","city":"荒川区","address":"東京都荒川区東日暮里5丁目7-1","lat":35.72707772,"lon":139.77872531},{"name":"かんかん森通り","province":"東京都","city":"荒川区","address":"東京都荒川区東日暮里6丁目14-2","lat":35.72931647,"lon":139.77861421},{"name":"アクロスあらかわ東","province":"東京都","city":"荒川区","address":"東京都荒川区荒川7丁目7-1","lat":35.74078519,"lon":139.78419137},{"name":"日暮里図書館入口","province":"東京都","city":"荒川区","address":"東京都荒川区西日暮里2丁目5-4","lat":35.73164111,"lon":139.77453943},{"name":"西日暮里駅東","province":"東京都","city":"荒川区","address":"東京都荒川区西日暮里5丁目34-5","lat":35.73280165,"lon":139.76727032},{"name":"ひぐらし小学校前","province":"東京都","city":"荒川区","address":"東京都荒川区西日暮里2丁目27-5","lat":35.73049102,"lon":139.77128406},{"name":"京成町屋駅前","province":"東京都","city":"荒川区","address":"東京都荒川区荒川7丁目40-1","lat":35.74234026,"lon":139.7815274},{"name":"ゆいの森あらかわ","province":"東京都","city":"荒川区","address":"東京都荒川区荒川2丁目28","lat":35.73854954,"lon":139.78417502},{"name":"西日暮里一丁目南","province":"東京都","city":"荒川区","address":"東京都荒川区西日暮里1丁目61-18","lat":35.7342129,"lon":139.77143117},{"name":"西日暮里二丁目東","province":"東京都","city":"荒川区","address":"東京都荒川区西日暮里2丁目13-1","lat":35.73030504,"lon":139.77343118},{"name":"第四日暮里小南","province":"東京都","city":"荒川区","address":"東京都荒川区西日暮里2丁目30-1","lat":35.73075217,"lon":139.77237289},{"name":"荒川町屋郵便局前","province":"東京都","city":"荒川区","address":"東京都荒川区町屋1丁目18-1","lat":35.74372064,"lon":139.78314102},{"name":"南千住給水所","province":"東京都","city":"荒川区","address":"東京都荒川区南千住8丁目2-6","lat":35.73577514,"lon":139.80766775},{"name":"大関横丁第二","province":"東京都","city":"荒川区","address":"東京都荒川区東日暮里1丁目3-4","lat":35.73041082,"lon":139.79079062},{"name":"東尾久五丁目","province":"東京都","city":"荒川区","address":"東京都荒川区東尾久2丁目49-7","lat":35.74498085,"lon":139.76946398},{"name":"熊の前","province":"東京都","city":"荒川区","address":"東京都荒川区東尾久8丁目14-1","lat":35.74944131,"lon":139.76929143},{"name":"宮の前","province":"東京都","city":"荒川区","address":"東京都荒川区西尾久2丁目4-17","lat":35.74989939,"lon":139.7651167},{"name":"熊野前交番前","province":"東京都","city":"荒川区","address":"東京都荒川区東尾久6丁目50-9","lat":35.74931641,"lon":139.77100242},{"name":"北豊島学園前","province":"東京都","city":"荒川区","address":"東京都荒川区東尾久6丁目34-24","lat":35.74915541,"lon":139.77331614},{"name":"東京都立大学前","province":"東京都","city":"荒川区","address":"東京都荒川区東尾久7丁目2-10","lat":35.74998303,"lon":139.77211339},{"name":"大門小学校入口","province":"東京都","city":"荒川区","address":"東京都荒川区町屋5丁目7","lat":35.74967765,"lon":139.77732407},{"name":"南千住警察署入口","province":"東京都","city":"荒川区","address":"東京都荒川区南千住6丁目47-8","lat":35.73462169,"lon":139.79419311},{"name":"泪橋","province":"東京都","city":"荒川区","address":"東京都荒川区南千住3丁目5-20","lat":35.72923876,"lon":139.79962882},{"name":"天王神社前","province":"東京都","city":"荒川区","address":"東京都荒川区南千住6丁目60-17","lat":35.73682984,"lon":139.79637343},{"name":"東日暮里一丁目都住前","province":"東京都","city":"荒川区","address":"東京都荒川区東日暮里1丁目5","lat":35.73125248,"lon":139.79047683},{"name":"千住大橋南","province":"東京都","city":"荒川区","address":"東京都荒川区南千住7丁目17-5","lat":35.73736035,"lon":139.79724834},{"name":"南千住二丁目","province":"東京都","city":"荒川区","address":"東京都荒川区南千住2丁目15-5","lat":35.72908002,"lon":139.79570084},{"name":"南千住五丁目","province":"東京都","city":"荒川区","address":"東京都荒川区南千住5丁目12-1","lat":35.73471054,"lon":139.79489023},{"name":"南千住七丁目","province":"東京都","city":"荒川区","address":"東京都荒川区南千住7丁目3","lat":35.73384948,"lon":139.79813714},{"name":"泪橋西","province":"東京都","city":"荒川区","address":"東京都荒川区南千住2丁目27-10","lat":35.72909684,"lon":139.79802027},{"name":"南千住二丁目仲通り","province":"東京都","city":"荒川区","address":"東京都荒川区南千住2丁目20-15","lat":35.730405,"lon":139.7957176},{"name":"南千住七丁目北","province":"東京都","city":"荒川区","address":"東京都荒川区南千住7丁目24-24","lat":35.73666891,"lon":139.799465},{"name":"南千住一丁目","province":"東京都","city":"荒川区","address":"東京都荒川区南千住1丁目32-9","lat":35.73291903,"lon":139.79228219},{"name":"南千住三丁目西交番前","province":"東京都","city":"荒川区","address":"東京都荒川区南千住2丁目31-8","lat":35.73001358,"lon":139.79867038},{"name":"南千住四丁目","province":"東京都","city":"荒川区","address":"東京都荒川区南千住4丁目9","lat":35.7362609,"lon":139.8037205},{"name":"南千住駅前","province":"東京都","city":"荒川区","address":"東京都荒川区南千住7丁目1-1","lat":35.73318285,"lon":139.79828712},{"name":"橋場橋通り入口","province":"東京都","city":"荒川区","address":"東京都荒川区南千住4丁目1-1","lat":35.7338137,"lon":139.80141504},{"name":"南千住三丁目","province":"東京都","city":"荒川区","address":"東京都荒川区南千住2丁目31-8","lat":35.73001358,"lon":139.79867038},{"name":"南千住八丁目","province":"東京都","city":"荒川区","address":"東京都荒川区南千住8丁目13","lat":35.73642518,"lon":139.81024806},{"name":"瑞光橋公園前","province":"東京都","city":"荒川区","address":"東京都荒川区南千住8丁目17-1","lat":35.73456159,"lon":139.80941238},{"name":"南千住けやき通り入口","province":"東京都","city":"荒川区","address":"東京都荒川区南千住4丁目9-4","lat":35.73695531,"lon":139.80453431},{"name":"隅田川駅北","province":"東京都","city":"荒川区","address":"東京都荒川区南千住4丁目9","lat":35.7362609,"lon":139.8037205},{"name":"白鬚橋西詰","province":"東京都","city":"荒川区","address":"東京都荒川区南千住3丁目28-67","lat":35.72846805,"lon":139.8084078},{"name":"日暮里中央通り","province":"東京都","city":"荒川区","address":"東京都荒川区東日暮里6丁目15-1","lat":35.72879428,"lon":139.77860864},{"name":"宮地","province":"東京都","city":"荒川区","address":"東京都荒川区荒川5丁目1-1","lat":35.73756853,"lon":139.77661979},{"name":"三河島駅前","province":"東京都","city":"荒川区","address":"東京都荒川区西日暮里1丁目6-10","lat":35.7334439,"lon":139.77674766},{"name":"サンパール荒川前","province":"東京都","city":"荒川区","address":"東京都荒川区荒川1丁目49-2","lat":35.73439995,"lon":139.78501953},{"name":"荒川三丁目","province":"東京都","city":"荒川区","address":"東京都荒川区荒川2丁目4-2","lat":35.73561922,"lon":139.78205309},{"name":"日暮里二丁目","province":"東京都","city":"荒川区","address":"東京都荒川区東日暮里4丁目36-18","lat":35.72504454,"lon":139.77908921},{"name":"西日暮里四丁目","province":"東京都","city":"荒川区","address":"東京都荒川区西日暮里3丁目23-14","lat":35.73128501,"lon":139.76493992},{"name":"西日暮里二丁目","province":"東京都","city":"荒川区","address":"東京都荒川区西日暮里2丁目25-1","lat":35.7295939,"lon":139.77148686},{"name":"第三日暮里小前","province":"東京都","city":"荒川区","address":"東京都荒川区東日暮里3丁目10-17","lat":35.72886384,"lon":139.78137513},{"name":"荒川七丁目","province":"東京都","city":"荒川区","address":"東京都荒川区荒川7丁目4-3","lat":35.74305417,"lon":139.7845799},{"name":"三河島駅前北","province":"東京都","city":"荒川区","address":"東京都荒川区荒川3丁目63-2","lat":35.7340579,"lon":139.77870315},{"name":"東日暮里六丁目","province":"東京都","city":"荒川区","address":"東京都荒川区東日暮里6丁目44-7","lat":35.72884694,"lon":139.77579772},{"name":"東日暮里五丁目","province":"東京都","city":"荒川区","address":"東京都荒川区東日暮里5丁目40-3","lat":35.72644708,"lon":139.77480338},{"name":"東日暮里三丁目","province":"東京都","city":"荒川区","address":"東京都荒川区東日暮里3丁目42-8","lat":35.73165527,"lon":139.77904754},{"name":"東日暮里四丁目","province":"東京都","city":"荒川区","address":"東京都荒川区東日暮里4丁目35-10","lat":35.72597504,"lon":139.77909476},{"name":"西日暮里一丁目東","province":"東京都","city":"荒川区","address":"東京都荒川区西日暮里1丁目3-1","lat":35.73554381,"lon":139.77718099},{"name":"町屋第二","province":"東京都","city":"荒川区","address":"東京都荒川区荒川7丁目46-1","lat":35.74194027,"lon":139.78047194},{"name":"西日暮里五丁目第二","province":"東京都","city":"荒川区","address":"東京都荒川区西日暮里5丁目10-9","lat":35.73234626,"lon":139.76898135},{"name":"西日暮里駅前","province":"東京都","city":"荒川区","address":"東京都荒川区西日暮里3丁目5-1","lat":35.73196836,"lon":139.76645372},{"name":"町屋一丁目","province":"東京都","city":"荒川区","address":"東京都荒川区町屋2丁目2-20","lat":35.74368443,"lon":139.78096337},{"name":"西日暮里一丁目西","province":"東京都","city":"荒川区","address":"東京都荒川区西日暮里1丁目18-5","lat":35.7359158,"lon":139.77484215},{"name":"東日暮里六丁目東","province":"東京都","city":"荒川区","address":"東京都荒川区東日暮里6丁目18-7","lat":35.72887198,"lon":139.77680599},{"name":"東日暮里三丁目南","province":"東京都","city":"荒川区","address":"東京都荒川区東日暮里6丁目6-8","lat":35.73056085,"lon":139.77850034},{"name":"新三河島駅前","province":"東京都","city":"荒川区","address":"東京都荒川区荒川5丁目18-3","lat":35.7378238,"lon":139.77374761},{"name":"西日暮里五丁目東","province":"東京都","city":"荒川区","address":"東京都荒川区西日暮里5丁目6-1","lat":35.73339342,"lon":139.76977294},{"name":"荒川区役所東","province":"東京都","city":"荒川区","address":"東京都荒川区荒川2丁目13-9","lat":35.73696654,"lon":139.7843308},{"name":"荒川区民会館北第一","province":"東京都","city":"荒川区","address":"東京都荒川区荒川2丁目14","lat":35.73626939,"lon":139.78453081},{"name":"荒川区民会館北第二","province":"東京都","city":"荒川区","address":"東京都荒川区荒川2丁目1-3","lat":35.73566385,"lon":139.78460854},{"name":"西日暮里六丁目","province":"東京都","city":"荒川区","address":"東京都荒川区西日暮里6丁目48-6","lat":35.73627917,"lon":139.76858125},{"name":"西日暮里二丁目北","province":"東京都","city":"荒川区","address":"東京都荒川区西日暮里2丁目40-10","lat":35.73146031,"lon":139.77015632},{"name":"地下鉄町屋駅南","province":"東京都","city":"荒川区","address":"東京都荒川区荒川7丁目43-3","lat":35.7409765,"lon":139.7795221},{"name":"日暮里南公園入口","province":"東京都","city":"荒川区","address":"東京都荒川区東日暮里5丁目7-1","lat":35.72707772,"lon":139.77872531},{"name":"かんかん森通り","province":"東京都","city":"荒川区","address":"東京都荒川区東日暮里6丁目14-2","lat":35.72931647,"lon":139.77861421},{"name":"アクロスあらかわ東","province":"東京都","city":"荒川区","address":"東京都荒川区荒川7丁目7-1","lat":35.74078519,"lon":139.78419137},{"name":"日暮里図書館入口","province":"東京都","city":"荒川区","address":"東京都荒川区西日暮里2丁目5-4","lat":35.73164111,"lon":139.77453943},{"name":"西日暮里駅東","province":"東京都","city":"荒川区","address":"東京都荒川区西日暮里5丁目34-5","lat":35.73280165,"lon":139.76727032},{"name":"ひぐらし小学校前","province":"東京都","city":"荒川区","address":"東京都荒川区西日暮里2丁目27-5","lat":35.73049102,"lon":139.77128406},{"name":"京成町屋駅前","province":"東京都","city":"荒川区","address":"東京都荒川区荒川7丁目40-1","lat":35.74234026,"lon":139.7815274},{"name":"ゆいの森あらかわ","province":"東京都","city":"荒川区","address":"東京都荒川区荒川2丁目28","lat":35.73854954,"lon":139.78417502},{"name":"西日暮里一丁目南","province":"東京都","city":"荒川区","address":"東京都荒川区西日暮里1丁目61-18","lat":35.7342129,"lon":139.77143117},{"name":"西日暮里二丁目東","province":"東京都","city":"荒川区","address":"東京都荒川区西日暮里2丁目13-1","lat":35.73030504,"lon":139.77343118},{"name":"第四日暮里小南","province":"東京都","city":"荒川区","address":"東京都荒川区西日暮里2丁目30-1","lat":35.73075217,"lon":139.77237289},{"name":"荒川町屋郵便局前","province":"東京都","city":"荒川区","address":"東京都荒川区町屋1丁目18-1","lat":35.74372064,"lon":139.78314102},{"name":"南千住給水所","province":"東京都","city":"荒川区","address":"東京都荒川区南千住8丁目2-6","lat":35.73577514,"lon":139.80766775}]}