{"keyword":"自転車","data":[{"name":"南千住第一自転車置場","province":"東京都","city":"荒川区","address":"東京都荒川区南千住2丁目34","lat":35.73100496,"lon":139.79636475},{"name":"南千住第四自転車置場","province":"東京都","city":"荒川区","address":"東京都荒川区南千住2丁目33","lat":35.73084119,"lon":139.79773699},{"name":"京成駅前自転車置場","province":"東京都","city":"荒川区","address":"東京都荒川区荒川7丁目40","lat":35.74210418,"lon":139.78118023},{"name":"自然公園自転車置場","province":"東京都","city":"荒川区","address":"東京都荒川区荒川8丁目32","lat":35.74355129,"lon":139.78562417},{"name":"西日暮里自転車置場","province":"東京都","city":"荒川区","address":"東京都荒川区西日暮里5丁目38","lat":35.73391254,"lon":139.76538149},{"name":"道灌山通り第１自転車置場","province":"東京都","city":"荒川区","address":"東京都荒川区西日暮里3丁目5","lat":35.73173505,"lon":139.76645094},{"name":"熊野前第１自転車置場","province":"東京都","city":"荒川区","address":"東京都荒川区東尾久8丁目7","lat":35.75169103,"lon":139.7702023},{"name":"熊野前第２自転車置場","province":"東京都","city":"荒川区","address":"東京都荒川区東尾久3丁目37","lat":35.74871645,"lon":139.76999421},{"name":"赤土小学校前自転車置場","province":"東京都","city":"荒川区","address":"東京都荒川区東尾久4丁目7","lat":35.74260891,"lon":139.76877529},{"name":"南千住二丁目自転車置場","province":"東京都","city":"荒川区","address":"東京都荒川区南千住2丁目4","lat":35.73080511,"lon":139.79349575},{"name":"南千住駅東口自転車等駐車場","province":"東京都","city":"荒川区","address":"東京都荒川区南千住4丁目1-2","lat":35.73284413,"lon":139.79971775},{"name":"センターまちや自転車駐車場","province":"東京都","city":"荒川区","address":"東京都荒川区荒川7丁目50-9","lat":35.74247908,"lon":139.78079131},{"name":"南千住一丁目自転車置場","province":"東京都","city":"荒川区","address":"東京都荒川区南千住1丁目56-11","lat":35.73309955,"lon":139.79302931}]}