{"keyword":"荒川","data":[{"name":"AIAI　NURSERY新三河島","province":"東京都","city":"荒川区","address":"東京都荒川区東尾久1-1-43F・4F","lat":35.73811,"lon":139.77284},{"name":"AIAI　NURSERY西日暮里一丁目","province":"東京都","city":"荒川区","address":"東京都荒川区西日暮里1-1-12F","lat":35.73686,"lon":139.77592},{"name":"MIRATZ東尾久保育園","province":"東京都","city":"荒川区","address":"東京都荒川区東尾久4-1-131F","lat":35.74007,"lon":139.76849},{"name":"上尾久保育園","province":"東京都","city":"荒川区","address":"東京都荒川区西尾久8-10-12","lat":35.75241,"lon":139.75657},{"name":"荒川さつき保育園","province":"東京都","city":"荒川区","address":"東京都荒川区荒川8-25-4","lat":35.73737,"lon":139.78613},{"name":"荒川保育園","province":"東京都","city":"荒川区","address":"東京都荒川区荒川5-50-15","lat":35.74015,"lon":139.77493},{"name":"至誠会第二保育園","province":"東京都","city":"荒川区","address":"東京都荒川区東尾久5-34-6","lat":35.74708,"lon":139.76725},{"name":"うぃず東日暮里保育園","province":"東京都","city":"荒川区","address":"東京都荒川区東日暮里4-11-6","lat":35.7274,"lon":139.78195},{"name":"うぃず町屋保育園","province":"東京都","city":"荒川区","address":"東京都荒川区町屋2-10-3","lat":35.74424,"lon":139.77926},{"name":"うぃず南千住駅前保育園","province":"東京都","city":"荒川区","address":"東京都荒川区南千住5-23-14","lat":35.73247,"lon":139.79612},{"name":"大空と大地のなーさりぃ荒川西尾久園","province":"東京都","city":"荒川区","address":"東京都荒川区西尾久1-28-10","lat":35.74631,"lon":139.76211},{"name":"尾久隣保館保育園","province":"東京都","city":"荒川区","address":"東京都荒川区町屋6-28-11","lat":35.75223,"lon":139.7837},{"name":"小台橋保育園","province":"東京都","city":"荒川区","address":"東京都荒川区西尾久6-9-7","lat":35.75353,"lon":139.76048},{"name":"小台ここわ保育園","province":"東京都","city":"荒川区","address":"東京都荒川区西尾久3-21-12水島ビル2F","lat":35.75097,"lon":139.76178},{"name":"おはな保育室","province":"東京都","city":"荒川区","address":"東京都荒川区荒川1-37-4","lat":35.73341,"lon":139.78762},{"name":"オランジェナーサリー","province":"東京都","city":"荒川区","address":"東京都荒川区西尾久4-27-1ヴェルデ西尾久1F","lat":35.74556,"lon":139.75801},{"name":"オランジェナーサリー分園","province":"東京都","city":"荒川区","address":"東京都荒川区西尾久6-30-16エスパシオルイヨム1F","lat":35.75094,"lon":139.75849},{"name":"家庭的保育室スノードロップ","province":"東京都","city":"荒川区","address":"東京都荒川区南千住6-50-3","lat":35.73586,"lon":139.79393},{"name":"かんかんもり保育園","province":"東京都","city":"荒川区","address":"東京都荒川区東日暮里2-15-71F","lat":35.72969,"lon":139.78588},{"name":"キッズあおぞら保育園","province":"東京都","city":"荒川区","address":"東京都荒川区荒川2-1-52F","lat":35.73506,"lon":139.78472},{"name":"熊野前保育園","province":"東京都","city":"荒川区","address":"東京都荒川区東尾久8-23-9","lat":35.75177,"lon":139.76939},{"name":"黒川幼稚舎","province":"東京都","city":"荒川区","address":"東京都荒川区荒川7-7-10","lat":35.74161,"lon":139.78402},{"name":"グローバルキッズ日暮里駅前保育園","province":"東京都","city":"荒川区","address":"東京都荒川区西日暮里2-22-1ステーションプラザタワー3F","lat":35.72973,"lon":139.77058},{"name":"グローバルキッズ東日暮里園","province":"東京都","city":"荒川区","address":"東京都荒川区東日暮里5-16-3リーデンスタワー1・2F","lat":35.72618,"lon":139.77642},{"name":"グローバルキッズ町屋保育園","province":"東京都","city":"荒川区","address":"東京都荒川区町屋2-2-15","lat":35.74384,"lon":139.78105},{"name":"子供の家愛育保育園","province":"東京都","city":"荒川区","address":"東京都荒川区西尾久7-26-4","lat":35.74824,"lon":139.75529},{"name":"コンビプラザ南千住保育園","province":"東京都","city":"荒川区","address":"東京都荒川区南千住4-9-1リバーハープタワー南千住1棟1F","lat":35.73566,"lon":139.80332},{"name":"さくらさくみらい西日暮里","province":"東京都","city":"荒川区","address":"東京都荒川区西日暮里4-10-12","lat":35.73303,"lon":139.76232},{"name":"汐入こども園","province":"東京都","city":"荒川区","address":"東京都荒川区南千住8-9-3","lat":35.73892,"lon":139.8116},{"name":"汐入とちのき保育園","province":"東京都","city":"荒川区","address":"東京都荒川区南千住8-3-3","lat":35.73603,"lon":139.80558},{"name":"上智聖ローザ保育園","province":"東京都","city":"荒川区","address":"東京都荒川区西日暮里6-7-1","lat":35.73724,"lon":139.77246},{"name":"上智厚生館保育園","province":"東京都","city":"荒川区","address":"東京都荒川区町屋4-9-10","lat":35.74696,"lon":139.77679},{"name":"上智厚生館保育園分園","province":"東京都","city":"荒川区","address":"東京都荒川区町屋4-14-7","lat":35.74656,"lon":139.77763},{"name":"仁風保育園","province":"東京都","city":"荒川区","address":"東京都荒川区荒川2-41-1","lat":35.73937,"lon":139.78324},{"name":"太陽の子わかば保育園","province":"東京都","city":"荒川区","address":"東京都荒川区南千住5-44-16","lat":35.736,"lon":139.79673},{"name":"タムスわんぱく保育園荒川","province":"東京都","city":"荒川区","address":"東京都荒川区荒川5-31-73?4F","lat":35.73972,"lon":139.77374},{"name":"タムスわんぱく保育園東日暮里","province":"東京都","city":"荒川区","address":"東京都荒川区東日暮里3-9-10","lat":35.72829,"lon":139.78273},{"name":"第二東日暮里保育園","province":"東京都","city":"荒川区","address":"東京都荒川区東日暮里1-17-21","lat":35.73011,"lon":139.78944},{"name":"第二南千住保育園","province":"東京都","city":"荒川区","address":"東京都荒川区南千住2-21-6","lat":35.73037,"lon":139.79742},{"name":"ドン・ボスコ保育園","province":"東京都","city":"荒川区","address":"東京都荒川区荒川3-11-1","lat":35.73439,"lon":139.78375},{"name":"なかよし保育園","province":"東京都","city":"荒川区","address":"東京都荒川区東日暮里1-17-2","lat":35.73044,"lon":139.78952},{"name":"西尾久みどり保育園","province":"東京都","city":"荒川区","address":"東京都荒川区西尾久4-6-19","lat":35.74423,"lon":139.76106},{"name":"西日暮里保育園","province":"東京都","city":"荒川区","address":"東京都荒川区西日暮里6-25-3","lat":35.73668,"lon":139.77064},{"name":"にじの樹保育園","province":"東京都","city":"荒川区","address":"東京都荒川区南千住8-5-2","lat":35.73905,"lon":139.80715},{"name":"にじの森保育園","province":"東京都","city":"荒川区","address":"東京都荒川区南千住8-13-1","lat":35.73624,"lon":139.80931},{"name":"日暮里きらきら保育園","province":"東京都","city":"荒川区","address":"東京都荒川区西日暮里2-30-41?4F","lat":35.73032,"lon":139.77221},{"name":"日暮里保育園","province":"東京都","city":"荒川区","address":"東京都荒川区西日暮里2-2-7","lat":35.73286,"lon":139.77415},{"name":"はなみずき保育園","province":"東京都","city":"荒川区","address":"東京都荒川区南千住8-5-5","lat":35.73839,"lon":139.80735},{"name":"原保育園","province":"東京都","city":"荒川区","address":"東京都荒川区町屋5-11-16","lat":35.75111,"lon":139.77882},{"name":"ハローフレンズ保育園","province":"東京都","city":"荒川区","address":"東京都荒川区西日暮里1-57-13","lat":35.73563,"lon":139.77191},{"name":"東尾久保育園","province":"東京都","city":"荒川区","address":"東京都荒川区東尾久2-28-3","lat":35.74192,"lon":139.77186},{"name":"ひぐらし保育園","province":"東京都","city":"荒川区","address":"東京都荒川区西日暮里5-35-9","lat":35.73325,"lon":139.76739},{"name":"聖華ひなた保育園","province":"東京都","city":"荒川区","address":"東京都荒川区東日暮里6-28-13","lat":35.73308,"lon":139.77577},{"name":"ピノキオ幼児舎東尾久保育園","province":"東京都","city":"荒川区","address":"東京都荒川区東尾久3-27-72F","lat":35.7458,"lon":139.76968},{"name":"フレンズ保育園","province":"東京都","city":"荒川区","address":"東京都荒川区東日暮里3-11-26","lat":35.73014,"lon":139.78195},{"name":"ぽけっとランド南千住瑞光保育園","province":"東京都","city":"荒川区","address":"東京都荒川区南千住7-30-1","lat":35.73471,"lon":139.79963},{"name":"ポポラー東京東日暮里園","province":"東京都","city":"荒川区","address":"東京都荒川区東日暮里6-1-1アトラスブランズタワー三河島2F","lat":35.73272,"lon":139.77825},{"name":"町屋保育園","province":"東京都","city":"荒川区","address":"東京都荒川区町屋1-35-9","lat":35.74441,"lon":139.78585},{"name":"まなびの森保育園西日暮里","province":"東京都","city":"荒川区","address":"東京都荒川区西日暮里6-21-2","lat":35.73533,"lon":139.77095},{"name":"まなびの森保育園町屋","province":"東京都","city":"荒川区","address":"東京都荒川区荒川7-41-8","lat":35.74126,"lon":139.78013},{"name":"まなびの森保育園三河島","province":"東京都","city":"荒川区","address":"東京都荒川区東日暮里6-2-145F","lat":35.73234,"lon":139.77809},{"name":"三河島保育園","province":"東京都","city":"荒川区","address":"東京都荒川区荒川3-54-1","lat":35.73556,"lon":139.78016},{"name":"南千住駅前保育所","province":"東京都","city":"荒川区","address":"東京都荒川区南千住4-3-2","lat":35.73279,"lon":139.79888},{"name":"南千住さくら保育園","province":"東京都","city":"荒川区","address":"東京都荒川区南千住4-9-4","lat":35.73685,"lon":139.80456},{"name":"南千住七丁目保育園","province":"東京都","city":"荒川区","address":"東京都荒川区南千住7-20-13","lat":35.73823,"lon":139.79872},{"name":"南千住保育園","province":"東京都","city":"荒川区","address":"東京都荒川区南千住6-35-3","lat":35.73819,"lon":139.79155},{"name":"宮前　花と緑の保育園","province":"東京都","city":"荒川区","address":"東京都荒川区東尾久8-45-24","lat":35.75186,"lon":139.76637},{"name":"夕やけこやけ保育園","province":"東京都","city":"荒川区","address":"東京都荒川区東日暮里3-11-19","lat":35.72993,"lon":139.78146},{"name":"ワタナベ学園","province":"東京都","city":"荒川区","address":"東京都荒川区町屋2-15-5","lat":35.74371,"lon":139.77839},{"name":"ワタナベ学園分園","province":"東京都","city":"荒川区","address":"東京都荒川区町屋2-17-21F","lat":35.74379,"lon":139.77725}]}