{"keyword":"認可","data":[{"name":"ピノキオ幼児舎南千住保育園","province":"東京都","city":"荒川区","address":"荒川区南千住8-4-5けやき通り北参番館204","lat":35.73752,"lon":139.80653},{"name":"AIAI　NURSERY　新三河島","province":"東京都","city":"荒川区","address":"荒川区東尾久1-1-4小澤ビル3階4階","lat":35.73801,"lon":139.77281},{"name":"西尾久保育園","province":"東京都","city":"荒川区","address":"荒川区東尾久8-45-24","lat":35.75112,"lon":139.76639},{"name":"AIAI　NURSERY　西日暮里一丁目","province":"東京都","city":"荒川区","address":"荒川区西日暮里1-1-1パレス石川2階","lat":35.73687,"lon":139.77606},{"name":"AIAI NURSERY 新三河島","province":"東京都","city":"荒川区","address":"荒川区東尾久1-1-4小澤ビル3階4階","lat":35.73801,"lon":139.77281},{"name":"AIAI NURSERY 西日暮里一丁目","province":"東京都","city":"荒川区","address":"荒川区西日暮里1-1-1パレス石川2階","lat":35.73687,"lon":139.77606},{"name":"東日暮里わんぱく保育園","province":"東京都","city":"荒川区","address":"荒川区東日暮里3-9-10","lat":35.72863,"lon":139.78262},{"name":"西尾久保育園","province":"東京都","city":"荒川区","address":"荒川区西尾久5-3-17","lat":35.74855,"lon":139.76099},{"name":"小台橋保育園","province":"東京都","city":"荒川区","address":"荒川区西尾久6-9-7","lat":35.75112,"lon":139.76639},{"name":"あいあい保育園新三河島園","province":"東京都","city":"荒川区","address":"荒川区東尾久1-1-4小澤ビル3・4階","lat":35.73801,"lon":139.77281},{"name":"あい・あい保育園　西日暮里一丁目園","province":"東京都","city":"荒川区","address":"荒川区西日暮里1-1-1パレス石川2階","lat":35.73687,"lon":139.77606},{"name":"原保育園","province":"東京都","city":"荒川区","address":"荒川区町屋5-11-16","lat":35.7511,"lon":139.77882},{"name":"にじの森保育園","province":"東京都","city":"荒川区","address":"荒川区南千住8-13-1","lat":35.73654,"lon":139.80866},{"name":"熊野前保育園","province":"東京都","city":"荒川区","address":"荒川区東尾久8-23-9","lat":35.75176,"lon":139.76941},{"name":"西日暮里保育園","province":"東京都","city":"荒川区","address":"荒川区西日暮里6-25-3","lat":35.73668,"lon":139.77062},{"name":"日暮里保育園","province":"東京都","city":"荒川区","address":"荒川区西日暮里2-2-7","lat":35.73327,"lon":139.77374},{"name":"ポポラー東京東日暮里園","province":"東京都","city":"荒川区","address":"荒川区東日暮里6-1-1アトラスブランズタワー三河島2F","lat":35.73275,"lon":139.77828},{"name":"太陽の子わかば保育園","province":"東京都","city":"荒川区","address":"荒川区南千住5-44-16ライオンズマンション1階","lat":35.73289,"lon":139.80272}]}