{"keyword":"館","data":[{"name":"荒木田ふれあい館","province":"東京都","city":"荒川区","address":"荒川区町屋6-13-2","lat":35.750405,"lon":139.783398},{"name":"町屋ふれあい館","province":"東京都","city":"荒川区","address":"荒川区町屋1-35-8","lat":35.744087,"lon":139.785824},{"name":"花の木ひろば館","province":"東京都","city":"荒川区","address":"荒川区荒川5-50-5","lat":35.740215,"lon":139.7748},{"name":"峡田ふれあい館","province":"東京都","city":"荒川区","address":"荒川区荒川3-3-10","lat":35.733786,"lon":139.784164},{"name":"荒川山吹ふれあい館","province":"東京都","city":"荒川区","address":"荒川区荒川7-6-8","lat":35.742546,"lon":139.783986},{"name":"汐入ふれあい館","province":"東京都","city":"荒川区","address":"荒川区南千住8-2-2","lat":35.735222,"lon":139.807354},{"name":"南千住ふれあい館","province":"東京都","city":"荒川区","address":"荒川区南千住6-36-13","lat":35.738133,"lon":139.791013},{"name":"南千住駅前ふれあい館","province":"東京都","city":"荒川区","address":"荒川区南千住7-1-1-208","lat":35.73308,"lon":139.798215},{"name":"石浜ふれあい館","province":"東京都","city":"荒川区","address":"荒川区南千住3-28-2","lat":35.73129,"lon":139.806446},{"name":"尾久ふれあい館","province":"東京都","city":"荒川区","address":"荒川区西尾久2-25-13","lat":35.750308,"lon":139.763303},{"name":"西尾久ふれあい館","province":"東京都","city":"荒川区","address":"荒川区西尾久8-33-31","lat":35.751604,"lon":139.753365},{"name":"熊野前ひろば館","province":"東京都","city":"荒川区","address":"荒川区東尾久5-9-3","lat":35.748255,"lon":139.768922},{"name":"西日暮里二丁目ひろば館","province":"東京都","city":"荒川区","address":"荒川区西日暮里2-32-25","lat":35.731683,"lon":139.772409},{"name":"西日暮里ふれあい館","province":"東京都","city":"荒川区","address":"荒川区西日暮里6-24-4","lat":35.736279,"lon":139.770781},{"name":"東日暮里ふれあい館","province":"東京都","city":"荒川区","address":"荒川区東日暮里1-17-13","lat":35.729666,"lon":139.790188},{"name":"夕やけこやけふれあい館","province":"東京都","city":"荒川区","address":"荒川区東日暮里3-11-19","lat":35.729964,"lon":139.781378},{"name":"荒川区立南千住図書館","province":"東京都","city":"荒川区","address":"東京都荒川区南千住6-63-1","lat":35.737453,"lon":139.795441},{"name":"荒川区立尾久図書館","province":"東京都","city":"荒川区","address":"東京都荒川区東尾久8-45-4","lat":35.751275,"lon":139.766213},{"name":"荒川区立町屋図書館","province":"東京都","city":"荒川区","address":"東京都荒川区町屋5-11-18","lat":35.751277,"lon":139.778956},{"name":"荒川区立日暮里図書館","province":"東京都","city":"荒川区","address":"東京都荒川区東日暮里6-38-4","lat":35.731238,"lon":139.774618},{"name":"荒川区立南千住図書館汐入図書サービスステーション","province":"東京都","city":"荒川区","address":"東京都荒川区南千住8-12-5-114","lat":35.737614,"lon":139.808112},{"name":"荒川区立ゆいの森あらかわ","province":"東京都","city":"荒川区","address":"東京都荒川区荒川2-50-1","lat":35.73969948,"lon":139.783769},{"name":"町屋ふれあい館","province":"東京都","city":"荒川区","address":"荒川区町屋1-35-8","lat":35.74443,"lon":139.78592},{"name":"荒木田ふれあい館","province":"東京都","city":"荒川区","address":"荒川区町屋6-13-2","lat":35.75054,"lon":139.78346},{"name":"峡田ふれあい館","province":"東京都","city":"荒川区","address":"荒川区荒川3-3-10","lat":35.73388,"lon":139.78419},{"name":"花の木ひろば館","province":"東京都","city":"荒川区","address":"荒川区荒川5-50-5","lat":35.74051,"lon":139.7746},{"name":"荒川山吹ふれあい館","province":"東京都","city":"荒川区","address":"荒川区荒川7-6-8","lat":35.7424,"lon":139.78409},{"name":"石浜ふれあい館","province":"東京都","city":"荒川区","address":"荒川区南千住3-28-2","lat":35.72975,"lon":139.80701},{"name":"南千住ふれあい館","province":"東京都","city":"荒川区","address":"荒川区南千住6-36-13","lat":35.73845,"lon":139.79112},{"name":"南千住駅前ふれあい館","province":"東京都","city":"荒川区","address":"荒川区南千住7-1-1-208","lat":35.73307,"lon":139.7982},{"name":"汐入ふれあい館","province":"東京都","city":"荒川区","address":"荒川区南千住8-2-2","lat":35.73505,"lon":139.80739},{"name":"尾久ふれあい館","province":"東京都","city":"荒川区","address":"荒川区西尾久2-25-13","lat":35.75004,"lon":139.76363},{"name":"西尾久ふれあい館","province":"東京都","city":"荒川区","address":"荒川区西尾久8-33-31","lat":35.7515,"lon":139.75261},{"name":"熊野前ひろば館","province":"東京都","city":"荒川区","address":"荒川区東尾久5-9-3","lat":35.74841,"lon":139.76884},{"name":"西日暮里二丁目ひろば館","province":"東京都","city":"荒川区","address":"荒川区西日暮里2-32-25","lat":35.73123,"lon":139.77193},{"name":"西日暮里ふれあい館","province":"東京都","city":"荒川区","address":"荒川区西日暮里6-24-4","lat":35.73623,"lon":139.77063},{"name":"東日暮里ふれあい館","province":"東京都","city":"荒川区","address":"荒川区東日暮里1-17-13","lat":35.72997,"lon":139.78955},{"name":"夕やけこやけふれあい館","province":"東京都","city":"荒川区","address":"荒川区東日暮里3-11-19","lat":35.72988,"lon":139.78169},{"name":"峡田ふれあい館","province":"東京都","city":"荒川区","address":"荒川区荒川3-3-10","lat":35.73388,"lon":139.7842},{"name":"熊野前ひろば館","province":"東京都","city":"荒川区","address":"荒川区東尾久5-9-3","lat":35.74841,"lon":139.76885},{"name":"＊?南千住図書館","province":"東京都","city":"荒川区","address":"荒川区南千住6-63-1","lat":35.73745,"lon":139.795424},{"name":"＊?尾久図書館","province":"東京都","city":"荒川区","address":"荒川区西尾久3-12-12","lat":35.752255,"lon":139.764508},{"name":"＊?町屋図書館","province":"東京都","city":"荒川区","address":"荒川区町屋5-11-18","lat":35.751277,"lon":139.778956},{"name":"＊?日暮里図書館","province":"東京都","city":"荒川区","address":"荒川区東日暮里6-38-4","lat":35.73118,"lon":139.774993},{"name":"＊?汐入図書サービスステーション","province":"東京都","city":"荒川区","address":"荒川区南千住8-12-5-114","lat":35.737611,"lon":139.808017},{"name":"＊?冠新道図書サービスステーション","province":"東京都","city":"荒川区","address":"荒川区西日暮里6-25-14","lat":35.73692,"lon":139.77071}]}