{"keyword":"市営","data":[{"name":"森野第一自転車駐車場","province":"東京都","city":"町田市","address":"東京都町田市森野1-1","lat":35.54287761,"lon":139.4432129},{"name":"森野第二自転車駐車場","province":"東京都","city":"町田市","address":"東京都町田市森野1-15","lat":35.54325314,"lon":139.4440786},{"name":"森野第三自転車駐車場","province":"東京都","city":"町田市","address":"東京都町田市森野1-2、1-3","lat":35.54357069,"lon":139.4424664},{"name":"森野第三自転車駐車場","province":"東京都","city":"町田市","address":"東京都町田市森野1-2、1-3","lat":35.54357072,"lon":139.4424769},{"name":"森野第一バイク駐車場","province":"東京都","city":"町田市","address":"東京都町田市森野1-1","lat":35.54296653,"lon":139.4434422},{"name":"森野第二バイク駐車場","province":"東京都","city":"町田市","address":"東京都町田市森野1-3","lat":35.54448556,"lon":139.4412543},{"name":"森野第三バイク駐車場","province":"東京都","city":"町田市","address":"東京都町田市森野1-34","lat":35.54617103,"lon":139.4445772},{"name":"原町田一丁目自転車駐車場","province":"東京都","city":"町田市","address":"東京都町田市原町田1-6-21","lat":35.54022581,"lon":139.4481349},{"name":"原町田三丁目自転車駐車場","province":"東京都","city":"町田市","address":"東京都町田市原町田3-2-18","lat":35.54022369,"lon":139.4503142},{"name":"原町田四丁目自転車駐車場","province":"東京都","city":"町田市","address":"東京都町田市原町田4-11-11","lat":35.54261494,"lon":139.4490009},{"name":"原町田六丁目自転車駐車場","province":"東京都","city":"町田市","address":"東京都町田市原町田6-26","lat":35.54476589,"lon":139.4478056},{"name":"町田ターミナル自転車駐車場","province":"東京都","city":"町田市","address":"東京都町田市原町田3-1-4","lat":35.54022936,"lon":139.4494861},{"name":"成瀬駅北口自転車駐車場","province":"東京都","city":"町田市","address":"東京都町田市南成瀬1-3-5","lat":35.53588442,"lon":139.4723249},{"name":"成瀬駅北口自転車駐車場","province":"東京都","city":"町田市","address":"東京都町田市南成瀬1-3-5","lat":35.53589008,"lon":139.4723179},{"name":"なるせ駅前市民センター地下自転車駐車場","province":"東京都","city":"町田市","address":"東京都町田市南成瀬1-2-5","lat":35.53682331,"lon":139.4729389},{"name":"成瀬駅北口路上自転車駐車場","province":"東京都","city":"町田市","address":"東京都町田市南成瀬1-2、1-3","lat":35.53601269,"lon":139.4733683},{"name":"成瀬駅南口自転車駐車場","province":"東京都","city":"町田市","address":"東京都町田市成瀬が丘2-1-8","lat":35.53460661,"lon":139.4736763},{"name":"成瀬駅南口臨時バイク駐車場","province":"東京都","city":"町田市","address":"東京都町田市成瀬が丘2-7-3他","lat":35.53428211,"lon":139.4730072},{"name":"玉川学園五丁目臨時自転車駐車場","province":"東京都","city":"町田市","address":"東京都町田市玉川学園5-3966-16","lat":35.56535022,"lon":139.4632368},{"name":"玉川学園五丁目臨時自転車駐車場","province":"東京都","city":"町田市","address":"東京都町田市玉川学園5-3966-16","lat":35.56533889,"lon":139.4632508},{"name":"玉川学園二丁目自転車駐車場","province":"東京都","city":"町田市","address":"東京都町田市玉川学園2-19-12","lat":35.56362203,"lon":139.4624294},{"name":"東玉川学園臨時自転車駐車場","province":"東京都","city":"町田市","address":"東京都町田市玉川学園7-26","lat":35.56050253,"lon":139.4674399},{"name":"鶴川駅西側自転車駐車場","province":"東京都","city":"町田市","address":"東京都町田市大蔵町37他","lat":35.58280572,"lon":139.4780665},{"name":"鶴川駅西側自転車駐車場","province":"東京都","city":"町田市","address":"東京都町田市大蔵町37他","lat":35.58279994,"lon":139.4780457},{"name":"鶴川駅東側バイク駐車場","province":"東京都","city":"町田市","address":"東京都町田市能ヶ谷1-294-1","lat":35.58405772,"lon":139.4840784},{"name":"鶴川駅南側自転車駐車場","province":"","city":"","address":"\"東京都町田市能ヶ谷1-46","lat":35.58179028,"lon":139.4791158},{"name":"つくし野駅自転車駐車場","province":"東京都","city":"町田市","address":"東京都町田市つくし野1-26","lat":35.53108964,"lon":139.4847983},{"name":"すずかけ台駅前自転車駐車場","province":"東京都","city":"町田市","address":"東京都町田市南つくし野3-3-3","lat":35.51716572,"lon":139.4812881},{"name":"多摩境駅南側自転車駐車場","province":"東京都","city":"町田市","address":"東京都町田市小山ヶ丘3-23-134","lat":35.60251689,"lon":139.3673111},{"name":"多摩境駅北側自転車駐車場","province":"東京都","city":"町田市","address":"東京都町田市小山ヶ丘3-23-142","lat":35.60251689,"lon":139.3673111},{"name":"相原駅東口自転車駐車場","province":"東京都","city":"町田市","address":"東京都町田市相原町1155-5","lat":35.60728875,"lon":139.3319485},{"name":"相原駅西口自転車駐車場","province":"東京都","city":"町田市","address":"東京都町田市相原町1216-6","lat":35.60591619,"lon":139.3316303},{"name":"相原駅西口自転車駐車場","province":"東京都","city":"町田市","address":"東京都町田市相原町1216-6","lat":35.60601108,"lon":139.3316445},{"name":"相原駅東口バイク駐車場","province":"東京都","city":"町田市","address":"東京都町田市相原町1228-6","lat":35.60511536,"lon":139.3319489},{"name":"南町田グランベリーパーク駅北口地下自転車駐車場","province":"東京都","city":"町田市","address":"東京都町田市鶴間1-17","lat":35.51195142,"lon":139.4708528},{"name":"南町田グランベリーパーク駅東バイク自転車駐車場","province":"東京都","city":"町田市","address":"東京都町田市鶴間8-1799-2","lat":35.51092431,"lon":139.4737891},{"name":"南町田グランベリーパーク駅東自転車駐車場","province":"東京都","city":"町田市","address":"東京都町田市鶴間3-103-23","lat":35.51051,"lon":139.47342},{"name":"木曽住宅バス停自転車駐車場","province":"東京都","city":"町田市","address":"東京都町田市木曽東4-570-2他","lat":35.56387828,"lon":139.4277805}]}