{"keyword":"ルート","data":[{"name":"JR浜松町駅 モノレールのりかえ口","province":"東京都","city":"港区","address":"東京都港区浜松町2丁目4","lat":35.654964,"lon":139.75664,"番号":"Start","コース":"A芝","大見出し":"増上寺や旧芝離宮恩賜庭園など江戸を感じる歴史的なスポットに加え、東京タワーといった東京の発展を支えてきたスポットを巡るコース","小見出し":""},{"name":"旧芝離宮恩賜庭園","province":"東京都","city":"港区","address":"東京都港区海岸1丁目4","lat":35.654964,"lon":139.758799,"番号":"A-1","コース":"A芝","大見出し":"増上寺や旧芝離宮恩賜庭園など江戸を感じる歴史的なスポットに加え、東京タワーといった東京の発展を支えてきたスポットを巡るコース","小見出し":"日本庭園を眺め花を愛でる"},{"name":"芝大神宮","province":"東京都","city":"港区","address":"東京都港区芝大門1丁目12-7","lat":35.657616,"lon":139.753074,"番号":"A-2","コース":"A芝","大見出し":"増上寺や旧芝離宮恩賜庭園など江戸を感じる歴史的なスポットに加え、東京タワーといった東京の発展を支えてきたスポットを巡るコース","小見出し":"縁結びで有名"},{"name":"増上寺","province":"東京都","city":"港区","address":"東京都港区芝公園4丁目7-35","lat":35.65741,"lon":139.748302,"番号":"A-3","コース":"A芝","大見出し":"増上寺や旧芝離宮恩賜庭園など江戸を感じる歴史的なスポットに加え、東京タワーといった東京の発展を支えてきたスポットを巡るコース","小見出し":"将軍たちが眠る徳川家の菩提寺"},{"name":"東京タワー","province":"東京都","city":"港区","address":"東京都港区芝公園4丁目2-8","lat":35.658571,"lon":139.745476,"番号":"A-4","コース":"A芝","大見出し":"増上寺や旧芝離宮恩賜庭園など江戸を感じる歴史的なスポットに加え、東京タワーといった東京の発展を支えてきたスポットを巡るコース","小見出し":"日本を代表する観光名所"},{"name":"都立芝公園","province":"東京都","city":"港区","address":"東京都港区芝公園4丁目3","lat":35.657937,"lon":139.746337,"番号":"A-5","コース":"A芝","大見出し":"増上寺や旧芝離宮恩賜庭園など江戸を感じる歴史的なスポットに加え、東京タワーといった東京の発展を支えてきたスポットを巡るコース","小見出し":"日本最初の公園"},{"name":"都営大江戸線 赤羽橋駅 中之橋口","province":"東京都","city":"港区","address":"東京都港区東麻布1丁目28-13","lat":35.655206,"lon":139.743487,"番号":"Goal","コース":"A芝","大見出し":"増上寺や旧芝離宮恩賜庭園など江戸を感じる歴史的なスポットに加え、東京タワーといった東京の発展を支えてきたスポットを巡るコース","小見出し":""},{"name":"JR新橋駅 日比谷口","province":"東京都","city":"港区","address":"東京都港区新橋2丁目17","lat":35.66695554,"lon":139.7581037,"番号":"Start","コース":"B新橋","大見出し":"新橋は鉄道発祥の地。鉄道の歴史にふれながら、カレッタ汐留や虎ノ門ヒルズなど、都市型複合施設を巡るコース","小見出し":""},{"name":"新橋SL広場","province":"東京都","city":"港区","address":"東京都港区新橋2丁目","lat":35.66707321,"lon":139.7575887,"番号":"B-1","コース":"B新橋","大見出し":"新橋は鉄道発祥の地。鉄道の歴史にふれながら、カレッタ汐留や虎ノ門ヒルズなど、都市型複合施設を巡るコース","小見出し":"新橋駅の待ち合わせのシンボル"},{"name":"旧新橋停車場 鉄道歴史展示室","province":"東京都","city":"港区","address":"東京都港区東新橋1丁目5-3","lat":35.66597749,"lon":139.7614919,"番号":"B-2","コース":"B新橋","大見出し":"新橋は鉄道発祥の地。鉄道の歴史にふれながら、カレッタ汐留や虎ノ門ヒルズなど、都市型複合施設を巡るコース","小見出し":"鉄道発祥地汐留の歴史と鉄道の発展"},{"name":"カレッタ汐留","province":"東京都","city":"港区","address":"東京都港区東新橋1丁目8-1","lat":35.66454889,"lon":139.7624121,"番号":"B-3","コース":"B新橋","大見出し":"新橋は鉄道発祥の地。鉄道の歴史にふれながら、カレッタ汐留や虎ノ門ヒルズなど、都市型複合施設を巡るコース","小見出し":"地上約200mから東京湾を一望"},{"name":"虎ノ門ヒルズ","province":"東京都","city":"港区","address":"東京都港区虎ノ門1丁目23-4","lat":35.66677446,"lon":139.7495334,"番号":"B-4","コース":"B新橋","大見出し":"新橋は鉄道発祥の地。鉄道の歴史にふれながら、カレッタ汐留や虎ノ門ヒルズなど、都市型複合施設を巡るコース","小見出し":"国際水準の施設が集まる超高層複合タワー"},{"name":"NHK放送博物館","province":"東京都","city":"港区","address":"東京都港区愛宕2丁目1-1","lat":35.66377221,"lon":139.748313,"番号":"B-5","コース":"B新橋","大見出し":"新橋は鉄道発祥の地。鉄道の歴史にふれながら、カレッタ汐留や虎ノ門ヒルズなど、都市型複合施設を巡るコース","小見出し":"世界最初の放送専門ミュージアム"},{"name":"愛宕神社","province":"東京都","city":"港区","address":"東京都港区愛宕1丁目5-3","lat":35.66475574,"lon":139.7484704,"番号":"B-6","コース":"B新橋","大見出し":"新橋は鉄道発祥の地。鉄道の歴史にふれながら、カレッタ汐留や虎ノ門ヒルズなど、都市型複合施設を巡るコース","小見出し":"「出世の石段」で知られる神社"},{"name":"東京メトロ日比谷線 神谷町駅4a(階段昇降機)","province":"東京都","city":"港区","address":"東京都港区虎ノ門5丁目1-5","lat":35.66344223,"lon":139.7453033,"番号":"Goal","コース":"B新橋","大見出し":"新橋は鉄道発祥の地。鉄道の歴史にふれながら、カレッタ汐留や虎ノ門ヒルズなど、都市型複合施設を巡るコース","小見出し":""},{"name":"都営大江戸線・東京メトロ南北線 麻布十番駅1番出口","province":"東京都","city":"港区","address":"東京都港区麻布十番2丁目21","lat":35.65394974,"lon":139.7367135,"番号":"Start","コース":"C麻布","大見出し":"麻布十番商店街を散策しながら、歴史と伝統ある麻布名所を巡るコース","小見出し":""},{"name":"パティオ十番・きみちゃん像","province":"東京都","city":"港区","address":"東京都港区麻布十番2丁目3","lat":35.65518651,"lon":139.7349955,"番号":"C-1","コース":"C麻布","大見出し":"麻布十番商店街を散策しながら、歴史と伝統ある麻布名所を巡るコース","小見出し":"麻布十番を見守る女の子"},{"name":"麻布十番商店街","province":"東京都","city":"港区","address":"東京都港区麻布十番1丁目5","lat":35.65664958,"lon":139.7332673,"番号":"C-2","コース":"C麻布","大見出し":"麻布十番商店街を散策しながら、歴史と伝統ある麻布名所を巡るコース","小見出し":"楽しく、ほっとする微笑みの街"},{"name":"六本木けやき坂通り","province":"東京都","city":"港区","address":"東京都港区六本木6丁目9","lat":35.65920228,"lon":139.730047,"番号":"D-3","コース":"D六本木","大見出し":"森美術館、国立新美術館、サントリー美術館からなる「六本木アート・トライアングル」などアートを巡るコース","小見出し":"季節の移り変わりを身近に感じる散歩道"},{"name":"スターバックス コーヒー 六本木 蔦屋書店","province":"東京都","city":"港区","address":"東京都港区六本木6丁目11-1","lat":35.65901515,"lon":139.7319299,"番号":"C-4","コース":"C麻布","大見出し":"麻布十番商店街を散策しながら、歴史と伝統ある麻布名所を巡るコース","小見出し":"本とコーヒーが楽しめる寛ぎ空間"},{"name":"十番稲荷神社","province":"東京都","city":"港区","address":"東京都港区麻布十番1丁目4-6","lat":35.65703625,"lon":139.7350864,"番号":"C-5","コース":"C麻布","大見出し":"麻布十番商店街を散策しながら、歴史と伝統ある麻布名所を巡るコース","小見出し":"カエルの親子が見守る神社"},{"name":"都営大江戸線・東京メトロ南北線 麻布十番駅5番出口","province":"東京都","city":"港区","address":"東京都港区麻布十番1丁目10-10","lat":35.65594485,"lon":139.7368794,"番号":"Goal","コース":"C麻布","大見出し":"麻布十番商店街を散策しながら、歴史と伝統ある麻布名所を巡るコース","小見出し":""},{"name":"都営大江戸線・東京メトロ日比谷線 六本木駅 1c出口","province":"東京都","city":"港区","address":"東京都港区六本木6丁目4","lat":35.66167875,"lon":139.72953,"番号":"Start","コース":"D六本木","大見出し":"森美術館、国立新美術館、サントリー美術館からなる「六本木アート・トライアングル」などアートを巡るコース","小見出し":""},{"name":"六本木ヒルズ","province":"東京都","city":"港区","address":"東京都港区六本木6丁目10-1","lat":35.66064,"lon":139.729385,"番号":"D-1","コース":"D六本木","大見出し":"森美術館、国立新美術館、サントリー美術館からなる「六本木アート・トライアングル」などアートを巡るコース","小見出し":"東京のランドマーク"},{"name":"森美術館","province":"東京都","city":"港区","address":"東京都港区六本木6丁目10-1","lat":35.66030439,"lon":139.7292509,"番号":"D-2","コース":"D六本木","大見出し":"森美術館、国立新美術館、サントリー美術館からなる「六本木アート・トライアングル」などアートを巡るコース","小見出し":"夜遅くまで楽しめる現代美術館"},{"name":"毛利庭園","province":"東京都","city":"港区","address":"東京都港区六本木6丁目9","lat":35.6603837,"lon":139.7305737,"番号":"D-4","コース":"D六本木","大見出し":"森美術館、国立新美術館、サントリー美術館からなる「六本木アート・トライアングル」などアートを巡るコース","小見出し":"大名屋敷の名残を感じる贅沢な庭園"},{"name":"国立新美術館","province":"東京都","city":"港区","address":"東京都港区六本木7丁目22-2","lat":35.66501895,"lon":139.7264082,"番号":"D-5","コース":"D六本木","大見出し":"森美術館、国立新美術館、サントリー美術館からなる「六本木アート・トライアングル」などアートを巡るコース","小見出し":"日本が世界に誇る「アートセンター」"},{"name":"東京ミッドタウン","province":"東京都","city":"港区","address":"東京都港区赤坂9丁目7","lat":35.66587136,"lon":139.7308263,"番号":"E-1","コース":"E赤坂","大見出し":"赤坂氷川神社、豊川稲荷東京別院、東京ミッドタウン、赤坂サカスなど、伝統と現代が織りなす赤坂の魅力を探るコース","小見出し":"日本有数の高さを誇る高層ビル"},{"name":"サントリー美術館","province":"東京都","city":"港区","address":"東京都港区赤坂9丁目7-4","lat":35.66643793,"lon":139.7304293,"番号":"D-7","コース":"D六本木","大見出し":"森美術館、国立新美術館、サントリー美術館からなる「六本木アート・トライアングル」などアートを巡るコース","小見出し":"「生活の中の美」をテーマとした企画展を開催"},{"name":"21_21 DESIGN SIGHT","province":"東京都","city":"港区","address":"東京都港区赤坂9丁目7-6","lat":35.66752536,"lon":139.7303598,"番号":"D-8","コース":"D六本木","大見出し":"森美術館、国立新美術館、サントリー美術館からなる「六本木アート・トライアングル」などアートを巡るコース","小見出し":"デザインを通して世界を見る場所"},{"name":"檜町公園","province":"東京都","city":"港区","address":"東京都港区赤坂9丁目7","lat":35.66686836,"lon":139.7330863,"番号":"E-2","コース":"E赤坂","大見出し":"赤坂氷川神社、豊川稲荷東京別院、東京ミッドタウン、赤坂サカスなど、伝統と現代が織りなす赤坂の魅力を探るコース","小見出し":"大名屋敷の庭園跡"},{"name":"都営大江戸線・東京メトロ日比谷線 六本木駅 7番出口","province":"東京都","city":"港区","address":"東京都港区赤坂9丁目7","lat":35.66458073,"lon":139.7311154,"番号":"Goal","コース":"D六本木","大見出し":"森美術館、国立新美術館、サントリー美術館からなる「六本木アート・トライアングル」などアートを巡るコース","小見出し":""},{"name":"都営大江戸線六本木駅 8番出口(東京ミッドタウン直結)","province":"東京都","city":"港区","address":"東京都港区赤坂9丁目7","lat":35.66486308,"lon":139.7307065,"番号":"Start","コース":"E赤坂","大見出し":"赤坂氷川神社、豊川稲荷東京別院、東京ミッドタウン、赤坂サカスなど、伝統と現代が織りなす赤坂の魅力を探るコース","小見出し":""},{"name":"赤坂氷川神社","province":"東京都","city":"港区","address":"東京都港区赤坂6丁目10-12","lat":35.66829322,"lon":139.7355751,"番号":"E-3","コース":"E赤坂","大見出し":"赤坂氷川神社、豊川稲荷東京別院、東京ミッドタウン、赤坂サカスなど、伝統と現代が織りなす赤坂の魅力を探るコース","小見出し":"一千年以上の歴史がある神社"},{"name":"勝安房邸跡・旧氷川小学校跡地","province":"東京都","city":"港区","address":"東京都港区赤坂6丁目6","lat":35.66955706,"lon":139.7378968,"番号":"E-4","コース":"E赤坂","大見出し":"赤坂氷川神社、豊川稲荷東京別院、東京ミッドタウン、赤坂サカスなど、伝統と現代が織りなす赤坂の魅力を探るコース","小見出し":"幕末の偉人に出会う"},{"name":"氷川公園","province":"東京都","city":"港区","address":"東京都港区赤坂6丁目5","lat":35.67091479,"lon":139.7371731,"番号":"E-5","コース":"E赤坂","大見出し":"赤坂氷川神社、豊川稲荷東京別院、東京ミッドタウン、赤坂サカスなど、伝統と現代が織りなす赤坂の魅力を探るコース","小見出し":"噴水とバラ園のある憩いの場"},{"name":"赤坂サカス","province":"東京都","city":"港区","address":"東京都港区赤坂5丁目3","lat":35.67262748,"lon":139.7354163,"番号":"E-6","コース":"E赤坂","大見出し":"赤坂氷川神社、豊川稲荷東京別院、東京ミッドタウン、赤坂サカスなど、伝統と現代が織りなす赤坂の魅力を探るコース","小見出し":"赤坂の地に咲く新しい文化の街"},{"name":"豊川稲荷東京別院","province":"東京都","city":"港区","address":"東京都港区元赤坂1丁目4-7","lat":35.67649368,"lon":139.732851,"番号":"E-7","コース":"E赤坂","大見出し":"赤坂氷川神社、豊川稲荷東京別院、東京ミッドタウン、赤坂サカスなど、伝統と現代が織りなす赤坂の魅力を探るコース","小見出し":"豊川稲荷直轄の別院"},{"name":"迎賓館赤坂離宮","province":"東京都","city":"港区","address":"東京都港区元赤坂2丁目1-1","lat":35.68041317,"lon":139.7287773,"番号":"E-8","コース":"E赤坂","大見出し":"赤坂氷川神社、豊川稲荷東京別院、東京ミッドタウン、赤坂サカスなど、伝統と現代が織りなす赤坂の魅力を探るコース","小見出し":"優雅な佇まいの国宝"},{"name":"JR四ツ谷駅 四ツ谷口","province":"東京都","city":"新宿区","address":"東京都新宿区四谷1丁目5-25","lat":35.68615853,"lon":139.7300796,"番号":"Goal","コース":"E赤坂","大見出し":"赤坂氷川神社、豊川稲荷東京別院、東京ミッドタウン、赤坂サカスなど、伝統と現代が織りなす赤坂の魅力を探るコース","小見出し":""},{"name":"東京メトロ千代田線乃木坂駅 2番出口","province":"東京都","city":"港区","address":"東京都港区赤坂9丁目6-39","lat":35.66773584,"lon":139.7276248,"番号":"Start","コース":"F青山","大見出し":"桜の名所、著名人が眠る霊園を抜け、青山の文化芸術にふれるコース","小見出し":""},{"name":"青山霊園","province":"東京都","city":"港区","address":"東京都港区南青山2丁目33","lat":35.66667679,"lon":139.7216481,"番号":"F-1","コース":"F青山","大見出し":"桜の名所、著名人が眠る霊園を抜け、青山の文化芸術にふれるコース","小見出し":"桜並木が美しい日本初の公営墓地"},{"name":"斎藤茂吉居住の跡","province":"東京都","city":"港区","address":"東京都港区南青山4丁目17","lat":35.66417166,"lon":139.7173937,"番号":"F-2","コース":"F青山","大見出し":"桜の名所、著名人が眠る霊園を抜け、青山の文化芸術にふれるコース","小見出し":"斎藤茂吉の歌碑を訪ねる"},{"name":"秋山庄太郎写真芸術館","province":"東京都","city":"港区","address":"東京都港区南青山4丁目18-9","lat":35.66341735,"lon":139.717618,"番号":"F-3","コース":"F青山","大見出し":"桜の名所、著名人が眠る霊園を抜け、青山の文化芸術にふれるコース","小見出し":"「花」の写真を多く手がけた写真家"},{"name":"根津美術館","province":"東京都","city":"港区","address":"東京都港区南青山6丁目5-1","lat":35.6622599,"lon":139.717188,"番号":"F-4","コース":"F青山","大見出し":"桜の名所、著名人が眠る霊園を抜け、青山の文化芸術にふれるコース","小見出し":"日本・東洋の古美術品を展示"},{"name":"表参道","province":"東京都","city":"港区","address":"東京都港区北青山3丁目5","lat":35.66575211,"lon":139.7114417,"番号":"F-5","コース":"F青山","大見出し":"桜の名所、著名人が眠る霊園を抜け、青山の文化芸術にふれるコース","小見出し":"流行に敏感な人々でにぎわう"},{"name":"東京メトロ千代田線・半蔵門線・銀座線表参道駅 A1出口","province":"東京都","city":"港区","address":"東京都港区北青山3丁目6-1","lat":35.66573467,"lon":139.7108462,"番号":"Goal","コース":"F青山","大見出し":"桜の名所、著名人が眠る霊園を抜け、青山の文化芸術にふれるコース","小見出し":""},{"name":"東京メトロ銀座線 外苑前駅 4a出口","province":"東京都","city":"港区","address":"東京都港区北青山2丁目5","lat":35.67108574,"lon":139.7188907,"番号":"Start","コース":"G外苑","大見出し":"「絵になる」イチョウ並木を歩きながら、明治の歴史にふれるコース","小見出し":""},{"name":"TEPIA先端技術館","province":"東京都","city":"港区","address":"東京都港区北青山2丁目8-44","lat":35.67303805,"lon":139.7169595,"番号":"G-1","コース":"G外苑","大見出し":"「絵になる」イチョウ並木を歩きながら、明治の歴史にふれるコース","小見出し":"先端技術を分かりやすく紹介する学びのミュージアム"},{"name":"神宮外苑いちょう並木","province":"東京都","city":"港区","address":"東京都港区北青山2丁目1","lat":35.67443707,"lon":139.7198241,"番号":"G-2","コース":"G外苑","大見出し":"「絵になる」イチョウ並木を歩きながら、明治の歴史にふれるコース","小見出し":"東京を代表する風景のひとつ"},{"name":"御鷹の松","province":"東京都","city":"新宿区","address":"東京都新宿区霞ヶ丘町1","lat":35.67775882,"lon":139.7170823,"番号":"G-3","コース":"G外苑","大見出し":"「絵になる」イチョウ並木を歩きながら、明治の歴史にふれるコース","小見出し":"言い伝えられる松"},{"name":"聖徳記念絵画館","province":"東京都","city":"新宿区","address":"東京都新宿区霞ヶ丘町1-1","lat":35.67875598,"lon":139.7176213,"番号":"G-4","コース":"G外苑","大見出し":"「絵になる」イチョウ並木を歩きながら、明治の歴史にふれるコース","小見出し":"神宮外苑のシンボル"},{"name":"樺太日露国境天測標","province":"東京都","city":"新宿区","address":"東京都新宿区霞ヶ丘町1","lat":35.67810865,"lon":139.7171661,"番号":"G-5","コース":"G外苑","大見出し":"「絵になる」イチョウ並木を歩きながら、明治の歴史にふれるコース","小見出し":"レプリカの境界天測標石"},{"name":"葬場殿趾","province":"東京都","city":"新宿区","address":"東京都新宿区霞ヶ丘町1","lat":35.6790523,"lon":139.7174872,"番号":"G-6","コース":"G外苑","大見出し":"「絵になる」イチョウ並木を歩きながら、明治の歴史にふれるコース","小見出し":"楠の大木が月日を感じさせる"},{"name":"都営大江戸線 国立競技場駅 A2出口","province":"東京都","city":"新宿区","address":"東京都新宿区霞ヶ丘町10","lat":35.67971471,"lon":139.7143615,"番号":"Goal","コース":"G外苑","大見出し":"「絵になる」イチョウ並木を歩きながら、明治の歴史にふれるコース","小見出し":""},{"name":"JR・京浜急行線 品川駅 高輪口","province":"東京都","city":"港区","address":"東京都港区高輪3丁目26-26","lat":35.6287145,"lon":139.7380825,"番号":"Start","コース":"H高輪","大見出し":"「忠臣蔵」で知られる泉岳寺を中心に、高輪の歴史と水族館を巡るコース","小見出し":""},{"name":"マクセル アクアパーク品川","province":"東京都","city":"港区","address":"東京都港区高輪4丁目10-30","lat":35.62825058,"lon":139.735348,"番号":"H-1","コース":"H高輪","大見出し":"「忠臣蔵」で知られる泉岳寺を中心に、高輪の歴史と水族館を巡るコース","小見出し":"水族館のカテゴリーを超えたエンターテインメント"},{"name":"高輪消防署二本榎出張所","province":"東京都","city":"港区","address":"東京都港区高輪2丁目6-17","lat":35.63573796,"lon":139.7332245,"番号":"H-2","コース":"H高輪","大見出し":"「忠臣蔵」で知られる泉岳寺を中心に、高輪の歴史と水族館を巡るコース","小見出し":"ドイツ表現派建築のレトロな外観"},{"name":"大石良雄外十六人忠烈の跡","province":"東京都","city":"港区","address":"東京都港区高輪1丁目15","lat":35.64000527,"lon":139.7348403,"番号":"H-3","コース":"H高輪","大見出し":"「忠臣蔵」で知られる泉岳寺を中心に、高輪の歴史と水族館を巡るコース","小見出し":"赤穂義士17人が切腹した場所"},{"name":"泉岳寺","province":"東京都","city":"港区","address":"東京都港区高輪2丁目11-1","lat":35.63774061,"lon":139.7362978,"番号":"H-4","コース":"H高輪","大見出し":"「忠臣蔵」で知られる泉岳寺を中心に、高輪の歴史と水族館を巡るコース","小見出し":"「忠臣蔵」でおなじみ"},{"name":"高輪大木戸跡","province":"東京都","city":"港区","address":"東京都港区高輪2丁目19","lat":35.63950584,"lon":139.7406682,"番号":"H-5","コース":"H高輪","大見出し":"「忠臣蔵」で知られる泉岳寺を中心に、高輪の歴史と水族館を巡るコース","小見出し":"治安維持のため設置された大木戸"},{"name":"京浜急行線・都営浅草線 泉岳寺駅 A2出口","province":"東京都","city":"港区","address":"東京都港区高輪2丁目16","lat":35.63774854,"lon":139.7391817,"番号":"Goal","コース":"H高輪","大見出し":"「忠臣蔵」で知られる泉岳寺を中心に、高輪の歴史と水族館を巡るコース","小見出し":""},{"name":"都営三田線・東京メトロ南北線 白金高輪駅 1番出口","province":"東京都","city":"港区","address":"東京都港区高輪1丁目16-25","lat":35.64216378,"lon":139.7340034,"番号":"Start","コース":"I白金","大見出し":"八芳園の豊かな緑に憩いを求め、おしゃれなプラチナ通りで感性を磨くコース","小見出し":""},{"name":"智光山 立行寺","province":"東京都","city":"港区","address":"東京都港区白金2丁目2-6","lat":35.64322737,"lon":139.7323328,"番号":"I-1","コース":"I白金","大見出し":"八芳園の豊かな緑に憩いを求め、おしゃれなプラチナ通りで感性を磨くコース","小見出し":"鮮やかな色合いの山門が特徴的"},{"name":"覚林寺","province":"東京都","city":"港区","address":"東京都港区白金台1丁目1-47","lat":35.63968116,"lon":139.7317094,"番号":"I-2","コース":"I白金","大見出し":"八芳園の豊かな緑に憩いを求め、おしゃれなプラチナ通りで感性を磨くコース","小見出し":"必勝祈願の寺"},{"name":"八芳園","province":"東京都","city":"港区","address":"東京都港区白金台1丁目1","lat":35.63819846,"lon":139.727984,"番号":"I-3","コース":"I白金","大見出し":"八芳園の豊かな緑に憩いを求め、おしゃれなプラチナ通りで感性を磨くコース","小見出し":"四季折々の美しい庭園が人々を魅了"},{"name":"港区立郷土歴史館","province":"東京都","city":"港区","address":"東京都港区白金台4丁目6-2","lat":35.63914451,"lon":139.7267502,"番号":"I-4","コース":"I白金","大見出し":"八芳園の豊かな緑に憩いを求め、おしゃれなプラチナ通りで感性を磨くコース","小見出し":"港区の自然・歴史・文化を探求する"},{"name":"松岡美術館","province":"東京都","city":"港区","address":"東京都港区白金台5丁目12-6","lat":35.63999699,"lon":139.7219027,"番号":"I-5","コース":"I白金","大見出し":"八芳園の豊かな緑に憩いを求め、おしゃれなプラチナ通りで感性を磨くコース","小見出し":"さまざまなジャンルの美術品がずらり"},{"name":"プラチナ通り","province":"東京都","city":"港区","address":"東京都港区白金台5丁目15","lat":35.63842118,"lon":139.7231574,"番号":"I-6","コース":"I白金","大見出し":"八芳園の豊かな緑に憩いを求め、おしゃれなプラチナ通りで感性を磨くコース","小見出し":"のんびりウインドウショッピング"},{"name":"都営三田線・東京メトロ南北線 白金台駅 2番出口","province":"東京都","city":"港区","address":"東京都港区白金台4丁目5","lat":35.63836984,"lon":139.7267565,"番号":"Goal","コース":"I白金","大見出し":"八芳園の豊かな緑に憩いを求め、おしゃれなプラチナ通りで感性を磨くコース","小見出し":""},{"name":"JR・京浜急行線 品川駅 港南口","province":"東京都","city":"港区","address":"東京都港区港南2丁目1","lat":35.62904974,"lon":139.7399679,"番号":"Goal","コース":"J港南","大見出し":"運河沿いの水辺や公園の緑を楽しむことのできる、平坦で広々したコース","小見出し":""},{"name":"品川シーズンテラス","province":"東京都","city":"港区","address":"東京都港区港南1丁目2-70","lat":35.632589,"lon":139.7431913,"番号":"J-1","コース":"J港南","大見出し":"運河沿いの水辺や公園の緑を楽しむことのできる、平坦で広々したコース","小見出し":"都市と自然が多彩にリンクする空間"},{"name":"芝浦中央公園","province":"東京都","city":"港区","address":"東京都港区港南1丁目2","lat":35.63456102,"lon":139.7434933,"番号":"J-2","コース":"J港南","大見出し":"運河沿いの水辺や公園の緑を楽しむことのできる、平坦で広々したコース","小見出し":"湿生花園で自然の生き物を観察"},{"name":"東京海洋大学マリンサイエンスミュージアム","province":"東京都","city":"港区","address":"東京都港区港南4丁目5-7","lat":35.62760799,"lon":139.7481906,"番号":"J-3","コース":"J港南","大見出し":"運河沿いの水辺や公園の緑を楽しむことのできる、平坦で広々したコース","小見出し":"海洋生物の標本やはく製を集めた博物館"},{"name":"港南緑水公園","province":"東京都","city":"港区","address":"東京都港区港南4丁目7","lat":35.62877584,"lon":139.751103,"番号":"J-4","コース":"J港南","大見出し":"運河沿いの水辺や公園の緑を楽しむことのできる、平坦で広々したコース","小見出し":"自然とふれあえる水辺空間"},{"name":"JR品川駅 港南口","province":"東京都","city":"港区","address":"東京都港区港南2丁目1","lat":35.62904974,"lon":139.7399679,"番号":"Start1-1","コース":"K芝浦・台場","大見出し":"お台場海浜公園で海風を感じ、ベイエリアの観光スポットを巡るコース","小見出し":""},{"name":"お台場レインボーバス「品川駅港南口」","province":"東京都","city":"港区","address":"東京都港区港南2丁目18","lat":35.62848369,"lon":139.7407701,"番号":"Start1-2","コース":"K芝浦・台場","大見出し":"お台場海浜公園で海風を感じ、ベイエリアの観光スポットを巡るコース","小見出し":""},{"name":"「お台場海浜公園駅前」下車","province":"東京都","city":"港区","address":"東京都港区台場1丁目5","lat":35.62959281,"lon":139.7779251,"番号":"Start2-3","コース":"K芝浦・台場","大見出し":"お台場海浜公園で海風を感じ、ベイエリアの観光スポットを巡るコース","小見出し":""},{"name":"JR田町駅 芝浦口(東口)","province":"東京都","city":"港区","address":"東京都港区芝浦3丁目","lat":35.64562121,"lon":139.747758,"番号":"Start2-1","コース":"K芝浦・台場","大見出し":"お台場海浜公園で海風を感じ、ベイエリアの観光スポットを巡るコース","小見出し":""},{"name":"お台場レインボーバス「田町駅東口」","province":"東京都","city":"港区","address":"東京都港区芝浦3丁目3","lat":35.64389641,"lon":139.7480387,"番号":"Start2-2","コース":"K芝浦・台場","大見出し":"お台場海浜公園で海風を感じ、ベイエリアの観光スポットを巡るコース","小見出し":""},{"name":"お台場海浜公園","province":"東京都","city":"港区","address":"東京都港区台場1丁目4","lat":35.63090808,"lon":139.77632,"番号":"K-1","コース":"K芝浦・台場","大見出し":"お台場海浜公園で海風を感じ、ベイエリアの観光スポットを巡るコース","小見出し":"高層ビル群に沈む夕陽や夜景を楽しめる"},{"name":"デックス東京ビーチ","province":"東京都","city":"港区","address":"東京都港区台場1丁目6-1","lat":35.62930379,"lon":139.7761197,"番号":"K-2","コース":"K芝浦・台場","大見出し":"お台場海浜公園で海風を感じ、ベイエリアの観光スポットを巡るコース","小見出し":"お台場を代表するエンターテインメントスポット"},{"name":"アクアシティお台場","province":"東京都","city":"港区","address":"東京都港区台場1丁目7-1","lat":35.62791375,"lon":139.7737484,"番号":"K-3","コース":"K芝浦・台場","大見出し":"お台場海浜公園で海風を感じ、ベイエリアの観光スポットを巡るコース","小見出し":"レインボーブリッジと東京湾を臨む日本最大級のエンターテインメントショッピングモール"},{"name":"フジテレビ","province":"東京都","city":"港区","address":"東京都港区台場2丁目4","lat":35.62638766,"lon":139.7737484,"番号":"K-4","コース":"K芝浦・台場","大見出し":"お台場海浜公園で海風を感じ、ベイエリアの観光スポットを巡るコース","小見出し":"お台場のシンボル「球体展望室」"},{"name":"ゆりかもめ 台場駅","province":"東京都","city":"港区","address":"東京都港区台場2丁目6","lat":35.62591586,"lon":139.7714425,"番号":"Goal","コース":"K芝浦・台場","大見出し":"お台場海浜公園で海風を感じ、ベイエリアの観光スポットを巡るコース","小見出し":""},{"name":"都営浅草線・大江戸線 大門駅 B4出口","province":"東京都","city":"港区","address":"東京都港区浜松町2丁目3","lat":35.65650644,"lon":139.7559862,"番号":"Start","コース":"L竹芝","大見出し":"東京湾を一望!海風を感じながら、最新の港区を満喫するコース","小見出し":""},{"name":"東京ポートシティ竹芝","province":"東京都","city":"港区","address":"東京都港区海岸1丁目7-1","lat":35.65515127,"lon":139.7607334,"番号":"L-1","コース":"L竹芝","大見出し":"東京湾を一望!海風を感じながら、最新の港区を満喫するコース","小見出し":"棚田を思わせる緑豊かな最新都市型テラス"},{"name":"ウォーターズ竹芝","province":"東京都","city":"港区","address":"東京都港区海岸1丁目10-45","lat":35.65661146,"lon":139.7620424,"番号":"L-2","コース":"L竹芝","大見出し":"東京湾を一望!海風を感じながら、最新の港区を満喫するコース","小見出し":"浜松町駅から6分で行ける東京の水辺"},{"name":"竹芝客船ターミナル","province":"東京都","city":"港区","address":"東京都港区海岸1丁目12","lat":35.65439582,"lon":139.7633462,"番号":"L-3","コース":"L竹芝","大見出し":"東京湾を一望!海風を感じながら、最新の港区を満喫するコース","小見出し":"デッキにはたくさんのベンチがあり絶景の黄昏スポット"},{"name":"Hi-NODE TOKYO HiNODE PiER","province":"東京都","city":"港区","address":"東京都港区海岸2丁目7-103","lat":35.65167825,"lon":139.760739,"番号":"L-4","コース":"L竹芝","大見出し":"東京湾を一望!海風を感じながら、最新の港区を満喫するコース","小見出し":"東京湾を望むおしゃれなレストラン"},{"name":"シーバンス ア・モール","province":"東京都","city":"港区","address":"東京都港区芝浦1丁目2","lat":35.64978633,"lon":139.7565964,"番号":"L-5","コース":"L竹芝","大見出し":"東京湾を一望!海風を感じながら、最新の港区を満喫するコース","小見出し":"ツインタワーが目印のアトリウム"},{"name":"JR・東京モノレール羽田空港線 浜松町駅 金杉橋口","province":"東京都","city":"港区","address":"東京都港区浜松町2丁目4-1","lat":35.65462501,"lon":139.7559273,"番号":"Goal","コース":"L竹芝","大見出し":"東京湾を一望!海風を感じながら、最新の港区を満喫するコース","小見出し":""},{"name":"都営バス:RH01 港区コミュニティバス「ちぃばす」:田町ルート、赤坂ルート、麻布東ルート、麻布西ルート、青山ルート 「六本木けやき坂」停留所","province":"東京都","city":"港区","address":"東京都港区六本木6丁目9","lat":35.65924808,"lon":139.7305519,"番号":"Start","コース":"M有栖川宮記念公園周辺","大見出し":"桜に新緑、イチョウ、冬はイルミネーションまで!春夏秋冬いつ訪れても景色を満喫出来る元麻布周辺散策コース","小見出し":""},{"name":"六本木さくら坂","province":"東京都","city":"港区","address":"東京都港区六本木6丁目16","lat":35.65849972,"lon":139.7298267,"番号":"M-1","コース":"M有栖川宮記念公園周辺","大見出し":"桜に新緑、イチョウ、冬はイルミネーションまで!春夏秋冬いつ訪れても景色を満喫出来る元麻布周辺散策コース","小見出し":"高層ビル群に囲まれた閑静な桜並木"},{"name":"有栖川宮記念公園","province":"東京都","city":"港区","address":"東京都港区南麻布5丁目7","lat":35.65210825,"lon":139.7259201,"番号":"M-2","コース":"M有栖川宮記念公園周辺","大見出し":"桜に新緑、イチョウ、冬はイルミネーションまで!春夏秋冬いつ訪れても景色を満喫出来る元麻布周辺散策コース","小見出し":"四季折々の美しい景色が楽しめる日本庭園"},{"name":"麻布氷川神社 港七福神毘沙門天","province":"東京都","city":"港区","address":"東京都港区元麻布1丁目4-23","lat":35.65288731,"lon":139.7310439,"番号":"M-3","コース":"M有栖川宮記念公園周辺","大見出し":"桜に新緑、イチョウ、冬はイルミネーションまで!春夏秋冬いつ訪れても景色を満喫出来る元麻布周辺散策コース","小見出し":"勇気と勝運と財運の神が祀られたお社"},{"name":"ハンガリー大使館文化部 リスト・ハンガリー文化センター","province":"東京都","city":"港区","address":"東京都港区麻布十番3丁目8-1","lat":35.65362041,"lon":139.734435,"番号":"M-4","コース":"M有栖川宮記念公園周辺","大見出し":"桜に新緑、イチョウ、冬はイルミネーションまで!春夏秋冬いつ訪れても景色を満喫出来る元麻布周辺散策コース","小見出し":"ハンガリーの文化が体感できるスポット"},{"name":"都営大江戸線・東京メトロ南北線 麻布十番駅 1番出口","province":"東京都","city":"港区","address":"東京都港区麻布十番2丁目21","lat":35.65394974,"lon":139.7367135,"番号":"Goal","コース":"M有栖川宮記念公園周辺","大見出し":"桜に新緑、イチョウ、冬はイルミネーションまで!春夏秋冬いつ訪れても景色を満喫出来る元麻布周辺散策コース","小見出し":""},{"name":"JR 田町駅 三田口(西口) ピアタのエレベーターで1Fへ","province":"東京都","city":"港区","address":"東京都港区芝浦3丁目36","lat":35.64597873,"lon":139.7474503,"番号":"Start","コース":"N三田","大見出し":"図書館、ショッピング、運河沿いでのんびり。景観を楽しみつつまわれるバラエティ豊かなコース","小見出し":""},{"name":"札の辻スクエア","province":"東京都","city":"港区","address":"東京都港区芝5丁目36-4","lat":35.64511029,"lon":139.7446902,"番号":"N-1","コース":"N三田","大見出し":"図書館、ショッピング、運河沿いでのんびり。景観を楽しみつつまわれるバラエティ豊かなコース","小見出し":"区の「産業」と「学び」を支える施設"},{"name":"港区観光インフォメーションセンター","province":"東京都","city":"港区","address":"東京都港区芝5丁目36-4","lat":35.64511029,"lon":139.7446902,"番号":"N-1","コース":"N三田","大見出し":"図書館、ショッピング、運河沿いでのんびり。景観を楽しみつつまわれるバラエティ豊かなコース","小見出し":""},{"name":"三田図書館","province":"東京都","city":"港区","address":"東京都港区芝5丁目36-4","lat":35.64511029,"lon":139.7446902,"番号":"N-1","コース":"N三田","大見出し":"図書館、ショッピング、運河沿いでのんびり。景観を楽しみつつまわれるバラエティ豊かなコース","小見出し":""},{"name":"芝桜の庭園(住友不動産三田ツインビル西館)","province":"東京都","city":"港区","address":"東京都港区三田3丁目6","lat":35.64438383,"lon":139.7421949,"番号":"N-2","コース":"N三田","大見出し":"図書館、ショッピング、運河沿いでのんびり。景観を楽しみつつまわれるバラエティ豊かなコース","小見出し":"ピンクの絨毯が観られる穴場スポット"},{"name":"札の辻橋","province":"東京都","city":"港区","address":"東京都港区芝浦4丁目1","lat":35.64360561,"lon":139.7443619,"番号":"N-3","コース":"N三田","大見出し":"図書館、ショッピング、運河沿いでのんびり。景観を楽しみつつまわれるバラエティ豊かなコース","小見出し":"11本の線路上にかかる陸橋"},{"name":"藻塩橋・新芝運河沿緑地","province":"東京都","city":"港区","address":"東京都港区芝浦3丁目5","lat":35.64270598,"lon":139.7461142,"番号":"N-4","コース":"N三田","大見出し":"図書館、ショッピング、運河沿いでのんびり。景観を楽しみつつまわれるバラエティ豊かなコース","小見出し":"散歩に最適な憩いの場"},{"name":"msb Tamachi(ムスブ田町)","province":"東京都","city":"港区","address":"東京都港区芝浦3丁目1-21","lat":35.64473461,"lon":139.7489429,"番号":"N-5","コース":"N三田","大見出し":"図書館、ショッピング、運河沿いでのんびり。景観を楽しみつつまわれるバラエティ豊かなコース","小見出し":"田町の新たなシンボル"},{"name":"JR 田町駅 芝浦口(東口)","province":"東京都","city":"港区","address":"東京都港区芝浦3丁目36","lat":35.64566183,"lon":139.7477287,"番号":"Goal","コース":"N三田","大見出し":"図書館、ショッピング、運河沿いでのんびり。景観を楽しみつつまわれるバラエティ豊かなコース","小見出し":""},{"name":"神谷町駅4a出入口","province":"東京都","city":"港区","address":"東京都港区虎ノ門5丁目1-5","lat":35.66344325,"lon":139.745278,"番号":"Start","コース":"O神谷町周辺","大見出し":"ランドマークとなる麻布台ヒルズを中心に、歴史やアートに触れながらじっくり楽しむコース","小見出し":""},{"name":"愛宕神社","province":"東京都","city":"港区","address":"東京都港区愛宕1丁目5-3","lat":35.66476,"lon":139.7484714,"番号":"O-1","コース":"O神谷町周辺","大見出し":"ランドマークとなる麻布台ヒルズを中心に、歴史やアートに触れながらじっくり楽しむコース","小見出し":"「出世の石段」で知られる神社"},{"name":"NHK放送博物館","province":"東京都","city":"港区","address":"東京都港区愛宕2丁目1-1","lat":35.66396981,"lon":139.7483399,"番号":"O-2","コース":"O神谷町周辺","大見出し":"ランドマークとなる麻布台ヒルズを中心に、歴史やアートに触れながらじっくり楽しむコース","小見出し":"世界最初の放送専門ミュージアム"},{"name":"港区立みなと科学館","province":"東京都","city":"港区","address":"東京都港区虎ノ門3丁目6-9","lat":35.66557664,"lon":139.7460206,"番号":"O-3","コース":"O神谷町周辺","大見出し":"ランドマークとなる麻布台ヒルズを中心に、歴史やアートに触れながらじっくり楽しむコース","小見出し":"科学に親しむ先進施設"},{"name":"菊池寛実記念智美術館","province":"東京都","city":"港区","address":"東京都港区虎ノ門4丁目1-35","lat":35.66609309,"lon":139.7446017,"番号":"O-4","コース":"O神谷町周辺","大見出し":"ランドマークとなる麻布台ヒルズを中心に、歴史やアートに触れながらじっくり楽しむコース","小見出し":"陶芸作品メインの美術館"},{"name":"大倉集古館","province":"東京都","city":"港区","address":"東京都港区虎ノ門2丁目10-3","lat":35.66694058,"lon":139.7432463,"番号":"O-5","コース":"O神谷町周辺","大見出し":"ランドマークとなる麻布台ヒルズを中心に、歴史やアートに触れながらじっくり楽しむコース","小見出し":"中国風建築が目を引く私立美術館"},{"name":"泉屋博古館東京","province":"東京都","city":"港区","address":"東京都港区六本木1丁目5-1","lat":35.66508755,"lon":139.74111,"番号":"O-6","コース":"O神谷町周辺","大見出し":"ランドマークとなる麻布台ヒルズを中心に、歴史やアートに触れながらじっくり楽しむコース","小見出し":"住友家蒐集品をじっくりと"},{"name":"麻布台ヒルズ","province":"東京都","city":"港区","address":"東京都港区麻布台1丁目3-1","lat":35.66107946,"lon":139.7408046,"番号":"O-7","コース":"O神谷町周辺","大見出し":"ランドマークとなる麻布台ヒルズを中心に、歴史やアートに触れながらじっくり楽しむコース","小見出し":"都心の新たなランドマーク"},{"name":"神谷町駅5番出入口","province":"東京都","city":"港区","address":"東京都港区虎ノ門5丁目8","lat":35.66230605,"lon":139.7441841,"番号":"Goal","コース":"O神谷町周辺","大見出し":"ランドマークとなる麻布台ヒルズを中心に、歴史やアートに触れながらじっくり楽しむコース","小見出し":""}]}