{"keyword":"遊び場","data":[{"name":"東向島六丁目","province":"東京都","city":"墨田区","address":"東京都墨田区東向島6丁目24-1","lat":35.72318272,"lon":139.82192763},{"name":"東向島一丁目","province":"東京都","city":"墨田区","address":"東京都墨田区東向島1丁目4-4","lat":35.72282705,"lon":139.81377617},{"name":"立花一丁目","province":"東京都","city":"墨田区","address":"東京都墨田区立花1丁目10-2","lat":35.70624686,"lon":139.82666087},{"name":"立花五丁目","province":"東京都","city":"墨田区","address":"東京都墨田区立花5丁目12-13","lat":35.71519101,"lon":139.83052915},{"name":"八広三丁目","province":"東京都","city":"墨田区","address":"東京都墨田区八広3丁目24-8","lat":35.71979905,"lon":139.8287737},{"name":"緑二丁目","province":"広島県","city":"広島市佐伯区","address":"広島県広島市佐伯区美鈴が丘緑2丁目7-7","lat":34.39465056,"lon":132.37762182},{"name":"立花五丁目第二","province":"東京都","city":"墨田区","address":"東京都墨田区立花5丁目24-3","lat":35.71134969,"lon":139.83064597},{"name":"菊川三丁目","province":"東京都","city":"墨田区","address":"東京都墨田区菊川3丁目6-10","lat":35.68774309,"lon":139.80713132},{"name":"京島三丁目ぐるぐる広場","province":"東京都","city":"墨田区","address":"東京都墨田区京島3丁目45-4","lat":35.71345287,"lon":139.82391885},{"name":"八広四丁目","province":"東京都","city":"墨田区","address":"東京都墨田区八広4丁目42-12","lat":35.72192406,"lon":139.82904875},{"name":"地蔵坂通り広場","province":"東京都","city":"墨田区","address":"東京都墨田区東向島1丁目15-15","lat":35.7217216,"lon":139.81503423},{"name":"てらじま広場","province":"東京都","city":"墨田区","address":"東京都墨田区東向島1丁目15-13","lat":35.72188269,"lon":139.81485649},{"name":"東墨田一丁目運動広場","province":"東京都","city":"墨田区","address":"東京都墨田区東墨田1丁目10","lat":35.71647687,"lon":139.83195391},{"name":"墨田五丁目遊び場","province":"東京都","city":"墨田区","address":"東京都墨田区墨田5丁目16","lat":35.73872784,"lon":139.81809129},{"name":"緑町公園内遊び場","province":"東京都","city":"墨田区","address":"東京都墨田区亀沢2丁目6","lat":35.69640587,"lon":139.8013536}]}