{"keyword":"中道","data":[{"name":"四季の香ローズガーデン","province":"東京都","city":"練馬区","address":"練馬区光が丘5-2-6(四季の香公園内)","lat":35.76072855,"lon":139.6263062},{"name":"石神井公園ふるさと文化館","province":"東京都","city":"練馬区","address":"練馬区石神井町5-12-16","lat":35.73761853,"lon":139.59946},{"name":"石神井公園ふるさと文化館分室","province":"東京都","city":"練馬区","address":"練馬区石神井台1-33-44","lat":35.73930834,"lon":139.5939328},{"name":"初代川柳墓","province":"","city":"","address":"蔵前4丁目36番7号(竜宝寺内)","lat":35.70591527,"lon":139.7887445},{"name":"勝川春章墓","province":"","city":"","address":"蔵前4丁目16番16号(西福寺内)","lat":35.70353551,"lon":139.7888147},{"name":"寛永寺","province":"","city":"","address":"上野桜木1丁目14番","lat":35.72179353,"lon":139.7745046},{"name":"浅草文庫跡碑","province":"","city":"","address":"蔵前1丁目4番3号(榊神社内)","lat":35.70008591,"lon":139.789365},{"name":"鷲神社","province":"","city":"","address":"千束3丁目18番7号","lat":35.7224137,"lon":139.792013},{"name":"待乳山聖天","province":"","city":"","address":"浅草7丁目4番1号","lat":35.7173148,"lon":139.8030326},{"name":"江戸六地蔵","province":"","city":"","address":"東浅草2丁目12番13号(東禅寺内)","lat":35.72407391,"lon":139.8002925},{"name":"安藤東野墓","province":"","city":"","address":"橋場1丁目16番2号(福寿院内)","lat":35.72406483,"lon":139.806683},{"name":"妙亀塚","province":"","city":"","address":"橋場1丁目28番12号(妙亀塚公園内)","lat":35.72535454,"lon":139.8055229},{"name":"橋場のお化け地蔵","province":"","city":"","address":"橋場2丁目5番3号(松吟寺内)","lat":35.72632449,"lon":139.805803},{"name":"鳥越神社","province":"","city":"","address":"鳥越2丁目4番1号","lat":35.70198564,"lon":139.785695},{"name":"浅間神社","province":"","city":"","address":"浅草5-3-2","lat":35.71919427,"lon":139.7983128},{"name":"岡倉天心記念公園","province":"","city":"","address":"谷中5-7","lat":35.72637281,"lon":139.766555},{"name":"山岡鉄舟墓","province":"","city":"","address":"谷中5-4-7(全生庵内)","lat":35.72413302,"lon":139.766875},{"name":"三遊亭円朝墓","province":"","city":"","address":"谷中5-4-7(全生庵内)","lat":35.72413302,"lon":139.766875},{"name":"大久保主水墓","province":"","city":"","address":"谷中4-2-5(瑞輪寺内)","lat":35.72314316,"lon":139.767865},{"name":"鈴木春信碑","province":"","city":"","address":"谷中3-1-2(大円寺内)","lat":35.72464291,"lon":139.7657051},{"name":"蒲生君平墓","province":"","city":"","address":"谷中1-4-13(臨江寺内)","lat":35.72006336,"lon":139.7664151},{"name":"太宰春台墓","province":"","city":"","address":"谷中1-2-14(天眼寺内)","lat":35.71872351,"lon":139.7670951},{"name":"子規庵","province":"","city":"","address":"根岸2-5-11","lat":35.72448339,"lon":139.7763844},{"name":"葛飾北斎墓","province":"","city":"","address":"元浅草4-6-9(誓教寺内)","lat":35.70972485,"lon":139.7855144},{"name":"中村不折旧宅（書道博物館）","province":"","city":"","address":"根岸2-10-4","lat":35.72464337,"lon":139.7762944},{"name":"浄名院八万四千体地蔵","province":"","city":"","address":"上野桜木2-6-4(浄名院内)","lat":35.72238346,"lon":139.7734047},{"name":"入谷鬼子母神","province":"","city":"","address":"下谷1-12-16(真源寺内)","lat":35.71975389,"lon":139.782834},{"name":"小野照崎神社","province":"","city":"","address":"下谷2-13-14","lat":35.72200377,"lon":139.7836639},{"name":"飛不動","province":"","city":"","address":"竜泉3-11-11(正宝院内)","lat":35.72423348,"lon":139.7919428},{"name":"浅草寺","province":"","city":"","address":"浅草2-3-1","lat":35.71467453,"lon":139.7968231},{"name":"浅草神社","province":"","city":"","address":"浅草2-3-1","lat":35.71505453,"lon":139.797523},{"name":"伝法院","province":"","city":"","address":"浅草2-3-1(浅草寺境内)","lat":35.71329464,"lon":139.7953633},{"name":"玉川兄弟の墓","province":"","city":"","address":"松が谷2-3-3(聖徳寺内)","lat":35.71278457,"lon":139.7866941},{"name":"旧寛永寺五重塔","province":"","city":"","address":"上野公園(動物園内)","lat":35.71570398,"lon":139.7717649},{"name":"上野東照宮","province":"","city":"","address":"上野公園","lat":35.71531397,"lon":139.770695},{"name":"表慶館","province":"","city":"","address":"上野公園(博物館内)","lat":35.7187038,"lon":139.7752946},{"name":"清水観音堂","province":"","city":"","address":"上野公園","lat":35.71265429,"lon":139.7735549},{"name":"旧東京音楽学校奏楽堂","province":"","city":"","address":"上野公園","lat":35.71796381,"lon":139.7732448},{"name":"徳川慶喜墓","province":"","city":"","address":"谷中7(谷中墓地内)","lat":35.72340333,"lon":139.7719247},{"name":"西郷隆盛像","province":"","city":"","address":"上野公園","lat":35.71162439,"lon":139.7740049},{"name":"谷中天王寺五重塔跡","province":"","city":"","address":"谷中7(谷中墓地内)","lat":35.72519314,"lon":139.7708948},{"name":"不忍弁天堂","province":"","city":"","address":"上野公園","lat":35.71207427,"lon":139.7712751},{"name":"上野の大仏","province":"","city":"","address":"上野公園","lat":35.71444411,"lon":139.7727649},{"name":"北村季吟墓","province":"","city":"","address":"池之端2-4-22(正慶寺内)","lat":35.71413388,"lon":139.7660253},{"name":"下谷神社","province":"","city":"","address":"東上野3-29-8","lat":35.71074465,"lon":139.7812946},{"name":"雷門","province":"","city":"","address":"浅草1(浅草寺境内)","lat":35.71120485,"lon":139.7963834},{"name":"曹源寺(かっぱ寺)","province":"","city":"","address":"松が谷3-7-2","lat":35.71533434,"lon":139.786504},{"name":"東本願寺","province":"","city":"","address":"西浅草1-5-5","lat":35.7117147,"lon":139.7895539},{"name":"四季の香ローズガーデン","province":"東京都","city":"練馬区","address":"練馬区光が丘5-2-6(四季の香公園内)","lat":35.76072855,"lon":139.6263062},{"name":"石神井公園ふるさと文化館","province":"東京都","city":"練馬区","address":"練馬区石神井町5-12-16","lat":35.73761853,"lon":139.59946},{"name":"石神井公園ふるさと文化館分室","province":"東京都","city":"練馬区","address":"練馬区石神井台1-33-44","lat":35.73930834,"lon":139.5939328},{"name":"四季の香ローズガーデン","province":"東京都","city":"練馬区","address":"練馬区光が丘5-2-6(四季の香公園内)","lat":35.76072855,"lon":139.6263062},{"name":"石神井公園ふるさと文化館","province":"東京都","city":"練馬区","address":"練馬区石神井町5-12-16","lat":35.73761853,"lon":139.59946},{"name":"石神井公園ふるさと文化館分室","province":"東京都","city":"練馬区","address":"練馬区石神井台1-33-44","lat":35.73930834,"lon":139.5939328},{"name":"四季の香ローズガーデン","province":"東京都","city":"練馬区","address":"練馬区光が丘5-2-6(四季の香公園内)","lat":35.76072855,"lon":139.6263062},{"name":"石神井公園ふるさと文化館","province":"東京都","city":"練馬区","address":"練馬区石神井町5-12-16","lat":35.73761853,"lon":139.59946},{"name":"石神井公園ふるさと文化館分室","province":"東京都","city":"練馬区","address":"練馬区石神井台1-33-44","lat":35.73930834,"lon":139.5939328},{"name":"四季の香ローズガーデン","province":"東京都","city":"練馬区","address":"練馬区光が丘5-2-6(四季の香公園内)","lat":35.76072855,"lon":139.6263062},{"name":"石神井公園ふるさと文化館","province":"東京都","city":"練馬区","address":"練馬区石神井町5-12-16","lat":35.73761853,"lon":139.59946},{"name":"石神井公園ふるさと文化館分室","province":"東京都","city":"練馬区","address":"練馬区石神井台1-33-44","lat":35.73930834,"lon":139.5939328},{"name":"四季の香ローズガーデン","province":"東京都","city":"練馬区","address":"練馬区光が丘5-2-6(四季の香公園内)","lat":35.76072855,"lon":139.6263062},{"name":"石神井公園ふるさと文化館","province":"東京都","city":"練馬区","address":"練馬区石神井町5-12-16","lat":35.73761853,"lon":139.59946},{"name":"石神井公園ふるさと文化館分室","province":"東京都","city":"練馬区","address":"練馬区石神井台1-33-44","lat":35.73930834,"lon":139.5939328},{"name":"四季の香ローズガーデン","province":"東京都","city":"練馬区","address":"練馬区光が丘5-2-6(四季の香公園内)","lat":35.76072855,"lon":139.6263062},{"name":"石神井公園ふるさと文化館","province":"東京都","city":"練馬区","address":"練馬区石神井町5-12-16","lat":35.73761853,"lon":139.59946},{"name":"石神井公園ふるさと文化館分室","province":"東京都","city":"練馬区","address":"練馬区石神井台1-33-44","lat":35.73930834,"lon":139.5939328},{"name":"四季の香ローズガーデン","province":"東京都","city":"練馬区","address":"練馬区光が丘5-2-6(四季の香公園内)","lat":35.76072855,"lon":139.6263062},{"name":"石神井公園ふるさと文化館","province":"東京都","city":"練馬区","address":"練馬区石神井町5-12-16","lat":35.73761853,"lon":139.59946},{"name":"石神井公園ふるさと文化館分室","province":"東京都","city":"練馬区","address":"練馬区石神井台1-33-44","lat":35.73930834,"lon":139.5939328},{"name":"四季の香ローズガーデン","province":"東京都","city":"練馬区","address":"練馬区光が丘5-2-6(四季の香公園内)","lat":35.76072855,"lon":139.6263062},{"name":"石神井公園ふるさと文化館","province":"東京都","city":"練馬区","address":"練馬区石神井町5-12-16","lat":35.73761853,"lon":139.59946},{"name":"石神井公園ふるさと文化館分室","province":"東京都","city":"練馬区","address":"練馬区石神井台1-33-44","lat":35.73930834,"lon":139.5939328},{"name":"四季の香ローズガーデン","province":"東京都","city":"練馬区","address":"練馬区光が丘5-2-6(四季の香公園内)","lat":35.76072855,"lon":139.6263062},{"name":"石神井公園ふるさと文化館","province":"東京都","city":"練馬区","address":"練馬区石神井町5-12-16","lat":35.73761853,"lon":139.59946},{"name":"石神井公園ふるさと文化館分室","province":"東京都","city":"練馬区","address":"練馬区石神井台1-33-44","lat":35.73930834,"lon":139.5939328},{"name":"四季の香ローズガーデン","province":"東京都","city":"練馬区","address":"練馬区光が丘5-2-6(四季の香公園内)","lat":35.76072855,"lon":139.6263062},{"name":"石神井公園ふるさと文化館","province":"東京都","city":"練馬区","address":"練馬区石神井町5-12-16","lat":35.73761853,"lon":139.59946},{"name":"石神井公園ふるさと文化館分室","province":"東京都","city":"練馬区","address":"練馬区石神井台1-33-44","lat":35.73930834,"lon":139.5939328},{"name":"四季の香ローズガーデン","province":"東京都","city":"練馬区","address":"練馬区光が丘5-2-6(四季の香公園内)","lat":35.76072855,"lon":139.6263062},{"name":"石神井公園ふるさと文化館","province":"東京都","city":"練馬区","address":"練馬区石神井町5-12-16","lat":35.73761853,"lon":139.59946},{"name":"石神井公園ふるさと文化館分室","province":"東京都","city":"練馬区","address":"練馬区石神井台1-33-44","lat":35.73930834,"lon":139.5939328},{"name":"四季の香ローズガーデン","province":"東京都","city":"練馬区","address":"練馬区光が丘5-2-6(四季の香公園内)","lat":35.76072855,"lon":139.6263062},{"name":"石神井公園ふるさと文化館","province":"東京都","city":"練馬区","address":"練馬区石神井町5-12-16","lat":35.73761853,"lon":139.59946},{"name":"石神井公園ふるさと文化館分室","province":"東京都","city":"練馬区","address":"練馬区石神井台1-33-44","lat":35.73930834,"lon":139.5939328},{"name":"四季の香ローズガーデン","province":"東京都","city":"練馬区","address":"練馬区光が丘5-2-6(四季の香公園内)","lat":35.76072855,"lon":139.6263062},{"name":"石神井公園ふるさと文化館","province":"東京都","city":"練馬区","address":"練馬区石神井町5-12-16","lat":35.73761853,"lon":139.59946},{"name":"石神井公園ふるさと文化館分室","province":"東京都","city":"練馬区","address":"練馬区石神井台1-33-44","lat":35.73930834,"lon":139.5939328},{"name":"四季の香ローズガーデン","province":"東京都","city":"練馬区","address":"練馬区光が丘5-2-6(四季の香公園内)","lat":35.76072855,"lon":139.6263062},{"name":"石神井公園ふるさと文化館","province":"東京都","city":"練馬区","address":"練馬区石神井町5-12-16","lat":35.73761853,"lon":139.59946},{"name":"石神井公園ふるさと文化館分室","province":"東京都","city":"練馬区","address":"練馬区石神井台1-33-44","lat":35.73930834,"lon":139.5939328},{"name":"四季の香ローズガーデン","province":"東京都","city":"練馬区","address":"練馬区光が丘5-2-6(四季の香公園内)","lat":35.76072855,"lon":139.6263062},{"name":"石神井公園ふるさと文化館","province":"東京都","city":"練馬区","address":"練馬区石神井町5-12-16","lat":35.73761853,"lon":139.59946},{"name":"石神井公園ふるさと文化館分室","province":"東京都","city":"練馬区","address":"練馬区石神井台1-33-44","lat":35.73930834,"lon":139.5939328},{"name":"四季の香ローズガーデン","province":"東京都","city":"練馬区","address":"練馬区光が丘5-2-6(四季の香公園内)","lat":35.76072855,"lon":139.6263062},{"name":"石神井公園ふるさと文化館","province":"東京都","city":"練馬区","address":"練馬区石神井町5-12-16","lat":35.73761853,"lon":139.59946},{"name":"石神井公園ふるさと文化館分室","province":"東京都","city":"練馬区","address":"練馬区石神井台1-33-44","lat":35.73930834,"lon":139.5939328},{"name":"四季の香ローズガーデン","province":"東京都","city":"練馬区","address":"練馬区光が丘5-2-6(四季の香公園内)","lat":35.76072855,"lon":139.6263062},{"name":"四季の香ローズガーデン","province":"東京都","city":"練馬区","address":"練馬区光が丘5-2-6(四季の香公園内)","lat":35.76072855,"lon":139.6263062},{"name":"四季の香ローズガーデン","province":"東京都","city":"練馬区","address":"練馬区光が丘5-2-6(四季の香公園内)","lat":35.76072855,"lon":139.6263062},{"name":"四季の香ローズガーデン","province":"東京都","city":"練馬区","address":"練馬区光が丘5-2-6(四季の香公園内)","lat":35.76072855,"lon":139.6263062},{"name":"四季の香ローズガーデン","province":"東京都","city":"練馬区","address":"練馬区光が丘5-2-6(四季の香公園内)","lat":35.76072855,"lon":139.6263062},{"name":"四季の香ローズガーデン","province":"東京都","city":"練馬区","address":"練馬区光が丘5-2-6(四季の香公園内)","lat":35.76072855,"lon":139.6263062}]}