{"keyword":"路","data":[{"name":"関東地方整備局","province":"埼玉県","city":"さいたま市中央区","address":"埼玉県さいたま市中央区新都心2-1","lat":35.89116,"lon":139.6341},{"name":"東京国道事務所","province":"東京都","city":"千代田区","address":"千代田区九段南1-2-1","lat":35.694003,"lon":139.753634},{"name":"相武国道事務所","province":"東京都","city":"八王子市","address":"八王子市大和田町4-3-13","lat":35.66372,"lon":139.3554},{"name":"警視庁","province":"東京都","city":"千代田区","address":"千代田区霞が関2-1-1","lat":35.676841,"lon":139.752068},{"name":"第一建設事務所","province":"東京都","city":"中央区","address":"中央区明石町2-4","lat":35.66915,"lon":139.7777},{"name":"第二建設事務所","province":"東京都","city":"品川区","address":"品川区広町2-1-36","lat":35.608837,"lon":139.730242},{"name":"第三建設事務所","province":"東京都","city":"中野区","address":"中野区中野4-8-1","lat":35.707288,"lon":139.66381},{"name":"第四建設事務所","province":"東京都","city":"豊島区","address":"豊島区南大塚2-36-2","lat":35.729037,"lon":139.730329},{"name":"第五建設事務所（仮庁舎）","province":"東京都","city":"江東区","address":"江東区亀戸2-10-7","lat":35.70063,"lon":139.823},{"name":"第六建設事務所","province":"東京都","city":"足立区","address":"足立区千住東2-10-10","lat":35.74539,"lon":139.8081},{"name":"西多摩建設事務所","province":"東京都","city":"青梅市","address":"青梅市東青梅3-20-1","lat":35.7909,"lon":139.2776},{"name":"南多摩東部建設事務所","province":"東京都","city":"町田市","address":"町田市中町1-31-12","lat":35.54851,"lon":139.4485},{"name":"南多摩西部建設事務所","province":"東京都","city":"八王子市","address":"八王子市明神町3-19-2","lat":35.65639,"lon":139.3435},{"name":"北多摩南部建設事務所","province":"東京都","city":"府中市","address":"府中市緑町1-27-1","lat":35.6733,"lon":139.4846},{"name":"北多摩北部建設事務所","province":"東京都","city":"立川市","address":"立川市柴崎町2-15-19","lat":35.69497,"lon":139.4087},{"name":"八王子支社","province":"東京都","city":"八王子市","address":"八王子市宇津木町231","lat":35.67749,"lon":139.3437},{"name":"八王子保全・サービスセンター","province":"東京都","city":"八王子市","address":"八王子市宇津木町287-1","lat":35.67785,"lon":139.3459},{"name":"西東京管理局","province":"東京都","city":"千代田区","address":"千代田区平河町2-16-3","lat":35.67951,"lon":139.742},{"name":"西東京管理局新富分室","province":"東京都","city":"中央区","address":"中央区新富1-1-3","lat":35.67387,"lon":139.7729},{"name":"東東京管理局","province":"東京都","city":"中央区","address":"中央区日本橋箱崎町43-5","lat":35.68227,"lon":139.7891},{"name":"西東京管理局三宅坂分室","province":"東京都","city":"千代田区","address":"千代田区永田町1-8-2","lat":35.67919,"lon":139.7458},{"name":"東東京管理局木場分室","province":"東京都","city":"江東区","address":"江東区木場6-1-1","lat":35.66522,"lon":139.8059},{"name":"関東支社","province":"東京都","city":"台東区","address":"台東区北上野1-10-14","lat":35.71762,"lon":139.783},{"name":"東武鉄道（株）","province":"東京都","city":"墨田区","address":"墨田区押上2-18-12","lat":35.71238,"lon":139.8136},{"name":"東京急行電鉄（株）","province":"東京都","city":"渋谷区","address":"渋谷区南平台町5-6","lat":35.65497,"lon":139.6979},{"name":"京成電鉄（株）","province":"千葉県","city":"市川市","address":"市川市八幡3-3-1","lat":35.72359,"lon":139.9277},{"name":"京王電鉄（株）","province":"東京都","city":"多摩市","address":"多摩市関戸1-9-1","lat":35.65134,"lon":139.4482},{"name":"京浜急行電鉄（株）","province":"東京都","city":"港区","address":"港区高輪2-20-20","lat":35.63704,"lon":139.7395},{"name":"西武鉄道（株）","province":"埼玉県","city":"所沢市","address":"埼玉県所沢市くすのき台1-11-1","lat":35.78598,"lon":139.4748},{"name":"小田急電鉄（株）","province":"神奈川県","city":"","address":"神奈川県相模原市相模大野8-18-1","lat":35.53005,"lon":139.4356},{"name":"東京地下鉄（株）","province":"東京都","city":"台東区","address":"台東区東上野3-19-6","lat":35.71153,"lon":139.7779},{"name":"東京モノレール（株）","province":"東京都","city":"港区","address":"港区浜松町2-4-12","lat":35.65558,"lon":139.7568},{"name":"（株）ゆりかもめ","province":"東京都","city":"江東区","address":"江東区有明3-13-1","lat":35.626,"lon":139.7966},{"name":"多摩都市モノレール（株）","province":"東京都","city":"立川市","address":"立川市泉町1078-92","lat":35.71611,"lon":139.4094},{"name":"北総鉄道（株）","province":"千葉県","city":"鎌ヶ谷市","address":"千葉県鎌ヶ谷市新鎌ヶ谷4-2-3","lat":35.78054,"lon":140.0025},{"name":"東京臨海高速鉄道（株）","province":"東京都","city":"江東区","address":"江東区青海1-2-1","lat":35.62741,"lon":139.7786},{"name":"首都圏新都市鉄道（株）","province":"東京都","city":"台東区","address":"台東区台東4-25-7","lat":35.70697,"lon":139.7812},{"name":"東京空港事務所","province":"東京都","city":"大田区","address":"大田区羽田空港3-3-1","lat":35.5537,"lon":139.7822},{"name":"東京都調布飛行場管理事務所","province":"東京都","city":"調布市","address":"調布市西町290-3","lat":35.668886,"lon":139.530212},{"name":"東京港管理事務所ヘリポート係","province":"東京都","city":"江東区","address":"江東区新木場4-7-28","lat":35.63474,"lon":139.8382},{"name":"東京港管理事務所","province":"東京都","city":"港区","address":"港区港南3-9-56","lat":35.63345,"lon":139.7513},{"name":"東京港建設事務所","province":"東京都","city":"港区","address":"港区港南3-9-56","lat":35.63345,"lon":139.7513},{"name":"高潮対策センター","province":"東京都","city":"江東区","address":"江東区辰巳1-1-33","lat":35.64805,"lon":139.8078},{"name":"東京港湾事務所","province":"東京都","city":"江東区","address":"江東区新木場1-6-25","lat":35.645,"lon":139.828},{"name":"荒川下流河川事務所","province":"東京都","city":"北区","address":"北区志茂5-41-1","lat":35.78559,"lon":139.7301},{"name":"江東治水事務所（仮庁舎）※都建設事務所に含む","province":"東京都","city":"江東区","address":"江東区亀戸2-10-7","lat":35.70063,"lon":139.823},{"name":"水門管理センター","province":"東京都","city":"江東区","address":"江東区清澄1-2-37","lat":35.6804,"lon":139.7926}]}