{"keyword":"葬儀","data":[{"name":"有限会社　市民葬祭センター","province":"東京都","city":"東久留米市","address":"東京都東久留米市東本町4-6","lat":35.7626027,"lon":139.53419939},{"name":"有限会社　小平典礼　東久留米支社","province":"東京都","city":"東久留米市","address":"東京都東久留米市滝山3丁目11-6","lat":35.74065177,"lon":139.50463613},{"name":"株式会社　コムウェル　小平営業所","province":"東京都","city":"東久留米市","address":"東京都東久留米市柳窪4丁目7-9","lat":35.74611182,"lon":139.48739857},{"name":"株式会社　奥野式典","province":"東京都","city":"東久留米市","address":"東京都東久留米市滝山4丁目1-40","lat":35.74466523,"lon":139.50567754},{"name":"有限会社　緑葬儀社　東久留米支店","province":"東京都","city":"東久留米市","address":"東京都東久留米市本町2丁目1-2","lat":35.76228045,"lon":139.53175239},{"name":"すずらん（株式会社　アイコス）","province":"東京都","city":"東久留米市","address":"東京都東久留米市下里3丁目5-9","lat":35.75130046,"lon":139.50049165},{"name":"有限会社　藤式典　東久留米店","province":"東京都","city":"東久留米市","address":"東京都東久留米市幸町4丁目4-1","lat":35.75557535,"lon":139.51599011},{"name":"有限会社　ウィズセレモニー","province":"東京都","city":"東久留米市","address":"東京都東久留米市東本町12-3","lat":35.76429974,"lon":139.53547979},{"name":"田中葬祭　株式会社　東久留米支店","province":"東京都","city":"東久留米市","address":"東京都東久留米市本町3丁目6-9","lat":35.75947237,"lon":139.52759451},{"name":"（株）愛礼儀典","province":"東京都","city":"八王子市","address":"東京都八王子市楢原町1042","lat":35.68145096,"lon":139.30872197},{"name":"（株）愛和セレモニー","province":"東京都","city":"八王子市","address":"東京都八王子市千人町4丁目2-23","lat":35.65598713,"lon":139.30902557},{"name":"アットホームなお葬式","province":"東京都","city":"八王子市","address":"東京都八王子市大和田町6丁目10-26","lat":35.66341231,"lon":139.34859969},{"name":"（株）伊藤祐次商店","province":"東京都","city":"八王子市","address":"東京都八王子市八幡町13-8","lat":35.66062877,"lon":139.32752939},{"name":"(株)追分葬儀社","province":"東京都","city":"八王子市","address":"東京都八王子市追分町8-10","lat":35.66061742,"lon":139.31834685},{"name":"おぐら葬祭・（株）アットイーズ","province":"東京都","city":"八王子市","address":"東京都八王子市高尾町1599","lat":35.64431564,"lon":139.28310602},{"name":"（株）雅邦","province":"東京都","city":"八王子市","address":"東京都八王子市川口町1690-53","lat":35.68914129,"lon":139.29450338},{"name":"キクヤセレモニー","province":"東京都","city":"八王子市","address":"東京都八王子市寺町39","lat":35.65612112,"lon":139.33360958},{"name":"煌ハートセレモニー","province":"東京都","city":"八王子市","address":"東京都八王子市川口町1905-8","lat":35.69106313,"lon":139.2907314},{"name":"（株）くらしの友","province":"東京都","city":"八王子市","address":"東京都八王子市北野町538-21","lat":35.64703928,"lon":139.35210547},{"name":"京王メモリアル北野","province":"東京都","city":"八王子市","address":"東京都八王子市打越町331-1","lat":35.64400078,"lon":139.35396374},{"name":"（株）サン・ライフ","province":"東京都","city":"八王子市","address":"東京都八王子市大和田町6丁目2-9","lat":35.66424547,"lon":139.34497497},{"name":"（株）セレモア八王子本社","province":"東京都","city":"八王子市","address":"東京都八王子市大横町13-20","lat":35.66290077,"lon":139.32879031},{"name":"セレモハイネス(株）","province":"東京都","city":"八王子市","address":"東京都八王子市山田町1688-4","lat":35.64050017,"lon":139.31601442},{"name":"千の風　八王子斎場","province":"東京都","city":"八王子市","address":"東京都八王子市椚田町535-15","lat":35.63859475,"lon":139.31153156},{"name":"葬儀支援サービス・（株）三峰","province":"東京都","city":"八王子市","address":"東京都八王子市大船町153-46","lat":35.62624359,"lon":139.31234867},{"name":"（株）葬儀の大地","province":"東京都","city":"八王子市","address":"東京都八王子市散田町4丁目15-6","lat":35.65248193,"lon":139.30783691},{"name":"たくみ葬祭","province":"東京都","city":"八王子市","address":"東京都八王子市中野上町1丁目2-8","lat":35.66781694,"lon":139.33080942},{"name":"多摩福祉葬祭","province":"東京都","city":"八王子市","address":"東京都八王子市大塚1687-3","lat":35.63379505,"lon":139.41619514},{"name":"東花堂","province":"東京都","city":"八王子市","address":"東京都八王子市中山446","lat":35.62826944,"lon":139.36423844},{"name":"（株）トレセレ","province":"東京都","city":"八王子市","address":"東京都八王子市鑓水2020-1","lat":35.61522366,"lon":139.35550922},{"name":"（株）ドリーミー","province":"東京都","city":"八王子市","address":"東京都八王子市長沼町854-3","lat":35.6424206,"lon":139.36414902},{"name":"（有）西東京葬祭","province":"東京都","city":"八王子市","address":"東京都八王子市楢原町1473","lat":35.68226455,"lon":139.30139754},{"name":"（株）富士白蓮社","province":"東京都","city":"八王子市","address":"東京都八王子市梅坪町62-1","lat":35.68749543,"lon":139.33830812},{"name":"（株）Plants（プランツ）","province":"東京都","city":"八王子市","address":"東京都八王子市千人町3丁目12-5","lat":35.65808963,"lon":139.30706458},{"name":"マインドセレモニー","province":"東京都","city":"八王子市","address":"東京都八王子市元本郷町1丁目27-10","lat":35.66531147,"lon":139.32316293},{"name":"（株）溝口祭典","province":"東京都","city":"八王子市","address":"東京都八王子市元横山町2丁目14-19","lat":35.66171777,"lon":139.33625916},{"name":"（株）都典礼","province":"東京都","city":"八王子市","address":"東京都八王子市打越町1364-1","lat":35.64413402,"lon":139.34996409},{"name":"メモアールまちだ・（有）町田商店","province":"東京都","city":"八王子市","address":"東京都八王子市天神町14","lat":35.65762922,"lon":139.33169025},{"name":"メモリーサポート","province":"東京都","city":"八王子市","address":"東京都八王子市下柚木1941-9","lat":35.63261896,"lon":139.36587146},{"name":"有限会社　鈴木商店","province":"東京都","city":"文京区","address":"東京都文京区小石川1丁目22-8","lat":35.71478886,"lon":139.75101348},{"name":"有限会社　矢口葬祭","province":"東京都","city":"文京区","address":"東京都文京区大塚5丁目18-1","lat":35.72120703,"lon":139.72992901},{"name":"有限会社　神谷商店","province":"東京都","city":"文京区","address":"東京都文京区根津2丁目20-4","lat":35.71886949,"lon":139.76449023},{"name":"本郷金子商店　株式会社","province":"東京都","city":"文京区","address":"東京都文京区本郷2丁目14-9","lat":35.70450689,"lon":139.76079368},{"name":"磯辺葬儀社","province":"東京都","city":"文京区","address":"東京都文京区目白台2丁目9-6","lat":35.71664613,"lon":139.71887734},{"name":"株式会社　杉元","province":"東京都","city":"文京区","address":"東京都文京区本郷4丁目34-17","lat":35.70900075,"lon":139.75771586},{"name":"（有）大坪葬儀社","province":"東京都","city":"江東区","address":"東京都江東区亀戸4丁目34-2","lat":35.7025079,"lon":139.82707782},{"name":"（株）大平セレモニーハート","province":"東京都","city":"江東区","address":"東京都江東区大島1丁目21-6","lat":35.68671565,"lon":139.82503662},{"name":"（株）落合商店","province":"東京都","city":"江東区","address":"東京都江東区毛利1丁目18-9","lat":35.69188138,"lon":139.81523806},{"name":"（有）木村商店","province":"東京都","city":"江東区","address":"東京都江東区白河1丁目1-3","lat":35.68109392,"lon":139.79910738},{"name":"（有）かねなお鈴木商店","province":"東京都","city":"江東区","address":"東京都江東区北砂1丁目14-7","lat":35.67947212,"lon":139.8239007},{"name":"亀戸駅前式場　北辰舎","province":"東京都","city":"江東区","address":"東京都江東区亀戸6丁目28-4","lat":35.69640888,"lon":139.82710552},{"name":"丸本渡辺葬儀社","province":"東京都","city":"江東区","address":"東京都江東区扇橋2丁目12-5","lat":35.68378808,"lon":139.81589637},{"name":"（有）淀野商店","province":"東京都","city":"江東区","address":"東京都江東区白河1丁目1-11","lat":35.68080505,"lon":139.7993684},{"name":"(株)あさの","province":"東京都","city":"三鷹市","address":"東京都三鷹市井の頭2-8-2","lat":35.69087213,"lon":139.5871695},{"name":"東葬祭","province":"東京都","city":"三鷹市","address":"東京都三鷹市上連雀2-5-15","lat":35.69845921,"lon":139.5588899},{"name":"永 塚 葬 儀 社","province":"東京都","city":"三鷹市","address":"東京都三鷹市下連雀3-15-15","lat":35.70170535,"lon":139.5623266},{"name":"日典","province":"東京都","city":"三鷹市","address":"東京都三鷹市野崎2-5-5","lat":35.68333439,"lon":139.5491371},{"name":"(株)セレモア","province":"東京都","city":"三鷹市","address":"東京都三鷹市新川5-16-10","lat":35.67602549,"lon":139.5677882},{"name":"東京むさし農業協同組合メモリアルセンター","province":"東京都","city":"三鷹市","address":"東京都三鷹市新川6-35-26","lat":35.6831526,"lon":139.5632417},{"name":"奥野式典","province":"東京都","city":"三鷹市","address":"東京都三鷹市野崎2-20-12","lat":35.68348742,"lon":139.5452849},{"name":"(株)メモリード","province":"東京都","city":"三鷹市","address":"東京都三鷹市下連雀9-3-23","lat":35.68371495,"lon":139.5616056},{"name":"JA全農東京JA東京葬祭センター（源想園昭島葬儀会館）","province":"東京都","city":"昭島市","address":"東京都昭島市中神町3丁目1-1","lat":35.6966812,"lon":139.37542966},{"name":"株式会社セレモア（ガーデン会館昭島）","province":"東京都","city":"昭島市","address":"東京都昭島市玉川町2丁目4-12","lat":35.70655788,"lon":139.37958173},{"name":"株式会社ドリーミー","province":"東京都","city":"昭島市","address":"東京都昭島市田中町1丁目27-15","lat":35.7054492,"lon":139.35437846},{"name":"株式会社あさひセレモニー","province":"東京都","city":"昭島市","address":"東京都昭島市玉川町4丁目1-10","lat":35.70555248,"lon":139.38102051},{"name":"株式会社東京サービスセンター（セレモニーホール昭島）","province":"東京都","city":"昭島市","address":"東京都昭島市宮沢町1丁目7-2","lat":35.70616044,"lon":139.36649129},{"name":"株式会社クオーレ","province":"東京都","city":"立川市","address":"東京都立川市一番町1丁目41-11","lat":35.72505585,"lon":139.3829477},{"name":"株式会社村尾組（そうしんホール昭島）","province":"東京都","city":"昭島市","address":"東京都昭島市武蔵野3丁目5-1","lat":35.71971183,"lon":139.37585683},{"name":"株式会社結セレモニー（くじら葬祭）","province":"東京都","city":"昭島市","address":"東京都昭島市福島町3丁目23-28","lat":35.69637846,"lon":139.37589906},{"name":"株式会社セレモア","province":"東京都","city":"国立市","address":"東京都国立市谷保5115","lat":35.67971558,"lon":139.446777},{"name":"多摩中央葬祭株式会社","province":"東京都","city":"立川市","address":"東京都立川市錦町4丁目8-3","lat":35.69109684,"lon":139.42126488},{"name":"社会福祉法人東京福祉会","province":"東京都","city":"国立市","address":"東京都国立市谷保892-1","lat":35.67613812,"lon":139.44407181},{"name":"株式会社愛礼儀典","province":"東京都","city":"府中市","address":"東京都府中市西府町5丁目6-6","lat":35.67776871,"lon":139.45120446},{"name":"形如式典有限会社","province":"東京都","city":"国立市","address":"東京都国立市谷保6丁目21-28","lat":35.67502432,"lon":139.44278585},{"name":"株式会社セレケア","province":"東京都","city":"国立市","address":"東京都国立市東2丁目12-6","lat":35.69418353,"lon":139.45221211},{"name":"SOGIサポートセンターLinMCGroup株式会社","province":"東京都","city":"調布市","address":"東京都調布市多摩川2丁目3-12","lat":35.64803332,"lon":139.52358352},{"name":"青雲セレモニー","province":"東京都","city":"国分寺市","address":"東京都国分寺市光町3丁目27-41","lat":35.7068234,"lon":139.44014607},{"name":"株式会社富士の華","province":"東京都","city":"中野区","address":"東京都中野区野方1丁目38-13","lat":35.709609,"lon":139.65527204},{"name":"有限会社成田屋","province":"東京都","city":"立川市","address":"東京都立川市羽衣町3丁目15-9","lat":35.68945263,"lon":139.42287593},{"name":"株式会社セレサポート","province":"東京都","city":"福生市","address":"東京都福生市武蔵野台2丁目25-5","lat":35.74972941,"lon":139.32824293},{"name":"株式会社丸勝葬祭","province":"東京都","city":"八王子市","address":"東京都八王子市元八王子町3丁目2232","lat":35.65491687,"lon":139.27515906},{"name":"フューネラルジャパン株式会社","province":"東京都","city":"品川区","address":"東京都品川区大井1丁目53-7","lat":35.60456746,"lon":139.73380519},{"name":"株式会社としまフューネス","province":"東京都","city":"多摩市","address":"東京都多摩市永山1丁目17-11","lat":35.63153767,"lon":139.44278463},{"name":"聖和葬儀社","province":"東京都","city":"府中市","address":"東京都府中市住吉町3丁目21-4","lat":35.66368712,"lon":139.45676278},{"name":"株式会社セレモの森","province":"東京都","city":"小金井市","address":"東京都小金井市本町2丁目19-21","lat":35.70550591,"lon":139.50886795},{"name":"ひのでセレモニー","province":"東京都","city":"小平市","address":"東京都小平市栄町2丁目29-11","lat":35.7336955,"lon":139.45121901},{"name":"そうしんホール昭島","province":"東京都","city":"昭島市","address":"東京都昭島市武蔵野3丁目5-1","lat":35.71971183,"lon":139.37585683},{"name":"花＊家族葬ワイズワークス","province":"東京都","city":"国立市","address":"東京都国立市東1丁目6-2","lat":35.69758859,"lon":139.4477485},{"name":"セレーザ合同会社","province":"東京都","city":"国立市","address":"東京都国立市東2丁目9-3","lat":35.69432795,"lon":139.45174827},{"name":"株式会社おぼうさんどっとこむ","province":"東京都","city":"昭島市","address":"東京都昭島市中神町1135-47","lat":35.71175989,"lon":139.37259061},{"name":"株式会社ハートフル葬祭","province":"東京都","city":"立川市","address":"東京都立川市若葉町1丁目3-27","lat":35.72089929,"lon":139.43267959},{"name":"株式会社青葉葬儀社","province":"東京都","city":"府中市","address":"東京都府中市晴見町1丁目15-20","lat":35.68048574,"lon":139.47838816},{"name":"株式会社ワイズセレモニー","province":"東京都","city":"立川市","address":"東京都立川市曙町3丁目11-20","lat":35.70087375,"lon":139.42909999},{"name":"ファミリー葬祭・府中","province":"東京都","city":"府中市","address":"東京都府中市栄町1丁目11-26","lat":35.68869046,"lon":139.48334298},{"name":"合縁","province":"東京都","city":"東大和市","address":"東京都東大和市清原3丁目1-21","lat":35.74138622,"lon":139.45006601},{"name":"アートビジュアル","province":"東京都","city":"小金井市","address":"東京都小金井市貫井南町4丁目12-37","lat":35.6951233,"lon":139.4930669},{"name":"京王フェアウェルサポート株式会社","province":"東京都","city":"多摩市","address":"東京都多摩市関戸1丁目9-1","lat":35.65133548,"lon":139.44824454},{"name":"有限会社谺企画","province":"東京都","city":"国分寺市","address":"東京都国分寺市北町2丁目24-2","lat":35.71707249,"lon":139.45122526},{"name":"株式会社エムエスジー葬儀の正行","province":"東京都","city":"小平市","address":"東京都小平市学園東町2丁目4-22","lat":35.72311438,"lon":139.48558585},{"name":"葬儀の心和堂","province":"東京都","city":"国分寺市","address":"東京都国分寺市富士本1丁目21-3","lat":35.7027131,"lon":139.45126188},{"name":"街の葬儀屋さん株式会社アーネスト","province":"東京都","city":"府中市","address":"東京都府中市住吉町1丁目44-1","lat":35.6606597,"lon":139.45828497},{"name":"株式会社みよし","province":"東京都","city":"国分寺市","address":"東京都国分寺市東元町4丁目1-37","lat":35.69072905,"lon":139.48027371},{"name":"照屋興業有限会社","province":"東京都","city":"清瀬市","address":"東京都清瀬市松山3丁目18-3","lat":35.76794612,"lon":139.51600089},{"name":"株式会社まごころ","province":"東京都","city":"小金井市","address":"東京都小金井市前原町4丁目17-6","lat":35.68980753,"lon":139.50422729},{"name":"株式会社　AZUMA","province":"東京都","city":"三鷹市","address":"東京都三鷹市上連雀2丁目5-15","lat":35.69835788,"lon":139.55886948},{"name":"有限会社　小平典礼","province":"東京都","city":"小平市","address":"東京都小平市花小金井8丁目1-2","lat":35.73079452,"lon":139.5032617},{"name":"有限会社　藤式典","province":"東京都","city":"西東京市","address":"東京都西東京市ひばりが丘北4丁目1-6","lat":35.75254294,"lon":139.54391288},{"name":"田中葬祭　株式会社","province":"東京都","city":"西東京市","address":"東京都西東京市田無町4丁目18-9","lat":35.72988431,"lon":139.53613666},{"name":"有限会社　緑葬儀社","province":"東京都","city":"西東京市","address":"東京都西東京市田無町5丁目7-51","lat":35.73038153,"lon":139.53829757},{"name":"株式会社　あさひセレモニー","province":"東京都","city":"西東京市","address":"東京都西東京市住吉町6丁目1-18","lat":35.74367749,"lon":139.55134593},{"name":"株式会社　ドリーミー","province":"東京都","city":"西東京市","address":"東京都西東京市芝久保町5丁目10-12","lat":35.73285309,"lon":139.52324035},{"name":"有限会社　蓮華","province":"東京都","city":"西東京市","address":"東京都西東京市芝久保町3丁目15-29","lat":35.73005896,"lon":139.52239058},{"name":"株式会社　コムウェル","province":"東京都","city":"西東京市","address":"東京都西東京市柳沢6丁目10-7","lat":35.72708495,"lon":139.55010785},{"name":"株式会社　東京都民葬祭（とみん葬祭）","province":"東京都","city":"西東京市","address":"東京都西東京市北原町3丁目5-19","lat":35.7359532,"lon":139.54290248},{"name":"有限会社　東京フラワーセレモニー","province":"東京都","city":"小金井市","address":"東京都小金井市東町4丁目3-3","lat":35.69449372,"lon":139.52695578},{"name":"株式会社　セレモア","province":"東京都","city":"立川市","address":"東京都立川市柏町1丁目26-4","lat":35.72092378,"lon":139.41187015},{"name":"株式会社　愛香","province":"東京都","city":"武蔵野市","address":"東京都武蔵野市西久保3丁目12-9","lat":35.71326453,"lon":139.56029093},{"name":"株式会社 セレモア","province":"東京都","city":"立川市","address":"東京都立川市柏町1丁目26-4","lat":35.72092378,"lon":139.41187015},{"name":"株式会社 あんしん葬祭","province":"東京都","city":"東大和市","address":"東京都東大和市南街2丁目1-4","lat":35.74206621,"lon":139.43043702},{"name":"有限会社 成華園","province":"東京都","city":"武蔵村山市","address":"東京都武蔵村山市学園3丁目61-5","lat":35.74423764,"lon":139.40527261},{"name":"JA東京葬祭センター","province":"東京都","city":"昭島市","address":"東京都昭島市中神町3丁目1-1","lat":35.6966812,"lon":139.37542966},{"name":"有限会社  アヤノセレモニー","province":"東京都","city":"武蔵村山市","address":"東京都武蔵村山市学園5丁目15-14","lat":35.74475949,"lon":139.39270994},{"name":"有限会社 成田屋","province":"東京都","city":"立川市","address":"東京都立川市羽衣町3丁目15-9","lat":35.68945263,"lon":139.42287593},{"name":"株式会社 あさひセレモニー","province":"東京都","city":"立川市","address":"東京都立川市栄町6丁目1-13","lat":35.71380545,"lon":139.423475},{"name":"合同会社 大南葬祭","province":"東京都","city":"武蔵村山市","address":"東京都武蔵村山市大南5丁目70-1","lat":35.74057152,"lon":139.41082221},{"name":"株式会社 セレモの森","province":"東京都","city":"武蔵村山市","address":"東京都武蔵村山市大南3丁目97-2","lat":35.73523306,"lon":139.402976},{"name":"株式会社 ドリーミー","province":"東京都","city":"立川市","address":"東京都立川市富士見町6丁目36-27","lat":35.6929236,"lon":139.38921191},{"name":"株式会社 多摩祭典","province":"東京都","city":"福生市","address":"東京都福生市福生（大字）2350","lat":35.73898372,"lon":139.33776209},{"name":"株式会社 セレサポート","province":"東京都","city":"福生市","address":"東京都福生市武蔵野台2丁目25-5","lat":35.74972941,"lon":139.32824293},{"name":"有限会社 アヴィル 市民葬祭センター","province":"東京都","city":"武蔵村山市","address":"東京都武蔵村山市大南4丁目61-9","lat":35.73485551,"lon":139.41111687},{"name":"株式会社 むらやま葬祭","province":"東京都","city":"武蔵村山市","address":"東京都武蔵村山市大南1丁目2-1","lat":35.74221812,"lon":139.39303223},{"name":"株式会社 トータルプラン","province":"東京都","city":"武蔵村山市","address":"東京都武蔵村山市大南1丁目168-1","lat":35.73481073,"lon":139.39657665},{"name":"有限会社荒田葬儀社","province":"東京都","city":"清瀬市","address":"東京都清瀬市野塩4丁目79","lat":35.77432287,"lon":139.5053351},{"name":"株式会社AZUMA　東葬祭","province":"東京都","city":"清瀬市","address":"東京都清瀬市松山2丁目14-10","lat":35.77252049,"lon":139.51297887},{"name":"有限会社セレモサービス","province":"東京都","city":"清瀬市","address":"東京都清瀬市下清戸2丁目559-8","lat":35.78764126,"lon":139.53340464},{"name":"株式会社三愛メモリアル東京店","province":"東京都","city":"清瀬市","address":"東京都清瀬市元町1丁目7-5","lat":35.77446205,"lon":139.51841445},{"name":"株式会社彩花","province":"東京都","city":"清瀬市","address":"東京都清瀬市松山2丁目6-45","lat":35.77259557,"lon":139.51690627},{"name":"株式会社沖田ダイイチ","province":"東京都","city":"狛江市","address":"東京都狛江市東和泉1丁目10-3","lat":35.63258862,"lon":139.58019263},{"name":"株式会社有山葬儀社","province":"東京都","city":"狛江市","address":"東京都狛江市岩戸北3丁目1-10","lat":35.63426333,"lon":139.58114792},{"name":"有限会社まこと式典東京支店","province":"東京都","city":"狛江市","address":"東京都狛江市東和泉1丁目12-6","lat":35.63261082,"lon":139.57945659},{"name":"JAマインズ メモリア","province":"東京都","city":"府中市","address":"東京都府中市白糸台1丁目14-14","lat":35.66874057,"lon":139.50796937},{"name":"いしかわ葬儀社","province":"東京都","city":"狛江市","address":"東京都狛江市東和泉3丁目5-8","lat":35.6268508,"lon":139.57448556},{"name":"愛和セレモニー","province":"東京都","city":"福生市","address":"東京都福生市熊川（大字）888","lat":35.72984032,"lon":139.33577366},{"name":"有限会社島田屋","province":"東京都","city":"福生市","address":"東京都福生市本町134","lat":35.7410471,"lon":139.32819327},{"name":"株式会社セレモア","province":"東京都","city":"福生市","address":"東京都福生市熊川（大字）1311","lat":35.72801848,"lon":139.34267597},{"name":"セレモニーホール福生","province":"東京都","city":"福生市","address":"東京都福生市加美平1丁目19-5","lat":35.74983486,"lon":139.32494595},{"name":"ファミリアホール創友社","province":"東京都","city":"福生市","address":"東京都福生市福生（大字）1983-40","lat":35.74859646,"lon":139.33708673},{"name":"株式会社多摩祭典","province":"東京都","city":"福生市","address":"東京都福生市福生（大字）2350","lat":35.73898372,"lon":139.33776209},{"name":"JAにしたま葬祭センター","province":"東京都","city":"福生市","address":"東京都福生市本町16","lat":35.73854461,"lon":139.32766007},{"name":"そうしんフレールホール福生","province":"東京都","city":"福生市","address":"東京都福生市南田園2丁目15-3","lat":35.72696557,"lon":139.33109909},{"name":"葬儀・終活相談センターフィーネ","province":"東京都","city":"福生市","address":"東京都福生市加美平2丁目3-2","lat":35.74649082,"lon":139.32587934},{"name":"長坂式典センター","province":"東京都","city":"東村山市","address":"東京都東村山市本町2丁目19-36","lat":35.75973473,"lon":139.46753035},{"name":"ベルホール三光商会","province":"東京都","city":"東村山市","address":"東京都東村山市恩多町2丁目41-3","lat":35.74664228,"lon":139.48623476},{"name":"メモリアルアートの大野屋","province":"東京都","city":"東村山市","address":"東京都東村山市萩山町1丁目19-2","lat":35.73911534,"lon":139.48567125},{"name":"愛和葬祭","province":"東京都","city":"東村山市","address":"東京都東村山市秋津町3丁目5-8","lat":35.77351681,"lon":139.47999277},{"name":"しんせいどう","province":"東京都","city":"東村山市","address":"東京都東村山市青葉町2丁目1-63","lat":35.76059629,"lon":139.48833404},{"name":"彩花","province":"東京都","city":"東村山市","address":"東京都東村山市青葉町2丁目28-5","lat":35.7628517,"lon":139.49251419},{"name":"東都式典","province":"東京都","city":"日野市","address":"東京都日野市多摩平5丁目8-1","lat":35.67018984,"lon":139.37533055},{"name":"マハヤナ協会","province":"東京都","city":"日野市","address":"東京都日野市日野本町2丁目13-11","lat":35.67784776,"lon":139.39786173},{"name":"都典礼","province":"東京都","city":"日野市","address":"東京都日野市日野（大字）377-11","lat":35.67198745,"lon":139.40288652},{"name":"セレモハイネス","province":"東京都","city":"日野市","address":"東京都日野市旭が丘2丁目12-7","lat":35.66024094,"lon":139.37303103},{"name":"セレモニー小峰","province":"東京都","city":"日野市","address":"東京都日野市程久保8丁目2-9","lat":35.65189547,"lon":139.40807845},{"name":"三和式典","province":"東京都","city":"日野市","address":"東京都日野市栄町5丁目6-2","lat":35.68492162,"lon":139.38323495},{"name":"JA東京みなみ（日野支店）","province":"東京都","city":"日野市","address":"東京都日野市三沢3丁目53-15","lat":35.65907259,"lon":139.41413049},{"name":"JA東京みなみ（セレモニーセンター）","province":"東京都","city":"稲城市","address":"東京都稲城市東長沼1915-2","lat":35.63968377,"lon":139.5006635},{"name":"西東京葬研","province":"東京都","city":"日野市","address":"東京都日野市南平3丁目11-19","lat":35.65925002,"lon":139.4019509},{"name":"葬援（日野市 葬儀相談センター）","province":"東京都","city":"日野市","address":"東京都日野市東豊田4丁目17-3","lat":35.66308262,"lon":139.38957679},{"name":"いちょう葬縁","province":"東京都","city":"日野市","address":"東京都日野市程久保8丁目49-3","lat":35.65026501,"lon":139.40499263},{"name":"サン・ライフ ファミリーホール日野","province":"東京都","city":"日野市","address":"東京都日野市多摩平6丁目17-11","lat":35.66818186,"lon":139.38183561},{"name":"日野セレモニー","province":"東京都","city":"日野市","address":"東京都日野市大坂上2丁目5-7","lat":35.67537839,"lon":139.38834874},{"name":"有限会社小平典礼","province":"東京都","city":"小平市","address":"東京都小平市花小金井8丁目1-2","lat":35.73079452,"lon":139.5032617},{"name":"株式会社京典","province":"東京都","city":"小平市","address":"東京都小平市小川西町4丁目33-20","lat":35.73925633,"lon":139.46327602},{"name":"有限会社岩手屋商事","province":"東京都","city":"小平市","address":"東京都小平市学園西町1丁目20-7","lat":35.72013401,"lon":139.48013645},{"name":"東京むさし農業協同組合","province":"東京都","city":"小金井市","address":"東京都小金井市貫井北町1丁目10-1","lat":35.70175882,"lon":139.49866339},{"name":"小金井祭典株式会社","province":"東京都","city":"小金井市","address":"東京都小金井市本町5丁目32-19","lat":35.7047641,"lon":139.50109085},{"name":"株式会社セレモの森","province":"東京都","city":"小金井市","address":"東京都小金井市本町2丁目19-21","lat":35.70550591,"lon":139.50886795},{"name":"有限会社東京フラワーセレモニー","province":"東京都","city":"小金井市","address":"東京都小金井市東町4丁目3-3","lat":35.69449372,"lon":139.52695578},{"name":"花会","province":"東京都","city":"小金井市","address":"東京都小金井市貫井南町1丁目16-17","lat":35.69047939,"lon":139.49344761},{"name":"株式会社三和式典","province":"東京都","city":"小金井市","address":"東京都小金井市本町5丁目8-3","lat":35.70139509,"lon":139.50278528},{"name":"株式会社セレモニーわかば","province":"東京都","city":"小金井市","address":"東京都小金井市貫井北町1丁目23-33","lat":35.70361688,"lon":139.49678291},{"name":"株式会社セレモ","province":"東京都","city":"小金井市","address":"東京都小金井市緑町2丁目4-1","lat":35.70500902,"lon":139.5183422},{"name":"多摩式典株式会社","province":"東京都","city":"小金井市","address":"東京都小金井市中町4丁目4-8","lat":35.69551249,"lon":139.50580472},{"name":"㈲和田葬儀社","province":"東京都","city":"調布市","address":"東京都調布市下石原1丁目60-2","lat":35.65478214,"lon":139.53833695},{"name":"㈱メモリード(ﾒﾓﾘｰﾄﾞﾎｰﾙ)","province":"東京都","city":"調布市","address":"東京都調布市菊野台1丁目10-2","lat":35.65449637,"lon":139.5649622},{"name":"㈲まこと式典","province":"神奈川県","city":"川崎市麻生区","address":"神奈川県川崎市麻生区片平6丁目1-15","lat":35.59494187,"lon":139.49086198},{"name":"㈱公益社","province":"東京都","city":"調布市","address":"東京都調布市仙川町3丁目1-3","lat":35.66295407,"lon":139.58419625},{"name":"京王フェアウェルサポート㈱（京王メモリアル）","province":"東京都","city":"調布市","address":"東京都調布市布田2丁目34-6","lat":35.65131595,"lon":139.54681677},{"name":"（株）金子式典","province":"東京都","city":"府中市","address":"東京都府中市片町2丁目3-1","lat":35.67019511,"lon":139.47306396},{"name":"（有）和田葬儀社","province":"東京都","city":"調布市","address":"東京都調布市下石原1丁目60-2","lat":35.65478214,"lon":139.53833695},{"name":"（有）光陽祭典","province":"東京都","city":"稲城市","address":"東京都稲城市平尾2丁目2-5","lat":35.61070026,"lon":139.49406639},{"name":"（有）まこと式典","province":"神奈川県","city":"川崎市麻生区","address":"神奈川県川崎市麻生区片平6丁目1-15","lat":35.59494187,"lon":139.49086198},{"name":"（株）三和式典","province":"東京都","city":"稲城市","address":"東京都稲城市大丸1420-1","lat":35.64798692,"lon":139.48684136},{"name":"（株）愛礼儀典","province":"東京都","city":"府中市","address":"東京都府中市西府町5丁目6-6","lat":35.67776871,"lon":139.45120446},{"name":"東都式典（有）","province":"東京都","city":"日野市","address":"東京都日野市多摩平5丁目8-1","lat":35.67018984,"lon":139.37533055},{"name":"（株）田商事","province":"神奈川県","city":"川崎市多摩区","address":"神奈川県川崎市多摩区登戸679-2","lat":35.62422411,"lon":139.56005187},{"name":"SKKフューネラルサービス","province":"東京都","city":"多摩市","address":"東京都多摩市乞田752-1","lat":35.63176248,"lon":139.4366185},{"name":"（株）三晃","province":"東京都","city":"府中市","address":"東京都府中市緑町2丁目20-10","lat":35.67342014,"lon":139.48922919},{"name":"（株）FTS","province":"神奈川県","city":"横浜市緑区","address":"神奈川県横浜市緑区霧が丘2丁目12-1","lat":35.51889813,"lon":139.50193271},{"name":"SOGIサポートセンター","province":"東京都","city":"稲城市","address":"東京都稲城市矢野口929-3","lat":35.64316161,"lon":139.51303195},{"name":"葬儀の（株）板橋","province":"神奈川県","city":"横浜市中区","address":"神奈川県横浜市中区山下町90-3","lat":35.44478507,"lon":139.64412494},{"name":"（有）東京相互葬祭","province":"東京都","city":"八王子市","address":"東京都八王子市小宮町747-1","lat":35.68729323,"lon":139.36608355},{"name":"（株）セレモア","province":"東京都","city":"国立市","address":"東京都国立市谷保5115","lat":35.67971558,"lon":139.446777},{"name":"（有）すげ典礼","province":"神奈川県","city":"川崎市多摩区","address":"神奈川県川崎市多摩区菅1丁目2-8","lat":35.6329229,"lon":139.5349344},{"name":"（有）アイム","province":"東京都","city":"杉並区","address":"東京都杉並区和田2丁目3-14","lat":35.6885339,"lon":139.66135018},{"name":"JA東京みなみセレモニーセンター","province":"東京都","city":"稲城市","address":"東京都稲城市東長沼1915-2","lat":35.63968377,"lon":139.5006635},{"name":"（株）公恩社","province":"東京都","city":"町田市","address":"東京都町田市小野路町3186-6","lat":35.60631871,"lon":139.44397447},{"name":"（株）としまフューネス","province":"東京都","city":"多摩市","address":"東京都多摩市永山1丁目17-11","lat":35.63153767,"lon":139.44278463},{"name":"（株）あさひセレモニー","province":"東京都","city":"府中市","address":"東京都府中市四谷3丁目21-8","lat":35.66170093,"lon":139.4464471},{"name":"（有）佐野商店","province":"神奈川県","city":"川崎市多摩区","address":"神奈川県川崎市多摩区枡形1丁目13-1","lat":35.62022798,"lon":139.5524978},{"name":"（株）メモリード","province":"東京都","city":"調布市","address":"東京都調布市菊野台1丁目11-1","lat":35.65463524,"lon":139.56509551},{"name":"（有）欅式典","province":"東京都","city":"府中市","address":"東京都府中市紅葉丘1丁目34-3","lat":35.67611483,"lon":139.51206879},{"name":"（株）奥野式典","province":"東京都","city":"三鷹市","address":"東京都三鷹市野崎2丁目20-12","lat":35.68346477,"lon":139.54524346},{"name":"（株）稲城葬儀社","province":"東京都","city":"稲城市","address":"東京都稲城市大丸1032","lat":35.64830094,"lon":139.48937731},{"name":"聖和葬儀社","province":"東京都","city":"稲城市","address":"東京都稲城市若葉台4丁目19-11","lat":35.6259922,"lon":139.4665247},{"name":"（株）花セレモ","province":"東京都","city":"稲城市","address":"東京都稲城市押立1744-80","lat":35.6467334,"lon":139.51878123},{"name":"（株）おぼうさんどっとこむ","province":"東京都","city":"昭島市","address":"東京都昭島市中神町1135-47","lat":35.71175989,"lon":139.37259061},{"name":"稲城福祉葬祭","province":"東京都","city":"稲城市","address":"東京都稲城市百村2120-25","lat":35.63542821,"lon":139.48951163},{"name":"おくりびとのお葬式","province":"東京都","city":"稲城市","address":"東京都稲城市百村1613-4","lat":35.63548735,"lon":139.50044446},{"name":"マイセレモニー（株）","province":"東京都","city":"稲城市","address":"東京都稲城市大丸1041-10","lat":35.64910364,"lon":139.48993835},{"name":"（株）セロニアス","province":"東京都","city":"稲城市","address":"東京都稲城市平尾1丁目56","lat":35.60980909,"lon":139.49729692},{"name":"（株）ゆいまーる","province":"東京都","city":"稲城市","address":"東京都稲城市大丸354-1","lat":35.64978721,"lon":139.49508802},{"name":"(有)吾妻屋","province":"東京都","city":"豊島区","address":"東京都豊島区要町2丁目21-5","lat":35.73593768,"lon":139.69284545},{"name":"(有)岡田葬儀社本店","province":"東京都","city":"豊島区","address":"東京都豊島区南大塚2丁目26-10","lat":35.72751463,"lon":139.72972878},{"name":"松阪屋","province":"東京都","city":"豊島区","address":"東京都豊島区千早1丁目15-14","lat":35.73076896,"lon":139.69780636},{"name":"(株)後藤本店葬祭","province":"東京都","city":"豊島区","address":"東京都豊島区長崎2丁目6-23","lat":35.72832457,"lon":139.69055987},{"name":"(株)相馬屋","province":"東京都","city":"豊島区","address":"東京都豊島区池袋4丁目18-5","lat":35.73913221,"lon":139.70821901},{"name":"(株)後藤葬儀社","province":"東京都","city":"豊島区","address":"東京都豊島区池袋本町2丁目25-7","lat":35.74234854,"lon":139.70965486},{"name":"(有)今井葬儀社","province":"東京都","city":"豊島区","address":"東京都豊島区長崎4丁目16-11","lat":35.7296743,"lon":139.68628795},{"name":"愛礼儀典","province":"東京都","city":"府中市","address":"東京都府中市西府町5丁目6","lat":35.67751043,"lon":139.45182663},{"name":"青葉葬儀社","province":"東京都","city":"府中市","address":"東京都府中市晴見町1丁目15-15","lat":35.68064683,"lon":139.47834927},{"name":"あさひセレモニー","province":"東京都","city":"府中市","address":"東京都府中市四谷3丁目21","lat":35.66172871,"lon":139.4465082},{"name":"アーネスト","province":"東京都","city":"府中市","address":"東京都府中市住吉町1丁目44","lat":35.66050139,"lon":139.45887382},{"name":"いせや","province":"東京都","city":"府中市","address":"東京都府中市天神町4丁目3","lat":35.6816776,"lon":139.49317855},{"name":"ＮＰＯ家族葬の会","province":"東京都","city":"府中市","address":"東京都府中市押立町4丁目14","lat":35.65452901,"lon":139.51502798},{"name":"遠藤葬祭","province":"東京都","city":"府中市","address":"東京都府中市寿町3丁目8","lat":35.6757695,"lon":139.4735054},{"name":"沖田ダイイチ","province":"東京都","city":"府中市","address":"東京都府中市紅葉丘1丁目31","lat":35.67490944,"lon":139.512716},{"name":"金子式典","province":"東京都","city":"府中市","address":"東京都府中市片町2丁目3","lat":35.670159,"lon":139.47280843},{"name":"京王メモリアル","province":"東京都","city":"府中市","address":"東京都府中市寿町2丁目1-28","lat":35.67285879,"lon":139.47630528},{"name":"欅式典","province":"東京都","city":"府中市","address":"東京都府中市紅葉丘1丁目34","lat":35.6757871,"lon":139.5121188},{"name":"三晃","province":"東京都","city":"府中市","address":"東京都府中市緑町2丁目20","lat":35.67315906,"lon":139.48910421},{"name":"三和式典","province":"東京都","city":"府中市","address":"東京都府中市新町1丁目65","lat":35.68670749,"lon":139.48925367},{"name":"ＪＡマインズメモリア","province":"東京都","city":"府中市","address":"東京都府中市白糸台1丁目14-14","lat":35.66874057,"lon":139.50796937},{"name":"聖和","province":"東京都","city":"府中市","address":"東京都府中市住吉町3丁目21","lat":35.66385931,"lon":139.45662667},{"name":"多摩中央葬祭","province":"東京都","city":"府中市","address":"東京都府中市武蔵台2丁目18","lat":35.69427547,"lon":139.46361112},{"name":"西村葬祭","province":"東京都","city":"府中市","address":"東京都府中市是政5丁目7-1","lat":35.65668316,"lon":139.48851312},{"name":"日冠","province":"東京都","city":"府中市","address":"東京都府中市栄町2丁目28","lat":35.69045685,"lon":139.48000985},{"name":"ひふみプランニング","province":"東京都","city":"府中市","address":"東京都府中市北山町3丁目23","lat":35.68863701,"lon":139.45518983},{"name":"ひまわりコーポレーション","province":"東京都","city":"府中市","address":"東京都府中市分梅町4丁目1","lat":35.66467049,"lon":139.46304832},{"name":"富士の華","province":"東京都","city":"府中市","address":"東京都府中市幸町1丁目2","lat":35.67838047,"lon":139.48019087},{"name":"府中葬儀社","province":"東京都","city":"府中市","address":"東京都府中市宮町2丁目16","lat":35.66994537,"lon":139.48147998},{"name":"プラス","province":"東京都","city":"府中市","address":"東京都府中市四谷3丁目21","lat":35.66172871,"lon":139.4465082},{"name":"メモリード","province":"東京都","city":"府中市","address":"東京都府中市府中町2丁目6","lat":35.67222293,"lon":139.48316587},{"name":"ゆいまーる","province":"東京都","city":"府中市","address":"東京都府中市是政4丁目28","lat":35.65588079,"lon":139.49573763},{"name":"リーフ","province":"東京都","city":"府中市","address":"東京都府中市清水が丘2丁目1","lat":35.66761261,"lon":139.49496499},{"name":"有限会社石川生造花店","province":"東京都","city":"千代田区","address":"東京都千代田区神田須田町2丁目8-3","lat":35.69532495,"lon":139.77404071},{"name":"有限会社黒澤商店","province":"東京都","city":"千代田区","address":"東京都千代田区外神田3丁目7-7","lat":35.70275738,"lon":139.7702322},{"name":"博善株式会社","province":"東京都","city":"千代田区","address":"東京都千代田区神田錦町1丁目13","lat":35.69157506,"lon":139.76364961},{"name":"有限会社よしだ","province":"東京都","city":"千代田区","address":"東京都千代田区神田司町2丁目6","lat":35.69388604,"lon":139.76784654},{"name":"（株）安井","province":"東京都","city":"江戸川区","address":"東京都江戸川区大杉5丁目1-4","lat":35.70770436,"lon":139.87729174},{"name":"（有）山金葬祭","province":"東京都","city":"江戸川区","address":"東京都江戸川区東小松川1丁目8-12","lat":35.70290924,"lon":139.86776815},{"name":"（株）鹿倉商店","province":"東京都","city":"江戸川区","address":"東京都江戸川区平井6丁目2-22","lat":35.70529155,"lon":139.83795951},{"name":"（有）船堀祭典","province":"東京都","city":"江戸川区","address":"東京都江戸川区船堀7丁目11-21","lat":35.67725705,"lon":139.86950487},{"name":"（株）東京葬祭","province":"東京都","city":"江戸川区","address":"東京都江戸川区南小岩5丁目4-16","lat":35.72458542,"lon":139.87939371},{"name":"（株）宮崎","province":"東京都","city":"江戸川区","address":"東京都江戸川区南小岩7丁目1-22","lat":35.72621035,"lon":139.88417377},{"name":"（有）首代","province":"東京都","city":"江戸川区","address":"東京都江戸川区鹿骨4丁目15-9","lat":35.71585672,"lon":139.88914313},{"name":"株式会社　あおば葬祭","province":"東京都","city":"目黒区","address":"東京都目黒区下目黒5丁目7-1","lat":35.62943615,"lon":139.70472908},{"name":"勝山葬祭　株式会社","province":"東京都","city":"目黒区","address":"東京都目黒区洗足2丁目21-17","lat":35.61003269,"lon":139.69382229},{"name":"葬祭総合センター　株式会社　門脇","province":"東京都","city":"目黒区","address":"東京都目黒区目黒本町4丁目14-14","lat":35.62328667,"lon":139.69439958},{"name":"株式会社　式典","province":"東京都","city":"目黒区","address":"東京都目黒区平町1丁目26-20","lat":35.61782019,"lon":139.6768262},{"name":"すみやセレモニー　株式会社","province":"東京都","city":"目黒区","address":"東京都目黒区祐天寺2丁目10-3","lat":35.63682115,"lon":139.69230491},{"name":"東京式典　株式会社","province":"東京都","city":"目黒区","address":"東京都目黒区鷹番3丁目8-6","lat":35.62931629,"lon":139.68532237},{"name":"株式会社　花会","province":"東京都","city":"目黒区","address":"東京都目黒区碑文谷1丁目5-1","lat":35.61927878,"lon":139.69272762},{"name":"有限会社　花心","province":"東京都","city":"目黒区","address":"東京都目黒区柿の木坂1丁目34-15","lat":35.62170576,"lon":139.67397075},{"name":"有限会社　横山葬祭","province":"東京都","city":"目黒区","address":"東京都目黒区五本木2丁目20-3","lat":35.63450191,"lon":139.68991628},{"name":"有限会社　吉田葬儀社","province":"東京都","city":"目黒区","address":"東京都目黒区原町1丁目12-6","lat":35.61546269,"lon":139.69711628},{"name":"(株）伊藤葬祭","province":"東京都","city":"葛飾区","address":"東京都葛飾区新小岩1丁目48-8","lat":35.71652119,"lon":139.85929903},{"name":"(有）上平井葬儀社","province":"東京都","city":"葛飾区","address":"東京都葛飾区西新小岩3丁目39-8","lat":35.72376226,"lon":139.8467885},{"name":"（有）網代屋葬儀社奥戸支店","province":"東京都","city":"葛飾区","address":"東京都葛飾区奥戸3丁目28-11","lat":35.73451157,"lon":139.86399463},{"name":"（有）橋本葬儀社","province":"東京都","city":"葛飾区","address":"東京都葛飾区東立石4丁目46-6","lat":35.73720813,"lon":139.85044291},{"name":"（株）葵式典（島田会館）","province":"東京都","city":"葛飾区","address":"東京都葛飾区四つ木1丁目33-5","lat":35.7345953,"lon":139.8360199},{"name":"東間葬儀社","province":"東京都","city":"葛飾区","address":"東京都葛飾区四つ木2丁目3-9","lat":35.73532582,"lon":139.83486168},{"name":"（株）八木井","province":"東京都","city":"葛飾区","address":"東京都葛飾区堀切2丁目34-2","lat":35.74504354,"lon":139.82592301},{"name":"（有）登坂商店","province":"東京都","city":"葛飾区","address":"東京都葛飾区堀切2丁目35-3","lat":35.74575453,"lon":139.82591738},{"name":"稲垣屋葬儀店","province":"東京都","city":"葛飾区","address":"東京都葛飾区堀切6丁目33-4","lat":35.75318384,"lon":139.82765534},{"name":"（有）秋元商店","province":"東京都","city":"葛飾区","address":"東京都葛飾区東堀切2丁目13-8","lat":35.75377009,"lon":139.83614627},{"name":"（有）セレモニーマルヤマ","province":"東京都","city":"葛飾区","address":"東京都葛飾区青戸3丁目33-18","lat":35.74656001,"lon":139.8554865},{"name":"（有）網代屋葬儀社青戸支店","province":"東京都","city":"葛飾区","address":"東京都葛飾区青戸4丁目22-22","lat":35.74858752,"lon":139.8526561},{"name":"（有）島田富義葬祭式典","province":"東京都","city":"葛飾区","address":"東京都葛飾区亀有3丁目14-10","lat":35.7630218,"lon":139.84898083},{"name":"（有）網代屋葬儀社本店","province":"東京都","city":"葛飾区","address":"東京都葛飾区高砂5丁目35-11","lat":35.7517789,"lon":139.86808531},{"name":"（株）島村葬儀社","province":"東京都","city":"葛飾区","address":"東京都葛飾区金町6丁目1-14","lat":35.76745719,"lon":139.87160132},{"name":"（株）東京供養舎（かなまち会館）","province":"東京都","city":"葛飾区","address":"東京都葛飾区東金町4丁目37-1","lat":35.77491998,"lon":139.87306216},{"name":"芦川巌葬儀社（有）","province":"東京都","city":"足立区","address":"東京都足立区南花畑3丁目19-26","lat":35.79043476,"lon":139.82729009},{"name":"(株)芦川花環葬儀社","province":"東京都","city":"足立区","address":"東京都足立区六月1丁目11-7","lat":35.78575436,"lon":139.7978732},{"name":"東葬儀社（株）","province":"東京都","city":"足立区","address":"東京都足立区関原2丁目1-26","lat":35.76501765,"lon":139.79095522},{"name":"（有）稲垣葬儀社本店","province":"東京都","city":"足立区","address":"東京都足立区千住仲町19-3","lat":35.74632333,"lon":139.80160027},{"name":"牛込葬儀社","province":"東京都","city":"足立区","address":"東京都足立区梅田2丁目16-18","lat":35.76517906,"lon":139.80205154},{"name":"エンドウセレモニー(有)","province":"東京都","city":"足立区","address":"東京都足立区鹿浜3丁目9-8","lat":35.77993983,"lon":139.75464662},{"name":"(株)小川由雄商店","province":"東京都","city":"足立区","address":"東京都足立区西新井本町1丁目15-14","lat":35.77769645,"lon":139.78180264},{"name":"(有)小澤葬儀社","province":"東京都","city":"足立区","address":"東京都足立区入谷4丁目10-24","lat":35.80593975,"lon":139.76093121},{"name":"(有)梶商店","province":"東京都","city":"足立区","address":"東京都足立区千住桜木1丁目9-2","lat":35.75061689,"lon":139.79406987},{"name":"(有)熊川式典総合サービス","province":"東京都","city":"足立区","address":"東京都足立区本木1丁目1-9","lat":35.76117076,"lon":139.78756679},{"name":"溜屋近藤商店(株)","province":"東京都","city":"足立区","address":"東京都足立区千住5丁目18-10","lat":35.75488048,"lon":139.80429093},{"name":"（有）根岸商店","province":"東京都","city":"足立区","address":"東京都足立区梅田6丁目9-11","lat":35.76626495,"lon":139.79835457},{"name":"蓮池葬儀社","province":"新潟県","city":"新潟市北区","address":"新潟県新潟市北区柳原1丁目8-11","lat":37.91732598,"lon":139.212611},{"name":"肥後商店","province":"東京都","city":"足立区","address":"東京都足立区千住大川町48-1","lat":35.75524685,"lon":139.79563327},{"name":"㈱宇野商店","province":"東京都","city":"板橋区","address":"東京都板橋区大谷口上町70-12","lat":35.74699743,"lon":139.68910083},{"name":"\"㈱京花  \"","province":"東京都","city":"板橋区","address":"東京都板橋区中丸町28-3","lat":35.74151794,"lon":139.70425257},{"name":"㈱正美堂 大村葬儀社","province":"東京都","city":"板橋区","address":"東京都板橋区志村3丁目1-16","lat":35.77984631,"lon":139.69081043},{"name":"㈱コーディアル","province":"東京都","city":"板橋区","address":"東京都板橋区高島平1丁目48-1","lat":35.78419515,"lon":139.66936774},{"name":"㈱高根商店","province":"東京都","city":"板橋区","address":"東京都板橋区大山町19-2","lat":35.74736716,"lon":139.69926109},{"name":"\"常盤葬祭㈲  \"","province":"東京都","city":"板橋区","address":"東京都板橋区南常盤台1丁目36-8","lat":35.75755443,"lon":139.68729491},{"name":"㈲服部葬儀社","province":"東京都","city":"板橋区","address":"東京都板橋区赤塚新町1丁目22-4","lat":35.77002972,"lon":139.64477037},{"name":"㈲望月葬儀社","province":"東京都","city":"板橋区","address":"東京都板橋区栄町28-3","lat":35.75364151,"lon":139.70174951},{"name":"㈱大白社","province":"東京都","city":"板橋区","address":"東京都板橋区志村2丁目11-3","lat":35.77638007,"lon":139.69046335},{"name":"株式会社 式典石井商店","province":"東京都","city":"荒川区","address":"東京都荒川区南千住2丁目19-11","lat":35.72993278,"lon":139.79594808},{"name":"有限会社 京当商店","province":"東京都","city":"荒川区","address":"東京都荒川区町屋3丁目30-8","lat":35.7488029,"lon":139.78063221},{"name":"有限会社 松石商店","province":"東京都","city":"荒川区","address":"東京都荒川区東尾久6丁目16-22","lat":35.74888887,"lon":139.77632424},{"name":"有限会社 かねこ葬祭","province":"東京都","city":"荒川区","address":"東京都荒川区西尾久2丁目15-4","lat":35.74794953,"lon":139.762667},{"name":"有限会社 綿貫商店","province":"東京都","city":"荒川区","address":"東京都荒川区東日暮里3丁目46-6","lat":35.72871653,"lon":139.77926694},{"name":"有限会社 稲葉葬祭","province":"東京都","city":"荒川区","address":"東京都荒川区西日暮里6丁目6-10","lat":35.73766813,"lon":139.772181},{"name":"有限会社　玉野葬儀社","province":"東京都","city":"杉並区","address":"東京都杉並区阿佐谷南1丁目12-3","lat":35.69890419,"lon":139.63732406},{"name":"有限会社　吉田屋葬儀社","province":"東京都","city":"杉並区","address":"東京都杉並区天沼3丁目11-6","lat":35.70738599,"lon":139.61657259},{"name":"田中商事　株式会社","province":"東京都","city":"杉並区","address":"東京都杉並区井草1丁目5-16","lat":35.72444264,"lon":139.62319625},{"name":"代田橋鈴木葬儀社","province":"東京都","city":"杉並区","address":"東京都杉並区和泉1丁目1-14","lat":35.6730607,"lon":139.66012587},{"name":"株式会社　浅野葬儀社","province":"東京都","city":"杉並区","address":"東京都杉並区永福3丁目47-8","lat":35.67800119,"lon":139.63998022},{"name":"株式会社　オボワール","province":"東京都","city":"杉並区","address":"東京都杉並区久我山3丁目15-7","lat":35.68661557,"lon":139.59551118},{"name":"有限会社　栃木屋祭典","province":"東京都","city":"杉並区","address":"東京都杉並区高円寺南1丁目6-9","lat":35.69846315,"lon":139.6584167},{"name":"\" 田中商事　株式会社　下井草支店\"","province":"東京都","city":"杉並区","address":"東京都杉並区下井草3丁目7-17","lat":35.71748231,"lon":139.62450482},{"name":"株式会社　博典社芹澤葬祭店","province":"東京都","city":"杉並区","address":"東京都杉並区下高井戸1丁目3-11","lat":35.66726079,"lon":139.64066104},{"name":"有限会社　加賀屋葬儀社","province":"東京都","city":"杉並区","address":"東京都杉並区成田東5丁目19-8","lat":35.70118431,"lon":139.63083839},{"name":"株式会社　ゴトウ","province":"東京都","city":"杉並区","address":"東京都杉並区西荻北4丁目1-21","lat":35.70583564,"lon":139.59632704},{"name":"株式会社　西荻祭典","province":"東京都","city":"杉並区","address":"東京都杉並区西荻南2丁目6-21","lat":35.69853095,"lon":139.59815774},{"name":"\" マキノ祭典　株式会社\"","province":"東京都","city":"杉並区","address":"東京都杉並区宮前3丁目5-5","lat":35.6935401,"lon":139.60729332},{"name":"株式会社　博善社","province":"東京都","city":"杉並区","address":"東京都杉並区宮前4丁目17-10","lat":35.69332335,"lon":139.60324643},{"name":"株式会社　渋谷商会","province":"東京都","city":"杉並区","address":"東京都杉並区桃井2丁目4-5","lat":35.71127422,"lon":139.60796756},{"name":"日本橋式典","province":"東京都","city":"中央区","address":"東京都中央区東日本橋一丁目4番3号","lat":35.690796,"lon":139.786057},{"name":"株式会社三特興業社","province":"東京都","city":"中央区","address":"東京都中央区日本橋茅場町二丁目17番3号","lat":35.678013,"lon":139.779968},{"name":"株式会社グローバルケア","province":"東京都","city":"中央区","address":"東京都中央区佃三丁目3番3号","lat":35.66507,"lon":139.786682},{"name":"有限会社三谷葬儀社","province":"東京都","city":"中央区","address":"東京都中央区月島三丁目7番7号","lat":35.66256,"lon":139.780869},{"name":"\"伊藤商事株式会社 葬儀部 \"","province":"東京都","city":"世田谷区","address":"東京都世田谷区松原3丁目30-12","lat":35.66652758,"lon":139.64192207},{"name":"有限会社　メーユー上原葬儀社","province":"東京都","city":"世田谷区","address":"東京都世田谷区梅丘3丁目10-12","lat":35.65251006,"lon":139.65491308},{"name":"\"金子総本店 \"","province":"東京都","city":"世田谷区","address":"東京都世田谷区北沢3丁目31-2","lat":35.66454236,"lon":139.66686446},{"name":"株式会社　佐久間本店","province":"東京都","city":"世田谷区","address":"東京都世田谷区成城6丁目6-3","lat":35.64015449,"lon":139.59726549},{"name":"\"株式会社　佐久間本店 千歳船橋営業所 \"","province":"東京都","city":"世田谷区","address":"東京都世田谷区桜丘2丁目27-11","lat":35.64673208,"lon":139.6225521},{"name":"\"有限会社　佐藤葬祭 \"","province":"東京都","city":"世田谷区","address":"東京都世田谷区北沢5丁目34-14","lat":35.67164994,"lon":139.66833631},{"name":"有限会社　嶋田葬祭","province":"東京都","city":"世田谷区","address":"東京都世田谷区池尻3丁目4-2","lat":35.65009162,"lon":139.68287748},{"name":"\"株式会社　経堂 清水葬祭 \"","province":"東京都","city":"世田谷区","address":"東京都世田谷区経堂1丁目5-9","lat":35.64839896,"lon":139.63626198},{"name":"城西葬祭　株式会社","province":"東京都","city":"世田谷区","address":"東京都世田谷区野沢2丁目13-2","lat":35.63249609,"lon":139.66918473},{"name":"\"株式会社　杉田フューネス \"","province":"東京都","city":"世田谷区","address":"東京都世田谷区上北沢4丁目33-3","lat":35.66985709,"lon":139.61745449},{"name":"\"有限会社　曽根葬祭 \"","province":"東京都","city":"世田谷区","address":"東京都世田谷区下馬4丁目2-12","lat":35.63487384,"lon":139.67952824},{"name":"\"有限会社　野﨑商店 \"","province":"東京都","city":"世田谷区","address":"東京都世田谷区豪徳寺1丁目8-7","lat":35.65171273,"lon":139.64650547},{"name":"有限会社　平野屋葬祭","province":"東京都","city":"世田谷区","address":"東京都世田谷区大原1丁目17-12","lat":35.66876124,"lon":139.66331185},{"name":"株式会社　ムラカミ","province":"東京都","city":"世田谷区","address":"東京都世田谷区宮坂3丁目28-2","lat":35.65414266,"lon":139.63350925},{"name":"株式会社　沼崎商会","province":"東京都","city":"世田谷区","address":"東京都世田谷区尾山台3丁目9-6","lat":35.60391554,"lon":139.65227599},{"name":"\"株式会社荒木葬儀社 \"","province":"東京都","city":"大田区","address":"東京都大田区仲六郷2丁目7-8","lat":35.55222386,"lon":139.71480108},{"name":"\"有限会社池牧 \"","province":"東京都","city":"大田区","address":"東京都大田区池上4丁目8-6","lat":35.57536487,"lon":139.70771972},{"name":"\"大田葬祭株式会社 \"","province":"東京都","city":"大田区","address":"東京都大田区大森中1丁目13-3","lat":35.56926082,"lon":139.73397627},{"name":"\"有限会社金子式典センター \"","province":"東京都","city":"大田区","address":"東京都大田区東雪谷3丁目8-6","lat":35.59346505,"lon":139.69205361},{"name":"\"株式会社明進社　金子商店 \"","province":"東京都","city":"大田区","address":"東京都大田区大森中1丁目18-23","lat":35.56892181,"lon":139.7306987},{"name":"\"有限会社北嶋葬儀社 \"","province":"東京都","city":"大田区","address":"東京都大田区東矢口3丁目5-4","lat":35.56388876,"lon":139.70777046},{"name":"\"有限会社立花屋 \"","province":"東京都","city":"大田区","address":"東京都大田区南千束3丁目3-15","lat":35.60446368,"lon":139.68642591},{"name":"\"鶴屋葬祭支店 \"","province":"東京都","city":"大田区","address":"東京都大田区北糀谷1丁目7-4","lat":35.56411711,"lon":139.73441544},{"name":"\"有限会社牧野 \"","province":"東京都","city":"大田区","address":"東京都大田区下丸子1丁目1-4","lat":35.57107138,"lon":139.68795017},{"name":"\"合資会社山田屋葬儀社 \"","province":"東京都","city":"大田区","address":"東京都大田区大森北4丁目26-18","lat":35.58172291,"lon":139.72818432},{"name":"帝都典礼株式会社","province":"東京都","city":"新宿区","address":"東京都新宿区新宿2-16-6","lat":35.691647,"lon":139.708237},{"name":"四谷津乃國屋","province":"東京都","city":"新宿区","address":"東京都新宿区四谷2-13","lat":35.688007,"lon":139.72374},{"name":"株式会社天行社","province":"東京都","city":"新宿区","address":"東京都新宿区神楽坂6-48","lat":35.703335,"lon":139.735703},{"name":"有限会社広礼式典津乃國屋","province":"東京都","city":"新宿区","address":"東京都新宿区市谷甲良町2-19","lat":35.699286,"lon":139.728681},{"name":"有限会社早稲田近藤葬祭","province":"東京都","city":"新宿区","address":"東京都新宿区早稲田鶴巻町302","lat":35.709217,"lon":139.724197},{"name":"株式会社髙嶋","province":"東京都","city":"新宿区","address":"東京都新宿区西早稲田3-1-7","lat":35.709679,"lon":139.715527},{"name":"有限会社三国屋","province":"東京都","city":"新宿区","address":"東京都新宿区百人町1-24-8","lat":35.698776,"lon":139.697525},{"name":"株式会社公営社","province":"東京都","city":"新宿区","address":"東京都新宿区百人町2-21-1","lat":35.701751,"lon":139.697589},{"name":"赤堀商店","province":"東京都","city":"新宿区","address":"東京都新宿区上落合1-29-2","lat":35.711346,"lon":139.690567},{"name":"有限会社欅式典","province":"東京都","city":"新宿区","address":"東京都新宿区西新宿1-13-1","lat":35.689007,"lon":139.697617},{"name":"足立葬祭","province":"東京都","city":"新宿区","address":"東京都新宿区西新宿4-25-2","lat":35.686869,"lon":139.686935},{"name":"合資会社結城屋","province":"東京都","city":"新宿区","address":"東京都新宿区四谷4-28-104","lat":35.687859,"lon":139.71521},{"name":"（有）竹内商店","province":"東京都","city":"台東区","address":"東京都台東区谷中6丁目3-9","lat":35.72346374,"lon":139.76886213},{"name":"（株）信興会","province":"東京都","city":"台東区","address":"東京都台東区上野桜木2丁目10-14","lat":35.72155569,"lon":139.77164258},{"name":"（株）そうかみ","province":"東京都","city":"台東区","address":"東京都台東区池之端4丁目18-4","lat":35.71952798,"lon":139.76941496},{"name":"（有）小泉桶甚本店","province":"東京都","city":"台東区","address":"東京都台東区下谷1丁目11-15","lat":35.71947836,"lon":139.78313624},{"name":"（有）鳥居本店","province":"東京都","city":"台東区","address":"東京都台東区下谷1丁目11-4","lat":35.7193256,"lon":139.78283349},{"name":"（有）染木商店","province":"東京都","city":"台東区","address":"東京都台東区竜泉1丁目22-6","lat":35.72426409,"lon":139.78956594},{"name":"（有）堀込葬祭","province":"東京都","city":"台東区","address":"東京都台東区千束3丁目16-5","lat":35.72160323,"lon":139.791427},{"name":"（有）小林花環店","province":"東京都","city":"台東区","address":"東京都台東区千束4丁目51-11","lat":35.72585259,"lon":139.79594269},{"name":"誠実屋　伊藤","province":"東京都","city":"台東区","address":"東京都台東区東浅草2丁目15-12","lat":35.72367021,"lon":139.80124868},{"name":"（有）金子商店","province":"東京都","city":"台東区","address":"東京都台東区清川1丁目33-5","lat":35.72612004,"lon":139.80211256},{"name":"（有）根岸商店","province":"東京都","city":"台東区","address":"東京都台東区今戸2丁目23-3","lat":35.72157095,"lon":139.80503222},{"name":"（有）川﨑商店","province":"東京都","city":"台東区","address":"東京都台東区西浅草2丁目3-13","lat":35.71233743,"lon":139.79016105},{"name":"（株）葬儀のうはら","province":"東京都","city":"台東区","address":"東京都台東区蔵前3丁目19-6","lat":35.70564366,"lon":139.79141157},{"name":"鳥越葬儀社神商店","province":"東京都","city":"台東区","address":"東京都台東区鳥越1丁目2-2","lat":35.70213558,"lon":139.78329568},{"name":"（有）東都葬祭福井","province":"東京都","city":"台東区","address":"東京都台東区台東3丁目42-4","lat":35.70558783,"lon":139.7763957}]}