{"keyword":"稲城","data":[{"name":"稲城市立中央公民館","province":"東京都","city":"稲城市","address":"稲城市東長沼2111","lat":35.638123,"lon":139.504288},{"name":"稲城市立第二公民館","province":"東京都","city":"稲城市","address":"稲城市矢野口1780","lat":35.635094,"lon":139.518661},{"name":"稲城市立第三公民館","province":"東京都","city":"稲城市","address":"稲城市平尾1-20-5","lat":35.613167,"lon":139.492096},{"name":"稲城市立第四公民館","province":"東京都","city":"稲城市","address":"稲城市東長沼271","lat":35.645649,"lon":139.506165},{"name":"稲城市立城山公民館","province":"東京都","city":"稲城市","address":"稲城市向陽台6-7","lat":35.64127,"lon":139.490814},{"name":"稲城市立?プラザ図書館","province":"東京都","city":"稲城市","address":"稲城市若葉台2-5-2","lat":35.62122,"lon":139.471436},{"name":"稲城市立第一図書館","province":"東京都","city":"稲城市","address":"稲城市東長沼2111","lat":35.638123,"lon":139.504288},{"name":"稲城市立第二図書館","province":"東京都","city":"稲城市","address":"稲城市矢野口1780","lat":35.635094,"lon":139.518661},{"name":"稲城市立第三図書館","province":"東京都","city":"稲城市","address":"稲城市平尾1-20-5","lat":35.613167,"lon":139.492096},{"name":"稲城市立第四図書館","province":"東京都","city":"稲城市","address":"稲城市東長沼271","lat":35.645649,"lon":139.506165},{"name":"稲城市立中央図書館（城山体験学習館）","province":"東京都","city":"稲城市","address":"稲城市向陽台4-6-18","lat":35.645573,"lon":139.488434}]}