{"keyword":"命令","data":[{"name":"ひのはら保育園","province":"東京都","city":"西多摩郡檜原村","address":"西多摩郡檜原村357","lat":35.72684,"lon":139.14885},{"name":"ひのはら保育園","province":"東京都","city":"西多摩郡檜原村","address":"西多摩郡檜原村357","lat":35.72683,"lon":139.16281},{"name":"桧原村本庁舎","province":"東京都","city":"西多摩郡檜原村","address":"東京都西多摩郡檜原村上元郷467-1","lat":35.72689989,"lon":139.14880216},{"name":"桧原村本庁舎","province":"東京都","city":"西多摩郡檜原村","address":"西多摩郡桧原村467-1","lat":35.72688,"lon":139.1487},{"name":"※桧原村本庁舎","province":"東京都","city":"西多摩郡檜原村","address":"東京都西多摩郡檜原村上元郷467-1","lat":35.72689989,"lon":139.14880216},{"name":"ひのはら保育園","province":"東京都","city":"西多摩郡檜原村","address":"西多摩郡檜原村357","lat":35.72684,"lon":139.14885},{"name":"ひのはら保育園","province":"東京都","city":"西多摩郡檜原村","address":"西多摩郡檜原村357","lat":35.72683,"lon":139.16281},{"name":"桧原村本庁舎","province":"東京都","city":"西多摩郡檜原村","address":"東京都西多摩郡檜原村上元郷467-1","lat":35.72689989,"lon":139.14880216},{"name":"桧原村本庁舎","province":"東京都","city":"西多摩郡檜原村","address":"西多摩郡桧原村467-1","lat":35.72688,"lon":139.1487},{"name":"※桧原村本庁舎","province":"東京都","city":"西多摩郡檜原村","address":"東京都西多摩郡檜原村上元郷467-1","lat":35.72689989,"lon":139.14880216},{"name":"ひのはら保育園","province":"東京都","city":"西多摩郡檜原村","address":"西多摩郡檜原村357","lat":35.72684,"lon":139.14885},{"name":"ひのはら保育園","province":"東京都","city":"西多摩郡檜原村","address":"西多摩郡檜原村357","lat":35.72683,"lon":139.16281},{"name":"ひのはら保育園","province":"東京都","city":"西多摩郡檜原村","address":"西多摩郡檜原村357","lat":35.72684,"lon":139.14885},{"name":"ひのはら保育園","province":"東京都","city":"西多摩郡檜原村","address":"西多摩郡檜原村357","lat":35.72683,"lon":139.16281},{"name":"ひのはら保育園","province":"東京都","city":"西多摩郡檜原村","address":"西多摩郡檜原村357","lat":35.72684,"lon":139.14885},{"name":"ひのはら保育園","province":"東京都","city":"西多摩郡檜原村","address":"西多摩郡檜原村357","lat":35.72683,"lon":139.16281},{"name":"ひのはら保育園","province":"東京都","city":"西多摩郡檜原村","address":"西多摩郡檜原村357","lat":35.72684,"lon":139.14885},{"name":"ひのはら保育園","province":"東京都","city":"西多摩郡檜原村","address":"西多摩郡檜原村357","lat":35.72683,"lon":139.16281},{"name":"ひのはら保育園","province":"東京都","city":"西多摩郡檜原村","address":"西多摩郡檜原村357","lat":35.72684,"lon":139.14885},{"name":"ひのはら保育園","province":"東京都","city":"西多摩郡檜原村","address":"西多摩郡檜原村357","lat":35.72683,"lon":139.16281},{"name":"ひのはら保育園","province":"東京都","city":"西多摩郡檜原村","address":"西多摩郡檜原村357","lat":35.72684,"lon":139.14885},{"name":"ひのはら保育園","province":"東京都","city":"西多摩郡檜原村","address":"西多摩郡檜原村357","lat":35.72683,"lon":139.16281},{"name":"ひのはら保育園","province":"東京都","city":"西多摩郡檜原村","address":"西多摩郡檜原村357","lat":35.72684,"lon":139.14885},{"name":"ひのはら保育園","province":"東京都","city":"西多摩郡檜原村","address":"西多摩郡檜原村357","lat":35.72683,"lon":139.16281},{"name":"ひのはら保育園","province":"東京都","city":"西多摩郡檜原村","address":"西多摩郡檜原村357","lat":35.72684,"lon":139.14885},{"name":"ひのはら保育園","province":"東京都","city":"西多摩郡檜原村","address":"西多摩郡檜原村357","lat":35.72683,"lon":139.16281},{"name":"ひのはら保育園","province":"東京都","city":"西多摩郡檜原村","address":"西多摩郡檜原村357","lat":35.72684,"lon":139.14885},{"name":"ひのはら保育園","province":"東京都","city":"西多摩郡檜原村","address":"西多摩郡檜原村357","lat":35.72683,"lon":139.16281},{"name":"ひのはら保育園","province":"東京都","city":"西多摩郡檜原村","address":"西多摩郡檜原村357","lat":35.72684,"lon":139.14885},{"name":"ひのはら保育園","province":"東京都","city":"西多摩郡檜原村","address":"西多摩郡檜原村357","lat":35.72683,"lon":139.16281},{"name":"ひのはら保育園","province":"東京都","city":"西多摩郡檜原村","address":"西多摩郡檜原村357","lat":35.72684,"lon":139.14885},{"name":"ひのはら保育園","province":"東京都","city":"西多摩郡檜原村","address":"西多摩郡檜原村357","lat":35.72683,"lon":139.16281},{"name":"ひのはら保育園","province":"東京都","city":"西多摩郡檜原村","address":"西多摩郡檜原村357","lat":35.72684,"lon":139.14885},{"name":"ひのはら保育園","province":"東京都","city":"西多摩郡檜原村","address":"西多摩郡檜原村357","lat":35.72683,"lon":139.16281},{"name":"ひのはら保育園","province":"東京都","city":"西多摩郡檜原村","address":"西多摩郡檜原村357","lat":35.72684,"lon":139.14885},{"name":"ひのはら保育園","province":"東京都","city":"西多摩郡檜原村","address":"西多摩郡檜原村357","lat":35.72683,"lon":139.16281},{"name":"ひのはら保育園","province":"東京都","city":"西多摩郡檜原村","address":"西多摩郡檜原村357","lat":35.72684,"lon":139.14885},{"name":"ひのはら保育園","province":"東京都","city":"西多摩郡檜原村","address":"西多摩郡檜原村357","lat":35.72683,"lon":139.16281},{"name":"ひのはら保育園","province":"東京都","city":"西多摩郡檜原村","address":"西多摩郡檜原村357","lat":35.72684,"lon":139.14885},{"name":"ひのはら保育園","province":"東京都","city":"西多摩郡檜原村","address":"西多摩郡檜原村357","lat":35.72683,"lon":139.16281},{"name":"ひのはら保育園","province":"東京都","city":"西多摩郡檜原村","address":"西多摩郡檜原村357","lat":35.72684,"lon":139.14885},{"name":"ひのはら保育園","province":"東京都","city":"西多摩郡檜原村","address":"西多摩郡檜原村357","lat":35.72683,"lon":139.16281},{"name":"ひのはら保育園","province":"東京都","city":"西多摩郡檜原村","address":"西多摩郡檜原村357","lat":35.72684,"lon":139.14885},{"name":"ひのはら保育園","province":"東京都","city":"西多摩郡檜原村","address":"西多摩郡檜原村357","lat":35.72683,"lon":139.16281},{"name":"ひのはら保育園","province":"東京都","city":"西多摩郡檜原村","address":"西多摩郡檜原村357","lat":35.72684,"lon":139.14885},{"name":"ひのはら保育園","province":"東京都","city":"西多摩郡檜原村","address":"西多摩郡檜原村357","lat":35.72683,"lon":139.16281},{"name":"ひのはら保育園","province":"東京都","city":"西多摩郡檜原村","address":"西多摩郡檜原村357","lat":35.72684,"lon":139.14885},{"name":"ひのはら保育園","province":"東京都","city":"西多摩郡檜原村","address":"西多摩郡檜原村357","lat":35.72683,"lon":139.16281},{"name":"ひのはら保育園","province":"東京都","city":"西多摩郡檜原村","address":"西多摩郡檜原村357","lat":35.72684,"lon":139.14885},{"name":"ひのはら保育園","province":"東京都","city":"西多摩郡檜原村","address":"西多摩郡檜原村357","lat":35.72683,"lon":139.16281},{"name":"ひのはら保育園","province":"東京都","city":"西多摩郡檜原村","address":"西多摩郡檜原村357","lat":35.72684,"lon":139.14885},{"name":"ひのはら保育園","province":"東京都","city":"西多摩郡檜原村","address":"西多摩郡檜原村357","lat":35.72683,"lon":139.16281},{"name":"ひのはら保育園","province":"東京都","city":"西多摩郡檜原村","address":"西多摩郡檜原村357","lat":35.72684,"lon":139.14885},{"name":"ひのはら保育園","province":"東京都","city":"西多摩郡檜原村","address":"西多摩郡檜原村357","lat":35.72683,"lon":139.16281},{"name":"ひのはら保育園","province":"東京都","city":"西多摩郡檜原村","address":"西多摩郡檜原村357","lat":35.72684,"lon":139.14885},{"name":"ひのはら保育園","province":"東京都","city":"西多摩郡檜原村","address":"西多摩郡檜原村357","lat":35.72683,"lon":139.16281},{"name":"ひのはら保育園","province":"東京都","city":"西多摩郡檜原村","address":"西多摩郡檜原村357","lat":35.72684,"lon":139.14885},{"name":"ひのはら保育園","province":"東京都","city":"西多摩郡檜原村","address":"西多摩郡檜原村357","lat":35.72683,"lon":139.16281},{"name":"ひのはら保育園","province":"東京都","city":"西多摩郡檜原村","address":"西多摩郡檜原村357","lat":35.72684,"lon":139.14885},{"name":"ひのはら保育園","province":"東京都","city":"西多摩郡檜原村","address":"西多摩郡檜原村357","lat":35.72683,"lon":139.16281},{"name":"ひのはら保育園","province":"東京都","city":"西多摩郡檜原村","address":"西多摩郡檜原村357","lat":35.72684,"lon":139.14885},{"name":"ひのはら保育園","province":"東京都","city":"西多摩郡檜原村","address":"西多摩郡檜原村357","lat":35.72683,"lon":139.16281},{"name":"ひのはら保育園","province":"東京都","city":"西多摩郡檜原村","address":"西多摩郡檜原村357","lat":35.72684,"lon":139.14885},{"name":"ひのはら保育園","province":"東京都","city":"西多摩郡檜原村","address":"西多摩郡檜原村357","lat":35.72683,"lon":139.16281},{"name":"ひのはら保育園","province":"東京都","city":"西多摩郡檜原村","address":"西多摩郡檜原村357","lat":35.72684,"lon":139.14885},{"name":"ひのはら保育園","province":"東京都","city":"西多摩郡檜原村","address":"西多摩郡檜原村357","lat":35.72683,"lon":139.16281},{"name":"ひのはら保育園","province":"東京都","city":"西多摩郡檜原村","address":"西多摩郡檜原村357","lat":35.72684,"lon":139.14885},{"name":"ひのはら保育園","province":"東京都","city":"西多摩郡檜原村","address":"西多摩郡檜原村357","lat":35.72683,"lon":139.16281},{"name":"ひのはら保育園","province":"東京都","city":"西多摩郡檜原村","address":"西多摩郡檜原村357","lat":35.72684,"lon":139.14885},{"name":"ひのはら保育園","province":"東京都","city":"西多摩郡檜原村","address":"西多摩郡檜原村357","lat":35.72683,"lon":139.16281},{"name":"ひのはら保育園","province":"東京都","city":"西多摩郡檜原村","address":"西多摩郡檜原村357","lat":35.72684,"lon":139.14885},{"name":"ひのはら保育園","province":"東京都","city":"西多摩郡檜原村","address":"西多摩郡檜原村357","lat":35.72683,"lon":139.16281},{"name":"ひのはら保育園","province":"東京都","city":"西多摩郡檜原村","address":"西多摩郡檜原村357","lat":35.72684,"lon":139.14885},{"name":"ひのはら保育園","province":"東京都","city":"西多摩郡檜原村","address":"西多摩郡檜原村357","lat":35.72683,"lon":139.16281},{"name":"ひのはら保育園","province":"東京都","city":"西多摩郡檜原村","address":"西多摩郡檜原村357","lat":35.72684,"lon":139.14885},{"name":"ひのはら保育園","province":"東京都","city":"西多摩郡檜原村","address":"西多摩郡檜原村357","lat":35.72683,"lon":139.16281},{"name":"ひのはら保育園","province":"東京都","city":"西多摩郡檜原村","address":"西多摩郡檜原村357","lat":35.72684,"lon":139.14885},{"name":"ひのはら保育園","province":"東京都","city":"西多摩郡檜原村","address":"西多摩郡檜原村357","lat":35.72683,"lon":139.16281},{"name":"ひのはら保育園","province":"東京都","city":"西多摩郡檜原村","address":"西多摩郡檜原村357","lat":35.72684,"lon":139.14885},{"name":"ひのはら保育園","province":"東京都","city":"西多摩郡檜原村","address":"西多摩郡檜原村357","lat":35.72683,"lon":139.16281},{"name":"ひのはら保育園","province":"東京都","city":"西多摩郡檜原村","address":"西多摩郡檜原村357","lat":35.72684,"lon":139.14885},{"name":"ひのはら保育園","province":"東京都","city":"西多摩郡檜原村","address":"西多摩郡檜原村357","lat":35.72683,"lon":139.16281},{"name":"ひのはら保育園","province":"東京都","city":"西多摩郡檜原村","address":"西多摩郡檜原村357","lat":35.72684,"lon":139.14885},{"name":"ひのはら保育園","province":"東京都","city":"西多摩郡檜原村","address":"西多摩郡檜原村357","lat":35.72683,"lon":139.16281},{"name":"ひのはら保育園","province":"東京都","city":"西多摩郡檜原村","address":"西多摩郡檜原村357","lat":35.72684,"lon":139.14885},{"name":"ひのはら保育園","province":"東京都","city":"西多摩郡檜原村","address":"西多摩郡檜原村357","lat":35.72683,"lon":139.16281},{"name":"ひのはら保育園","province":"東京都","city":"西多摩郡檜原村","address":"西多摩郡檜原村357","lat":35.72684,"lon":139.14885},{"name":"ひのはら保育園","province":"東京都","city":"西多摩郡檜原村","address":"西多摩郡檜原村357","lat":35.72683,"lon":139.16281},{"name":"ひのはら保育園","province":"東京都","city":"西多摩郡檜原村","address":"西多摩郡檜原村357","lat":35.72684,"lon":139.14885},{"name":"ひのはら保育園","province":"東京都","city":"西多摩郡檜原村","address":"西多摩郡檜原村357","lat":35.72683,"lon":139.16281},{"name":"ひのはら保育園","province":"東京都","city":"西多摩郡檜原村","address":"西多摩郡檜原村357","lat":35.72684,"lon":139.14885},{"name":"ひのはら保育園","province":"東京都","city":"西多摩郡檜原村","address":"西多摩郡檜原村357","lat":35.72683,"lon":139.16281},{"name":"ひのはら保育園","province":"東京都","city":"西多摩郡檜原村","address":"西多摩郡檜原村357","lat":35.72684,"lon":139.14885},{"name":"ひのはら保育園","province":"東京都","city":"西多摩郡檜原村","address":"西多摩郡檜原村357","lat":35.72683,"lon":139.16281},{"name":"ひのはら保育園","province":"東京都","city":"西多摩郡檜原村","address":"西多摩郡檜原村357","lat":35.72684,"lon":139.14885},{"name":"ひのはら保育園","province":"東京都","city":"西多摩郡檜原村","address":"西多摩郡檜原村357","lat":35.72683,"lon":139.16281},{"name":"ひのはら保育園","province":"東京都","city":"西多摩郡檜原村","address":"西多摩郡檜原村357","lat":35.72684,"lon":139.14885},{"name":"ひのはら保育園","province":"東京都","city":"西多摩郡檜原村","address":"西多摩郡檜原村357","lat":35.72683,"lon":139.16281},{"name":"ひのはら保育園","province":"東京都","city":"西多摩郡檜原村","address":"西多摩郡檜原村357","lat":35.72684,"lon":139.14885},{"name":"ひのはら保育園","province":"東京都","city":"西多摩郡檜原村","address":"西多摩郡檜原村357","lat":35.72683,"lon":139.16281},{"name":"ひのはら保育園","province":"東京都","city":"西多摩郡檜原村","address":"西多摩郡檜原村357","lat":35.72684,"lon":139.14885},{"name":"ひのはら保育園","province":"東京都","city":"西多摩郡檜原村","address":"西多摩郡檜原村357","lat":35.72683,"lon":139.16281},{"name":"ひのはら保育園","province":"東京都","city":"西多摩郡檜原村","address":"西多摩郡檜原村357","lat":35.72684,"lon":139.14885},{"name":"ひのはら保育園","province":"東京都","city":"西多摩郡檜原村","address":"西多摩郡檜原村357","lat":35.72683,"lon":139.16281}]}