{"keyword":"戸数","data":[{"name":"檜原村社会福祉協議会","province":"東京都","city":"西多摩郡檜原村","address":"西多摩郡檜原村2717やすらぎの里内ふれあい館3階","lat":35.735446,"lon":139.14366},{"name":"檜原村社会福祉協議会","province":"東京都","city":"西多摩郡檜原村","address":"西多摩郡檜原村2717やすらぎの里ふれあい館3階","lat":35.72684,"lon":139.14885},{"name":"檜原村地域包括支援センター","province":"東京都","city":"西多摩郡檜原村","address":"西多摩郡檜原村2717","lat":35.726822,"lon":139.14888},{"name":"檜原村福祉けんこう課福祉係","province":"東京都","city":"西多摩郡檜原村","address":"西多摩郡檜原村2717","lat":35.726822,"lon":139.14888},{"name":"やすらぎの里","province":"東京都","city":"西多摩郡檜原村","address":"西多摩郡檜原村2717","lat":35.726822,"lon":139.14888},{"name":"檜原村社会福祉協議会","province":"東京都","city":"西多摩郡檜原村","address":"西多摩郡檜原村2717やすらぎの里ふれあい館3階","lat":35.72683,"lon":139.16281},{"name":"やすらぎの里（原則特異災害のみ）","province":"東京都","city":"西多摩郡檜原村","address":"東京都西多摩郡檜原村三都郷2717","lat":35.7353041,"lon":139.14364675},{"name":"檜原総合グラウンド","province":"東京都","city":"西多摩郡檜原村","address":"東京都西多摩郡檜原村三都郷","lat":35.74083426,"lon":139.13527251},{"name":"檜原村選挙管理委員会","province":"東京都","city":"西多摩郡檜原村","address":"西多摩郡檜原村467-1","lat":35.726822,"lon":139.14886},{"name":"檜原村社会福祉協議会","province":"東京都","city":"西多摩郡檜原村","address":"西多摩郡檜原村2717やすらぎの里内ふれあい館3階","lat":35.735446,"lon":139.14366},{"name":"檜原村社会福祉協議会","province":"東京都","city":"西多摩郡檜原村","address":"西多摩郡檜原村2717やすらぎの里ふれあい館3階","lat":35.72684,"lon":139.14885},{"name":"檜原村地域包括支援センター","province":"東京都","city":"西多摩郡檜原村","address":"西多摩郡檜原村2717","lat":35.726822,"lon":139.14888},{"name":"檜原村福祉けんこう課福祉係","province":"東京都","city":"西多摩郡檜原村","address":"西多摩郡檜原村2717","lat":35.726822,"lon":139.14888},{"name":"やすらぎの里","province":"東京都","city":"西多摩郡檜原村","address":"西多摩郡檜原村2717","lat":35.726822,"lon":139.14888},{"name":"檜原村社会福祉協議会","province":"東京都","city":"西多摩郡檜原村","address":"西多摩郡檜原村2717やすらぎの里ふれあい館3階","lat":35.72683,"lon":139.16281},{"name":"やすらぎの里（原則特異災害のみ）","province":"東京都","city":"西多摩郡檜原村","address":"東京都西多摩郡檜原村三都郷2717","lat":35.7353041,"lon":139.14364675},{"name":"檜原総合グラウンド","province":"東京都","city":"西多摩郡檜原村","address":"東京都西多摩郡檜原村三都郷","lat":35.74083426,"lon":139.13527251},{"name":"檜原村地域包括支援センター","province":"東京都","city":"西多摩郡檜原村","address":"西多摩郡檜原村2717","lat":35.726822,"lon":139.14888},{"name":"檜原村福祉けんこう課福祉係","province":"東京都","city":"西多摩郡檜原村","address":"西多摩郡檜原村2717","lat":35.726822,"lon":139.14888},{"name":"やすらぎの里","province":"東京都","city":"西多摩郡檜原村","address":"西多摩郡檜原村2717","lat":35.726822,"lon":139.14888},{"name":"檜原村地域包括支援センター","province":"東京都","city":"西多摩郡檜原村","address":"西多摩郡檜原村2717","lat":35.726822,"lon":139.14888},{"name":"檜原村福祉けんこう課福祉係","province":"東京都","city":"西多摩郡檜原村","address":"西多摩郡檜原村2717","lat":35.726822,"lon":139.14888},{"name":"やすらぎの里","province":"東京都","city":"西多摩郡檜原村","address":"西多摩郡檜原村2717","lat":35.726822,"lon":139.14888},{"name":"檜原村地域包括支援センター","province":"東京都","city":"西多摩郡檜原村","address":"西多摩郡檜原村2717","lat":35.726822,"lon":139.14888},{"name":"檜原村福祉けんこう課福祉係","province":"東京都","city":"西多摩郡檜原村","address":"西多摩郡檜原村2717","lat":35.726822,"lon":139.14888},{"name":"やすらぎの里","province":"東京都","city":"西多摩郡檜原村","address":"西多摩郡檜原村2717","lat":35.726822,"lon":139.14888},{"name":"檜原村地域包括支援センター","province":"東京都","city":"西多摩郡檜原村","address":"西多摩郡檜原村2717","lat":35.726822,"lon":139.14888},{"name":"檜原村福祉けんこう課福祉係","province":"東京都","city":"西多摩郡檜原村","address":"西多摩郡檜原村2717","lat":35.726822,"lon":139.14888},{"name":"やすらぎの里","province":"東京都","city":"西多摩郡檜原村","address":"西多摩郡檜原村2717","lat":35.726822,"lon":139.14888},{"name":"檜原村地域包括支援センター","province":"東京都","city":"西多摩郡檜原村","address":"西多摩郡檜原村2717","lat":35.726822,"lon":139.14888},{"name":"檜原村福祉けんこう課福祉係","province":"東京都","city":"西多摩郡檜原村","address":"西多摩郡檜原村2717","lat":35.726822,"lon":139.14888},{"name":"やすらぎの里","province":"東京都","city":"西多摩郡檜原村","address":"西多摩郡檜原村2717","lat":35.726822,"lon":139.14888},{"name":"檜原村地域包括支援センター","province":"東京都","city":"西多摩郡檜原村","address":"西多摩郡檜原村2717","lat":35.726822,"lon":139.14888},{"name":"檜原村福祉けんこう課福祉係","province":"東京都","city":"西多摩郡檜原村","address":"西多摩郡檜原村2717","lat":35.726822,"lon":139.14888},{"name":"やすらぎの里","province":"東京都","city":"西多摩郡檜原村","address":"西多摩郡檜原村2717","lat":35.726822,"lon":139.14888},{"name":"檜原村地域包括支援センター","province":"東京都","city":"西多摩郡檜原村","address":"西多摩郡檜原村2717","lat":35.726822,"lon":139.14888},{"name":"檜原村福祉けんこう課福祉係","province":"東京都","city":"西多摩郡檜原村","address":"西多摩郡檜原村2717","lat":35.726822,"lon":139.14888},{"name":"やすらぎの里","province":"東京都","city":"西多摩郡檜原村","address":"西多摩郡檜原村2717","lat":35.726822,"lon":139.14888},{"name":"檜原村地域包括支援センター","province":"東京都","city":"西多摩郡檜原村","address":"西多摩郡檜原村2717","lat":35.726822,"lon":139.14888},{"name":"檜原村福祉けんこう課福祉係","province":"東京都","city":"西多摩郡檜原村","address":"西多摩郡檜原村2717","lat":35.726822,"lon":139.14888},{"name":"やすらぎの里","province":"東京都","city":"西多摩郡檜原村","address":"西多摩郡檜原村2717","lat":35.726822,"lon":139.14888},{"name":"檜原村地域包括支援センター","province":"東京都","city":"西多摩郡檜原村","address":"西多摩郡檜原村2717","lat":35.726822,"lon":139.14888},{"name":"檜原村福祉けんこう課福祉係","province":"東京都","city":"西多摩郡檜原村","address":"西多摩郡檜原村2717","lat":35.726822,"lon":139.14888},{"name":"やすらぎの里","province":"東京都","city":"西多摩郡檜原村","address":"西多摩郡檜原村2717","lat":35.726822,"lon":139.14888},{"name":"檜原村地域包括支援センター","province":"東京都","city":"西多摩郡檜原村","address":"西多摩郡檜原村2717","lat":35.726822,"lon":139.14888},{"name":"檜原村福祉けんこう課福祉係","province":"東京都","city":"西多摩郡檜原村","address":"西多摩郡檜原村2717","lat":35.726822,"lon":139.14888},{"name":"やすらぎの里","province":"東京都","city":"西多摩郡檜原村","address":"西多摩郡檜原村2717","lat":35.726822,"lon":139.14888},{"name":"檜原村地域包括支援センター","province":"東京都","city":"西多摩郡檜原村","address":"西多摩郡檜原村2717","lat":35.726822,"lon":139.14888},{"name":"檜原村福祉けんこう課福祉係","province":"東京都","city":"西多摩郡檜原村","address":"西多摩郡檜原村2717","lat":35.726822,"lon":139.14888},{"name":"やすらぎの里","province":"東京都","city":"西多摩郡檜原村","address":"西多摩郡檜原村2717","lat":35.726822,"lon":139.14888},{"name":"檜原村地域包括支援センター","province":"東京都","city":"西多摩郡檜原村","address":"西多摩郡檜原村2717","lat":35.726822,"lon":139.14888},{"name":"檜原村福祉けんこう課福祉係","province":"東京都","city":"西多摩郡檜原村","address":"西多摩郡檜原村2717","lat":35.726822,"lon":139.14888},{"name":"やすらぎの里","province":"東京都","city":"西多摩郡檜原村","address":"西多摩郡檜原村2717","lat":35.726822,"lon":139.14888},{"name":"檜原村地域包括支援センター","province":"東京都","city":"西多摩郡檜原村","address":"西多摩郡檜原村2717","lat":35.726822,"lon":139.14888},{"name":"檜原村福祉けんこう課福祉係","province":"東京都","city":"西多摩郡檜原村","address":"西多摩郡檜原村2717","lat":35.726822,"lon":139.14888},{"name":"やすらぎの里","province":"東京都","city":"西多摩郡檜原村","address":"西多摩郡檜原村2717","lat":35.726822,"lon":139.14888},{"name":"檜原村地域包括支援センター","province":"東京都","city":"西多摩郡檜原村","address":"西多摩郡檜原村2717","lat":35.726822,"lon":139.14888},{"name":"檜原村福祉けんこう課福祉係","province":"東京都","city":"西多摩郡檜原村","address":"西多摩郡檜原村2717","lat":35.726822,"lon":139.14888},{"name":"やすらぎの里","province":"東京都","city":"西多摩郡檜原村","address":"西多摩郡檜原村2717","lat":35.726822,"lon":139.14888},{"name":"檜原村地域包括支援センター","province":"東京都","city":"西多摩郡檜原村","address":"西多摩郡檜原村2717","lat":35.726822,"lon":139.14888},{"name":"檜原村福祉けんこう課福祉係","province":"東京都","city":"西多摩郡檜原村","address":"西多摩郡檜原村2717","lat":35.726822,"lon":139.14888},{"name":"やすらぎの里","province":"東京都","city":"西多摩郡檜原村","address":"西多摩郡檜原村2717","lat":35.726822,"lon":139.14888},{"name":"檜原村地域包括支援センター","province":"東京都","city":"西多摩郡檜原村","address":"西多摩郡檜原村2717","lat":35.726822,"lon":139.14888},{"name":"檜原村福祉けんこう課福祉係","province":"東京都","city":"西多摩郡檜原村","address":"西多摩郡檜原村2717","lat":35.726822,"lon":139.14888},{"name":"やすらぎの里","province":"東京都","city":"西多摩郡檜原村","address":"西多摩郡檜原村2717","lat":35.726822,"lon":139.14888},{"name":"檜原村地域包括支援センター","province":"東京都","city":"西多摩郡檜原村","address":"西多摩郡檜原村2717","lat":35.726822,"lon":139.14888},{"name":"檜原村福祉けんこう課福祉係","province":"東京都","city":"西多摩郡檜原村","address":"西多摩郡檜原村2717","lat":35.726822,"lon":139.14888},{"name":"やすらぎの里","province":"東京都","city":"西多摩郡檜原村","address":"西多摩郡檜原村2717","lat":35.726822,"lon":139.14888},{"name":"檜原村地域包括支援センター","province":"東京都","city":"西多摩郡檜原村","address":"西多摩郡檜原村2717","lat":35.726822,"lon":139.14888},{"name":"檜原村福祉けんこう課福祉係","province":"東京都","city":"西多摩郡檜原村","address":"西多摩郡檜原村2717","lat":35.726822,"lon":139.14888},{"name":"やすらぎの里","province":"東京都","city":"西多摩郡檜原村","address":"西多摩郡檜原村2717","lat":35.726822,"lon":139.14888},{"name":"檜原村地域包括支援センター","province":"東京都","city":"西多摩郡檜原村","address":"西多摩郡檜原村2717","lat":35.726822,"lon":139.14888},{"name":"檜原村福祉けんこう課福祉係","province":"東京都","city":"西多摩郡檜原村","address":"西多摩郡檜原村2717","lat":35.726822,"lon":139.14888},{"name":"やすらぎの里","province":"東京都","city":"西多摩郡檜原村","address":"西多摩郡檜原村2717","lat":35.726822,"lon":139.14888}]}