{"keyword":"月間","data":[{"name":"檜原村子ども家庭支援センター","province":"東京都","city":"西多摩郡檜原村","address":"檜原村2717番地檜原村やすらぎの里ふれあい館内","lat":35.735393,"lon":139.143657},{"name":"檜原村子ども家庭支援センター","province":"東京都","city":"西多摩郡檜原村","address":"檜原村2717番地檜原村やすらぎの里ふれあい館内","lat":35.72684,"lon":139.14885},{"name":"檜原村子ども家庭支援センター","province":"東京都","city":"西多摩郡檜原村","address":"檜原村2717番地檜原村やすらぎの里ふれあい館内","lat":35.72683,"lon":139.16281},{"name":"檜原村子ども家庭支援センター","province":"東京都","city":"西多摩郡檜原村","address":"檜原村2717番地檜原村やすらぎの里ふれあい館内","lat":33.53778,"lon":130.38956},{"name":"やすらぎの里（原則特異災害のみ）","province":"東京都","city":"西多摩郡檜原村","address":"東京都西多摩郡檜原村三都郷2717","lat":35.7353041,"lon":139.14364675},{"name":"檜原総合グラウンド","province":"東京都","city":"西多摩郡檜原村","address":"東京都西多摩郡檜原村三都郷","lat":35.74083426,"lon":139.13527251},{"name":"桧原村本庁舎","province":"東京都","city":"西多摩郡檜原村","address":"東京都西多摩郡檜原村上元郷467-1","lat":35.72689989,"lon":139.14880216},{"name":"桧原村本庁舎","province":"東京都","city":"西多摩郡檜原村","address":"西多摩郡桧原村467-1","lat":35.72688,"lon":139.1487},{"name":"※桧原村本庁舎","province":"東京都","city":"西多摩郡檜原村","address":"東京都西多摩郡檜原村上元郷467-1","lat":35.72689989,"lon":139.14880216},{"name":"檜原村子ども家庭支援センター","province":"東京都","city":"西多摩郡檜原村","address":"檜原村2717番地檜原村やすらぎの里ふれあい館内","lat":35.735393,"lon":139.143657},{"name":"檜原村子ども家庭支援センター","province":"東京都","city":"西多摩郡檜原村","address":"檜原村2717番地檜原村やすらぎの里ふれあい館内","lat":35.72684,"lon":139.14885},{"name":"檜原村子ども家庭支援センター","province":"東京都","city":"西多摩郡檜原村","address":"檜原村2717番地檜原村やすらぎの里ふれあい館内","lat":35.72683,"lon":139.16281},{"name":"檜原村子ども家庭支援センター","province":"東京都","city":"西多摩郡檜原村","address":"檜原村2717番地檜原村やすらぎの里ふれあい館内","lat":33.53778,"lon":130.38956},{"name":"やすらぎの里（原則特異災害のみ）","province":"東京都","city":"西多摩郡檜原村","address":"東京都西多摩郡檜原村三都郷2717","lat":35.7353041,"lon":139.14364675},{"name":"檜原総合グラウンド","province":"東京都","city":"西多摩郡檜原村","address":"東京都西多摩郡檜原村三都郷","lat":35.74083426,"lon":139.13527251},{"name":"檜原村子ども家庭支援センター","province":"東京都","city":"西多摩郡檜原村","address":"檜原村2717番地檜原村やすらぎの里ふれあい館内","lat":35.735393,"lon":139.143657},{"name":"檜原村子ども家庭支援センター","province":"東京都","city":"西多摩郡檜原村","address":"檜原村2717番地檜原村やすらぎの里ふれあい館内","lat":35.72684,"lon":139.14885},{"name":"檜原村子ども家庭支援センター","province":"東京都","city":"西多摩郡檜原村","address":"檜原村2717番地檜原村やすらぎの里ふれあい館内","lat":35.72683,"lon":139.16281},{"name":"檜原村子ども家庭支援センター","province":"東京都","city":"西多摩郡檜原村","address":"檜原村2717番地檜原村やすらぎの里ふれあい館内","lat":33.53778,"lon":130.38956},{"name":"やすらぎの里（原則特異災害のみ）","province":"東京都","city":"西多摩郡檜原村","address":"東京都西多摩郡檜原村三都郷2717","lat":35.7353041,"lon":139.14364675},{"name":"檜原総合グラウンド","province":"東京都","city":"西多摩郡檜原村","address":"東京都西多摩郡檜原村三都郷","lat":35.74083426,"lon":139.13527251},{"name":"檜原村子ども家庭支援センター","province":"東京都","city":"西多摩郡檜原村","address":"檜原村2717番地檜原村やすらぎの里ふれあい館内","lat":35.735393,"lon":139.143657},{"name":"檜原村子ども家庭支援センター","province":"東京都","city":"西多摩郡檜原村","address":"檜原村2717番地檜原村やすらぎの里ふれあい館内","lat":35.72684,"lon":139.14885},{"name":"檜原村子ども家庭支援センター","province":"東京都","city":"西多摩郡檜原村","address":"檜原村2717番地檜原村やすらぎの里ふれあい館内","lat":35.72683,"lon":139.16281},{"name":"檜原村子ども家庭支援センター","province":"東京都","city":"西多摩郡檜原村","address":"檜原村2717番地檜原村やすらぎの里ふれあい館内","lat":33.53778,"lon":130.38956},{"name":"やすらぎの里（原則特異災害のみ）","province":"東京都","city":"西多摩郡檜原村","address":"東京都西多摩郡檜原村三都郷2717","lat":35.7353041,"lon":139.14364675},{"name":"檜原総合グラウンド","province":"東京都","city":"西多摩郡檜原村","address":"東京都西多摩郡檜原村三都郷","lat":35.74083426,"lon":139.13527251},{"name":"檜原村子ども家庭支援センター","province":"東京都","city":"西多摩郡檜原村","address":"檜原村2717番地檜原村やすらぎの里ふれあい館内","lat":35.735393,"lon":139.143657},{"name":"檜原村子ども家庭支援センター","province":"東京都","city":"西多摩郡檜原村","address":"檜原村2717番地檜原村やすらぎの里ふれあい館内","lat":35.72684,"lon":139.14885},{"name":"檜原村子ども家庭支援センター","province":"東京都","city":"西多摩郡檜原村","address":"檜原村2717番地檜原村やすらぎの里ふれあい館内","lat":35.72683,"lon":139.16281},{"name":"檜原村子ども家庭支援センター","province":"東京都","city":"西多摩郡檜原村","address":"檜原村2717番地檜原村やすらぎの里ふれあい館内","lat":33.53778,"lon":130.38956},{"name":"檜原村子ども家庭支援センター","province":"東京都","city":"西多摩郡檜原村","address":"檜原村2717番地檜原村やすらぎの里ふれあい館内","lat":35.735393,"lon":139.143657},{"name":"檜原村子ども家庭支援センター","province":"東京都","city":"西多摩郡檜原村","address":"檜原村2717番地檜原村やすらぎの里ふれあい館内","lat":35.72684,"lon":139.14885},{"name":"檜原村子ども家庭支援センター","province":"東京都","city":"西多摩郡檜原村","address":"檜原村2717番地檜原村やすらぎの里ふれあい館内","lat":35.72683,"lon":139.16281},{"name":"檜原村子ども家庭支援センター","province":"東京都","city":"西多摩郡檜原村","address":"檜原村2717番地檜原村やすらぎの里ふれあい館内","lat":33.53778,"lon":130.38956},{"name":"檜原村子ども家庭支援センター","province":"東京都","city":"西多摩郡檜原村","address":"檜原村2717番地檜原村やすらぎの里ふれあい館内","lat":35.735393,"lon":139.143657},{"name":"檜原村子ども家庭支援センター","province":"東京都","city":"西多摩郡檜原村","address":"檜原村2717番地檜原村やすらぎの里ふれあい館内","lat":35.72684,"lon":139.14885},{"name":"檜原村子ども家庭支援センター","province":"東京都","city":"西多摩郡檜原村","address":"檜原村2717番地檜原村やすらぎの里ふれあい館内","lat":35.72683,"lon":139.16281},{"name":"檜原村子ども家庭支援センター","province":"東京都","city":"西多摩郡檜原村","address":"檜原村2717番地檜原村やすらぎの里ふれあい館内","lat":33.53778,"lon":130.38956},{"name":"檜原村子ども家庭支援センター","province":"東京都","city":"西多摩郡檜原村","address":"檜原村2717番地檜原村やすらぎの里ふれあい館内","lat":35.735393,"lon":139.143657},{"name":"檜原村子ども家庭支援センター","province":"東京都","city":"西多摩郡檜原村","address":"檜原村2717番地檜原村やすらぎの里ふれあい館内","lat":35.72684,"lon":139.14885},{"name":"檜原村子ども家庭支援センター","province":"東京都","city":"西多摩郡檜原村","address":"檜原村2717番地檜原村やすらぎの里ふれあい館内","lat":35.72683,"lon":139.16281},{"name":"檜原村子ども家庭支援センター","province":"東京都","city":"西多摩郡檜原村","address":"檜原村2717番地檜原村やすらぎの里ふれあい館内","lat":33.53778,"lon":130.38956},{"name":"檜原村子ども家庭支援センター","province":"東京都","city":"西多摩郡檜原村","address":"檜原村2717番地檜原村やすらぎの里ふれあい館内","lat":35.735393,"lon":139.143657},{"name":"檜原村子ども家庭支援センター","province":"東京都","city":"西多摩郡檜原村","address":"檜原村2717番地檜原村やすらぎの里ふれあい館内","lat":35.72684,"lon":139.14885},{"name":"檜原村子ども家庭支援センター","province":"東京都","city":"西多摩郡檜原村","address":"檜原村2717番地檜原村やすらぎの里ふれあい館内","lat":35.72683,"lon":139.16281},{"name":"檜原村子ども家庭支援センター","province":"東京都","city":"西多摩郡檜原村","address":"檜原村2717番地檜原村やすらぎの里ふれあい館内","lat":33.53778,"lon":130.38956},{"name":"檜原村子ども家庭支援センター","province":"東京都","city":"西多摩郡檜原村","address":"檜原村2717番地檜原村やすらぎの里ふれあい館内","lat":35.735393,"lon":139.143657},{"name":"檜原村子ども家庭支援センター","province":"東京都","city":"西多摩郡檜原村","address":"檜原村2717番地檜原村やすらぎの里ふれあい館内","lat":35.72684,"lon":139.14885},{"name":"檜原村子ども家庭支援センター","province":"東京都","city":"西多摩郡檜原村","address":"檜原村2717番地檜原村やすらぎの里ふれあい館内","lat":35.72683,"lon":139.16281},{"name":"檜原村子ども家庭支援センター","province":"東京都","city":"西多摩郡檜原村","address":"檜原村2717番地檜原村やすらぎの里ふれあい館内","lat":33.53778,"lon":130.38956},{"name":"檜原村子ども家庭支援センター","province":"東京都","city":"西多摩郡檜原村","address":"檜原村2717番地檜原村やすらぎの里ふれあい館内","lat":35.735393,"lon":139.143657},{"name":"檜原村子ども家庭支援センター","province":"東京都","city":"西多摩郡檜原村","address":"檜原村2717番地檜原村やすらぎの里ふれあい館内","lat":35.72684,"lon":139.14885},{"name":"檜原村子ども家庭支援センター","province":"東京都","city":"西多摩郡檜原村","address":"檜原村2717番地檜原村やすらぎの里ふれあい館内","lat":35.72683,"lon":139.16281},{"name":"檜原村子ども家庭支援センター","province":"東京都","city":"西多摩郡檜原村","address":"檜原村2717番地檜原村やすらぎの里ふれあい館内","lat":33.53778,"lon":130.38956},{"name":"檜原村子ども家庭支援センター","province":"東京都","city":"西多摩郡檜原村","address":"檜原村2717番地檜原村やすらぎの里ふれあい館内","lat":35.735393,"lon":139.143657},{"name":"檜原村子ども家庭支援センター","province":"東京都","city":"西多摩郡檜原村","address":"檜原村2717番地檜原村やすらぎの里ふれあい館内","lat":35.72684,"lon":139.14885},{"name":"檜原村子ども家庭支援センター","province":"東京都","city":"西多摩郡檜原村","address":"檜原村2717番地檜原村やすらぎの里ふれあい館内","lat":35.72683,"lon":139.16281},{"name":"檜原村子ども家庭支援センター","province":"東京都","city":"西多摩郡檜原村","address":"檜原村2717番地檜原村やすらぎの里ふれあい館内","lat":33.53778,"lon":130.38956},{"name":"檜原村子ども家庭支援センター","province":"東京都","city":"西多摩郡檜原村","address":"檜原村2717番地檜原村やすらぎの里ふれあい館内","lat":35.735393,"lon":139.143657},{"name":"檜原村子ども家庭支援センター","province":"東京都","city":"西多摩郡檜原村","address":"檜原村2717番地檜原村やすらぎの里ふれあい館内","lat":35.72684,"lon":139.14885},{"name":"檜原村子ども家庭支援センター","province":"東京都","city":"西多摩郡檜原村","address":"檜原村2717番地檜原村やすらぎの里ふれあい館内","lat":35.72683,"lon":139.16281},{"name":"檜原村子ども家庭支援センター","province":"東京都","city":"西多摩郡檜原村","address":"檜原村2717番地檜原村やすらぎの里ふれあい館内","lat":33.53778,"lon":130.38956},{"name":"檜原村子ども家庭支援センター","province":"東京都","city":"西多摩郡檜原村","address":"檜原村2717番地檜原村やすらぎの里ふれあい館内","lat":35.735393,"lon":139.143657},{"name":"檜原村子ども家庭支援センター","province":"東京都","city":"西多摩郡檜原村","address":"檜原村2717番地檜原村やすらぎの里ふれあい館内","lat":35.72684,"lon":139.14885},{"name":"檜原村子ども家庭支援センター","province":"東京都","city":"西多摩郡檜原村","address":"檜原村2717番地檜原村やすらぎの里ふれあい館内","lat":35.72683,"lon":139.16281},{"name":"檜原村子ども家庭支援センター","province":"東京都","city":"西多摩郡檜原村","address":"檜原村2717番地檜原村やすらぎの里ふれあい館内","lat":33.53778,"lon":130.38956},{"name":"檜原村子ども家庭支援センター","province":"東京都","city":"西多摩郡檜原村","address":"檜原村2717番地檜原村やすらぎの里ふれあい館内","lat":35.735393,"lon":139.143657},{"name":"檜原村子ども家庭支援センター","province":"東京都","city":"西多摩郡檜原村","address":"檜原村2717番地檜原村やすらぎの里ふれあい館内","lat":35.72684,"lon":139.14885},{"name":"檜原村子ども家庭支援センター","province":"東京都","city":"西多摩郡檜原村","address":"檜原村2717番地檜原村やすらぎの里ふれあい館内","lat":35.72683,"lon":139.16281},{"name":"檜原村子ども家庭支援センター","province":"東京都","city":"西多摩郡檜原村","address":"檜原村2717番地檜原村やすらぎの里ふれあい館内","lat":33.53778,"lon":130.38956},{"name":"檜原村子ども家庭支援センター","province":"東京都","city":"西多摩郡檜原村","address":"檜原村2717番地檜原村やすらぎの里ふれあい館内","lat":35.735393,"lon":139.143657},{"name":"檜原村子ども家庭支援センター","province":"東京都","city":"西多摩郡檜原村","address":"檜原村2717番地檜原村やすらぎの里ふれあい館内","lat":35.72684,"lon":139.14885},{"name":"檜原村子ども家庭支援センター","province":"東京都","city":"西多摩郡檜原村","address":"檜原村2717番地檜原村やすらぎの里ふれあい館内","lat":35.72683,"lon":139.16281},{"name":"檜原村子ども家庭支援センター","province":"東京都","city":"西多摩郡檜原村","address":"檜原村2717番地檜原村やすらぎの里ふれあい館内","lat":33.53778,"lon":130.38956},{"name":"檜原村子ども家庭支援センター","province":"東京都","city":"西多摩郡檜原村","address":"檜原村2717番地檜原村やすらぎの里ふれあい館内","lat":35.735393,"lon":139.143657},{"name":"檜原村子ども家庭支援センター","province":"東京都","city":"西多摩郡檜原村","address":"檜原村2717番地檜原村やすらぎの里ふれあい館内","lat":35.72684,"lon":139.14885},{"name":"檜原村子ども家庭支援センター","province":"東京都","city":"西多摩郡檜原村","address":"檜原村2717番地檜原村やすらぎの里ふれあい館内","lat":35.72683,"lon":139.16281},{"name":"檜原村子ども家庭支援センター","province":"東京都","city":"西多摩郡檜原村","address":"檜原村2717番地檜原村やすらぎの里ふれあい館内","lat":33.53778,"lon":130.38956},{"name":"檜原村子ども家庭支援センター","province":"東京都","city":"西多摩郡檜原村","address":"檜原村2717番地檜原村やすらぎの里ふれあい館内","lat":35.735393,"lon":139.143657},{"name":"檜原村子ども家庭支援センター","province":"東京都","city":"西多摩郡檜原村","address":"檜原村2717番地檜原村やすらぎの里ふれあい館内","lat":35.72684,"lon":139.14885},{"name":"檜原村子ども家庭支援センター","province":"東京都","city":"西多摩郡檜原村","address":"檜原村2717番地檜原村やすらぎの里ふれあい館内","lat":35.72683,"lon":139.16281},{"name":"檜原村子ども家庭支援センター","province":"東京都","city":"西多摩郡檜原村","address":"檜原村2717番地檜原村やすらぎの里ふれあい館内","lat":33.53778,"lon":130.38956},{"name":"檜原村子ども家庭支援センター","province":"東京都","city":"西多摩郡檜原村","address":"檜原村2717番地檜原村やすらぎの里ふれあい館内","lat":35.735393,"lon":139.143657},{"name":"檜原村子ども家庭支援センター","province":"東京都","city":"西多摩郡檜原村","address":"檜原村2717番地檜原村やすらぎの里ふれあい館内","lat":35.72684,"lon":139.14885},{"name":"檜原村子ども家庭支援センター","province":"東京都","city":"西多摩郡檜原村","address":"檜原村2717番地檜原村やすらぎの里ふれあい館内","lat":35.72683,"lon":139.16281},{"name":"檜原村子ども家庭支援センター","province":"東京都","city":"西多摩郡檜原村","address":"檜原村2717番地檜原村やすらぎの里ふれあい館内","lat":33.53778,"lon":130.38956},{"name":"檜原村子ども家庭支援センター","province":"東京都","city":"西多摩郡檜原村","address":"檜原村2717番地檜原村やすらぎの里ふれあい館内","lat":35.735393,"lon":139.143657},{"name":"檜原村子ども家庭支援センター","province":"東京都","city":"西多摩郡檜原村","address":"檜原村2717番地檜原村やすらぎの里ふれあい館内","lat":35.72684,"lon":139.14885},{"name":"檜原村子ども家庭支援センター","province":"東京都","city":"西多摩郡檜原村","address":"檜原村2717番地檜原村やすらぎの里ふれあい館内","lat":35.72683,"lon":139.16281},{"name":"檜原村子ども家庭支援センター","province":"東京都","city":"西多摩郡檜原村","address":"檜原村2717番地檜原村やすらぎの里ふれあい館内","lat":33.53778,"lon":130.38956},{"name":"檜原村子ども家庭支援センター","province":"東京都","city":"西多摩郡檜原村","address":"檜原村2717番地檜原村やすらぎの里ふれあい館内","lat":35.735393,"lon":139.143657},{"name":"檜原村子ども家庭支援センター","province":"東京都","city":"西多摩郡檜原村","address":"檜原村2717番地檜原村やすらぎの里ふれあい館内","lat":35.72684,"lon":139.14885},{"name":"檜原村子ども家庭支援センター","province":"東京都","city":"西多摩郡檜原村","address":"檜原村2717番地檜原村やすらぎの里ふれあい館内","lat":35.72683,"lon":139.16281},{"name":"檜原村子ども家庭支援センター","province":"東京都","city":"西多摩郡檜原村","address":"檜原村2717番地檜原村やすらぎの里ふれあい館内","lat":33.53778,"lon":130.38956},{"name":"檜原村子ども家庭支援センター","province":"東京都","city":"西多摩郡檜原村","address":"檜原村2717番地檜原村やすらぎの里ふれあい館内","lat":35.735393,"lon":139.143657},{"name":"檜原村子ども家庭支援センター","province":"東京都","city":"西多摩郡檜原村","address":"檜原村2717番地檜原村やすらぎの里ふれあい館内","lat":35.72684,"lon":139.14885},{"name":"檜原村子ども家庭支援センター","province":"東京都","city":"西多摩郡檜原村","address":"檜原村2717番地檜原村やすらぎの里ふれあい館内","lat":35.72683,"lon":139.16281},{"name":"檜原村子ども家庭支援センター","province":"東京都","city":"西多摩郡檜原村","address":"檜原村2717番地檜原村やすらぎの里ふれあい館内","lat":33.53778,"lon":130.38956},{"name":"檜原村子ども家庭支援センター","province":"東京都","city":"西多摩郡檜原村","address":"檜原村2717番地檜原村やすらぎの里ふれあい館内","lat":35.735393,"lon":139.143657},{"name":"檜原村子ども家庭支援センター","province":"東京都","city":"西多摩郡檜原村","address":"檜原村2717番地檜原村やすらぎの里ふれあい館内","lat":35.72684,"lon":139.14885},{"name":"檜原村子ども家庭支援センター","province":"東京都","city":"西多摩郡檜原村","address":"檜原村2717番地檜原村やすらぎの里ふれあい館内","lat":35.72683,"lon":139.16281},{"name":"檜原村子ども家庭支援センター","province":"東京都","city":"西多摩郡檜原村","address":"檜原村2717番地檜原村やすらぎの里ふれあい館内","lat":33.53778,"lon":130.38956},{"name":"檜原村子ども家庭支援センター","province":"東京都","city":"西多摩郡檜原村","address":"檜原村2717番地檜原村やすらぎの里ふれあい館内","lat":35.735393,"lon":139.143657},{"name":"檜原村子ども家庭支援センター","province":"東京都","city":"西多摩郡檜原村","address":"檜原村2717番地檜原村やすらぎの里ふれあい館内","lat":35.72684,"lon":139.14885},{"name":"檜原村子ども家庭支援センター","province":"東京都","city":"西多摩郡檜原村","address":"檜原村2717番地檜原村やすらぎの里ふれあい館内","lat":35.72683,"lon":139.16281},{"name":"檜原村子ども家庭支援センター","province":"東京都","city":"西多摩郡檜原村","address":"檜原村2717番地檜原村やすらぎの里ふれあい館内","lat":33.53778,"lon":130.38956},{"name":"檜原村子ども家庭支援センター","province":"東京都","city":"西多摩郡檜原村","address":"檜原村2717番地檜原村やすらぎの里ふれあい館内","lat":35.735393,"lon":139.143657},{"name":"檜原村子ども家庭支援センター","province":"東京都","city":"西多摩郡檜原村","address":"檜原村2717番地檜原村やすらぎの里ふれあい館内","lat":35.72684,"lon":139.14885},{"name":"檜原村子ども家庭支援センター","province":"東京都","city":"西多摩郡檜原村","address":"檜原村2717番地檜原村やすらぎの里ふれあい館内","lat":35.72683,"lon":139.16281},{"name":"檜原村子ども家庭支援センター","province":"東京都","city":"西多摩郡檜原村","address":"檜原村2717番地檜原村やすらぎの里ふれあい館内","lat":33.53778,"lon":130.38956},{"name":"檜原村子ども家庭支援センター","province":"東京都","city":"西多摩郡檜原村","address":"檜原村2717番地檜原村やすらぎの里ふれあい館内","lat":35.735393,"lon":139.143657},{"name":"檜原村子ども家庭支援センター","province":"東京都","city":"西多摩郡檜原村","address":"檜原村2717番地檜原村やすらぎの里ふれあい館内","lat":35.72684,"lon":139.14885},{"name":"檜原村子ども家庭支援センター","province":"東京都","city":"西多摩郡檜原村","address":"檜原村2717番地檜原村やすらぎの里ふれあい館内","lat":35.72683,"lon":139.16281},{"name":"檜原村子ども家庭支援センター","province":"東京都","city":"西多摩郡檜原村","address":"檜原村2717番地檜原村やすらぎの里ふれあい館内","lat":33.53778,"lon":130.38956},{"name":"檜原村子ども家庭支援センター","province":"東京都","city":"西多摩郡檜原村","address":"檜原村2717番地檜原村やすらぎの里ふれあい館内","lat":35.735393,"lon":139.143657},{"name":"檜原村子ども家庭支援センター","province":"東京都","city":"西多摩郡檜原村","address":"檜原村2717番地檜原村やすらぎの里ふれあい館内","lat":35.72684,"lon":139.14885},{"name":"檜原村子ども家庭支援センター","province":"東京都","city":"西多摩郡檜原村","address":"檜原村2717番地檜原村やすらぎの里ふれあい館内","lat":35.72683,"lon":139.16281},{"name":"檜原村子ども家庭支援センター","province":"東京都","city":"西多摩郡檜原村","address":"檜原村2717番地檜原村やすらぎの里ふれあい館内","lat":33.53778,"lon":130.38956},{"name":"檜原村子ども家庭支援センター","province":"東京都","city":"西多摩郡檜原村","address":"檜原村2717番地檜原村やすらぎの里ふれあい館内","lat":35.735393,"lon":139.143657},{"name":"檜原村子ども家庭支援センター","province":"東京都","city":"西多摩郡檜原村","address":"檜原村2717番地檜原村やすらぎの里ふれあい館内","lat":35.72684,"lon":139.14885},{"name":"檜原村子ども家庭支援センター","province":"東京都","city":"西多摩郡檜原村","address":"檜原村2717番地檜原村やすらぎの里ふれあい館内","lat":35.72683,"lon":139.16281},{"name":"檜原村子ども家庭支援センター","province":"東京都","city":"西多摩郡檜原村","address":"檜原村2717番地檜原村やすらぎの里ふれあい館内","lat":33.53778,"lon":130.38956},{"name":"檜原村子ども家庭支援センター","province":"東京都","city":"西多摩郡檜原村","address":"檜原村2717番地檜原村やすらぎの里ふれあい館内","lat":35.735393,"lon":139.143657},{"name":"檜原村子ども家庭支援センター","province":"東京都","city":"西多摩郡檜原村","address":"檜原村2717番地檜原村やすらぎの里ふれあい館内","lat":35.72684,"lon":139.14885},{"name":"檜原村子ども家庭支援センター","province":"東京都","city":"西多摩郡檜原村","address":"檜原村2717番地檜原村やすらぎの里ふれあい館内","lat":35.72683,"lon":139.16281},{"name":"檜原村子ども家庭支援センター","province":"東京都","city":"西多摩郡檜原村","address":"檜原村2717番地檜原村やすらぎの里ふれあい館内","lat":33.53778,"lon":130.38956},{"name":"檜原村子ども家庭支援センター","province":"東京都","city":"西多摩郡檜原村","address":"檜原村2717番地檜原村やすらぎの里ふれあい館内","lat":35.735393,"lon":139.143657},{"name":"檜原村子ども家庭支援センター","province":"東京都","city":"西多摩郡檜原村","address":"檜原村2717番地檜原村やすらぎの里ふれあい館内","lat":35.72684,"lon":139.14885},{"name":"檜原村子ども家庭支援センター","province":"東京都","city":"西多摩郡檜原村","address":"檜原村2717番地檜原村やすらぎの里ふれあい館内","lat":35.72683,"lon":139.16281},{"name":"檜原村子ども家庭支援センター","province":"東京都","city":"西多摩郡檜原村","address":"檜原村2717番地檜原村やすらぎの里ふれあい館内","lat":33.53778,"lon":130.38956},{"name":"檜原村子ども家庭支援センター","province":"東京都","city":"西多摩郡檜原村","address":"檜原村2717番地檜原村やすらぎの里ふれあい館内","lat":35.735393,"lon":139.143657},{"name":"檜原村子ども家庭支援センター","province":"東京都","city":"西多摩郡檜原村","address":"檜原村2717番地檜原村やすらぎの里ふれあい館内","lat":35.72684,"lon":139.14885},{"name":"檜原村子ども家庭支援センター","province":"東京都","city":"西多摩郡檜原村","address":"檜原村2717番地檜原村やすらぎの里ふれあい館内","lat":35.72683,"lon":139.16281},{"name":"檜原村子ども家庭支援センター","province":"東京都","city":"西多摩郡檜原村","address":"檜原村2717番地檜原村やすらぎの里ふれあい館内","lat":33.53778,"lon":130.38956},{"name":"檜原村子ども家庭支援センター","province":"東京都","city":"西多摩郡檜原村","address":"檜原村2717番地檜原村やすらぎの里ふれあい館内","lat":35.735393,"lon":139.143657},{"name":"檜原村子ども家庭支援センター","province":"東京都","city":"西多摩郡檜原村","address":"檜原村2717番地檜原村やすらぎの里ふれあい館内","lat":35.72684,"lon":139.14885},{"name":"檜原村子ども家庭支援センター","province":"東京都","city":"西多摩郡檜原村","address":"檜原村2717番地檜原村やすらぎの里ふれあい館内","lat":35.72683,"lon":139.16281},{"name":"檜原村子ども家庭支援センター","province":"東京都","city":"西多摩郡檜原村","address":"檜原村2717番地檜原村やすらぎの里ふれあい館内","lat":33.53778,"lon":130.38956},{"name":"檜原村子ども家庭支援センター","province":"東京都","city":"西多摩郡檜原村","address":"檜原村2717番地檜原村やすらぎの里ふれあい館内","lat":35.735393,"lon":139.143657},{"name":"檜原村子ども家庭支援センター","province":"東京都","city":"西多摩郡檜原村","address":"檜原村2717番地檜原村やすらぎの里ふれあい館内","lat":35.72684,"lon":139.14885},{"name":"檜原村子ども家庭支援センター","province":"東京都","city":"西多摩郡檜原村","address":"檜原村2717番地檜原村やすらぎの里ふれあい館内","lat":35.72683,"lon":139.16281},{"name":"檜原村子ども家庭支援センター","province":"東京都","city":"西多摩郡檜原村","address":"檜原村2717番地檜原村やすらぎの里ふれあい館内","lat":33.53778,"lon":130.38956},{"name":"檜原村子ども家庭支援センター","province":"東京都","city":"西多摩郡檜原村","address":"檜原村2717番地檜原村やすらぎの里ふれあい館内","lat":35.735393,"lon":139.143657},{"name":"檜原村子ども家庭支援センター","province":"東京都","city":"西多摩郡檜原村","address":"檜原村2717番地檜原村やすらぎの里ふれあい館内","lat":35.72684,"lon":139.14885},{"name":"檜原村子ども家庭支援センター","province":"東京都","city":"西多摩郡檜原村","address":"檜原村2717番地檜原村やすらぎの里ふれあい館内","lat":35.72683,"lon":139.16281},{"name":"檜原村子ども家庭支援センター","province":"東京都","city":"西多摩郡檜原村","address":"檜原村2717番地檜原村やすらぎの里ふれあい館内","lat":33.53778,"lon":130.38956},{"name":"檜原村子ども家庭支援センター","province":"東京都","city":"西多摩郡檜原村","address":"檜原村2717番地檜原村やすらぎの里ふれあい館内","lat":35.735393,"lon":139.143657},{"name":"檜原村子ども家庭支援センター","province":"東京都","city":"西多摩郡檜原村","address":"檜原村2717番地檜原村やすらぎの里ふれあい館内","lat":35.72684,"lon":139.14885},{"name":"檜原村子ども家庭支援センター","province":"東京都","city":"西多摩郡檜原村","address":"檜原村2717番地檜原村やすらぎの里ふれあい館内","lat":35.72683,"lon":139.16281},{"name":"檜原村子ども家庭支援センター","province":"東京都","city":"西多摩郡檜原村","address":"檜原村2717番地檜原村やすらぎの里ふれあい館内","lat":33.53778,"lon":130.38956},{"name":"檜原村子ども家庭支援センター","province":"東京都","city":"西多摩郡檜原村","address":"檜原村2717番地檜原村やすらぎの里ふれあい館内","lat":35.735393,"lon":139.143657},{"name":"檜原村子ども家庭支援センター","province":"東京都","city":"西多摩郡檜原村","address":"檜原村2717番地檜原村やすらぎの里ふれあい館内","lat":35.72684,"lon":139.14885},{"name":"檜原村子ども家庭支援センター","province":"東京都","city":"西多摩郡檜原村","address":"檜原村2717番地檜原村やすらぎの里ふれあい館内","lat":35.72683,"lon":139.16281},{"name":"檜原村子ども家庭支援センター","province":"東京都","city":"西多摩郡檜原村","address":"檜原村2717番地檜原村やすらぎの里ふれあい館内","lat":33.53778,"lon":130.38956},{"name":"檜原村子ども家庭支援センター","province":"東京都","city":"西多摩郡檜原村","address":"檜原村2717番地檜原村やすらぎの里ふれあい館内","lat":35.735393,"lon":139.143657},{"name":"檜原村子ども家庭支援センター","province":"東京都","city":"西多摩郡檜原村","address":"檜原村2717番地檜原村やすらぎの里ふれあい館内","lat":35.72684,"lon":139.14885},{"name":"檜原村子ども家庭支援センター","province":"東京都","city":"西多摩郡檜原村","address":"檜原村2717番地檜原村やすらぎの里ふれあい館内","lat":35.72683,"lon":139.16281},{"name":"檜原村子ども家庭支援センター","province":"東京都","city":"西多摩郡檜原村","address":"檜原村2717番地檜原村やすらぎの里ふれあい館内","lat":33.53778,"lon":130.38956},{"name":"檜原村子ども家庭支援センター","province":"東京都","city":"西多摩郡檜原村","address":"檜原村2717番地檜原村やすらぎの里ふれあい館内","lat":35.735393,"lon":139.143657},{"name":"檜原村子ども家庭支援センター","province":"東京都","city":"西多摩郡檜原村","address":"檜原村2717番地檜原村やすらぎの里ふれあい館内","lat":35.72684,"lon":139.14885},{"name":"檜原村子ども家庭支援センター","province":"東京都","city":"西多摩郡檜原村","address":"檜原村2717番地檜原村やすらぎの里ふれあい館内","lat":35.72683,"lon":139.16281},{"name":"檜原村子ども家庭支援センター","province":"東京都","city":"西多摩郡檜原村","address":"檜原村2717番地檜原村やすらぎの里ふれあい館内","lat":33.53778,"lon":130.38956},{"name":"檜原村子ども家庭支援センター","province":"東京都","city":"西多摩郡檜原村","address":"檜原村2717番地檜原村やすらぎの里ふれあい館内","lat":35.735393,"lon":139.143657},{"name":"檜原村子ども家庭支援センター","province":"東京都","city":"西多摩郡檜原村","address":"檜原村2717番地檜原村やすらぎの里ふれあい館内","lat":35.72684,"lon":139.14885},{"name":"檜原村子ども家庭支援センター","province":"東京都","city":"西多摩郡檜原村","address":"檜原村2717番地檜原村やすらぎの里ふれあい館内","lat":35.72683,"lon":139.16281},{"name":"檜原村子ども家庭支援センター","province":"東京都","city":"西多摩郡檜原村","address":"檜原村2717番地檜原村やすらぎの里ふれあい館内","lat":33.53778,"lon":130.38956},{"name":"檜原村子ども家庭支援センター","province":"東京都","city":"西多摩郡檜原村","address":"檜原村2717番地檜原村やすらぎの里ふれあい館内","lat":35.735393,"lon":139.143657},{"name":"檜原村子ども家庭支援センター","province":"東京都","city":"西多摩郡檜原村","address":"檜原村2717番地檜原村やすらぎの里ふれあい館内","lat":35.72684,"lon":139.14885},{"name":"檜原村子ども家庭支援センター","province":"東京都","city":"西多摩郡檜原村","address":"檜原村2717番地檜原村やすらぎの里ふれあい館内","lat":35.72683,"lon":139.16281},{"name":"檜原村子ども家庭支援センター","province":"東京都","city":"西多摩郡檜原村","address":"檜原村2717番地檜原村やすらぎの里ふれあい館内","lat":33.53778,"lon":130.38956},{"name":"檜原村子ども家庭支援センター","province":"東京都","city":"西多摩郡檜原村","address":"檜原村2717番地檜原村やすらぎの里ふれあい館内","lat":35.735393,"lon":139.143657},{"name":"檜原村子ども家庭支援センター","province":"東京都","city":"西多摩郡檜原村","address":"檜原村2717番地檜原村やすらぎの里ふれあい館内","lat":35.72684,"lon":139.14885},{"name":"檜原村子ども家庭支援センター","province":"東京都","city":"西多摩郡檜原村","address":"檜原村2717番地檜原村やすらぎの里ふれあい館内","lat":35.72683,"lon":139.16281},{"name":"檜原村子ども家庭支援センター","province":"東京都","city":"西多摩郡檜原村","address":"檜原村2717番地檜原村やすらぎの里ふれあい館内","lat":33.53778,"lon":130.38956},{"name":"檜原村子ども家庭支援センター","province":"東京都","city":"西多摩郡檜原村","address":"檜原村2717番地檜原村やすらぎの里ふれあい館内","lat":35.735393,"lon":139.143657},{"name":"檜原村子ども家庭支援センター","province":"東京都","city":"西多摩郡檜原村","address":"檜原村2717番地檜原村やすらぎの里ふれあい館内","lat":35.72684,"lon":139.14885},{"name":"檜原村子ども家庭支援センター","province":"東京都","city":"西多摩郡檜原村","address":"檜原村2717番地檜原村やすらぎの里ふれあい館内","lat":35.72683,"lon":139.16281},{"name":"檜原村子ども家庭支援センター","province":"東京都","city":"西多摩郡檜原村","address":"檜原村2717番地檜原村やすらぎの里ふれあい館内","lat":33.53778,"lon":130.38956},{"name":"檜原村子ども家庭支援センター","province":"東京都","city":"西多摩郡檜原村","address":"檜原村2717番地檜原村やすらぎの里ふれあい館内","lat":35.735393,"lon":139.143657},{"name":"檜原村子ども家庭支援センター","province":"東京都","city":"西多摩郡檜原村","address":"檜原村2717番地檜原村やすらぎの里ふれあい館内","lat":35.72684,"lon":139.14885},{"name":"檜原村子ども家庭支援センター","province":"東京都","city":"西多摩郡檜原村","address":"檜原村2717番地檜原村やすらぎの里ふれあい館内","lat":35.72683,"lon":139.16281},{"name":"檜原村子ども家庭支援センター","province":"東京都","city":"西多摩郡檜原村","address":"檜原村2717番地檜原村やすらぎの里ふれあい館内","lat":33.53778,"lon":130.38956},{"name":"檜原村子ども家庭支援センター","province":"東京都","city":"西多摩郡檜原村","address":"檜原村2717番地檜原村やすらぎの里ふれあい館内","lat":35.735393,"lon":139.143657},{"name":"檜原村子ども家庭支援センター","province":"東京都","city":"西多摩郡檜原村","address":"檜原村2717番地檜原村やすらぎの里ふれあい館内","lat":35.72684,"lon":139.14885},{"name":"檜原村子ども家庭支援センター","province":"東京都","city":"西多摩郡檜原村","address":"檜原村2717番地檜原村やすらぎの里ふれあい館内","lat":35.72683,"lon":139.16281},{"name":"檜原村子ども家庭支援センター","province":"東京都","city":"西多摩郡檜原村","address":"檜原村2717番地檜原村やすらぎの里ふれあい館内","lat":33.53778,"lon":130.38956},{"name":"檜原村子ども家庭支援センター","province":"東京都","city":"西多摩郡檜原村","address":"檜原村2717番地檜原村やすらぎの里ふれあい館内","lat":35.735393,"lon":139.143657},{"name":"檜原村子ども家庭支援センター","province":"東京都","city":"西多摩郡檜原村","address":"檜原村2717番地檜原村やすらぎの里ふれあい館内","lat":35.72684,"lon":139.14885},{"name":"檜原村子ども家庭支援センター","province":"東京都","city":"西多摩郡檜原村","address":"檜原村2717番地檜原村やすらぎの里ふれあい館内","lat":35.72683,"lon":139.16281},{"name":"檜原村子ども家庭支援センター","province":"東京都","city":"西多摩郡檜原村","address":"檜原村2717番地檜原村やすらぎの里ふれあい館内","lat":33.53778,"lon":130.38956},{"name":"檜原村子ども家庭支援センター","province":"東京都","city":"西多摩郡檜原村","address":"檜原村2717番地檜原村やすらぎの里ふれあい館内","lat":35.735393,"lon":139.143657},{"name":"檜原村子ども家庭支援センター","province":"東京都","city":"西多摩郡檜原村","address":"檜原村2717番地檜原村やすらぎの里ふれあい館内","lat":35.72684,"lon":139.14885},{"name":"檜原村子ども家庭支援センター","province":"東京都","city":"西多摩郡檜原村","address":"檜原村2717番地檜原村やすらぎの里ふれあい館内","lat":35.72683,"lon":139.16281},{"name":"檜原村子ども家庭支援センター","province":"東京都","city":"西多摩郡檜原村","address":"檜原村2717番地檜原村やすらぎの里ふれあい館内","lat":33.53778,"lon":130.38956},{"name":"檜原村子ども家庭支援センター","province":"東京都","city":"西多摩郡檜原村","address":"檜原村2717番地檜原村やすらぎの里ふれあい館内","lat":35.735393,"lon":139.143657},{"name":"檜原村子ども家庭支援センター","province":"東京都","city":"西多摩郡檜原村","address":"檜原村2717番地檜原村やすらぎの里ふれあい館内","lat":35.72684,"lon":139.14885},{"name":"檜原村子ども家庭支援センター","province":"東京都","city":"西多摩郡檜原村","address":"檜原村2717番地檜原村やすらぎの里ふれあい館内","lat":35.72683,"lon":139.16281},{"name":"檜原村子ども家庭支援センター","province":"東京都","city":"西多摩郡檜原村","address":"檜原村2717番地檜原村やすらぎの里ふれあい館内","lat":33.53778,"lon":130.38956},{"name":"檜原村子ども家庭支援センター","province":"東京都","city":"西多摩郡檜原村","address":"檜原村2717番地檜原村やすらぎの里ふれあい館内","lat":35.735393,"lon":139.143657},{"name":"檜原村子ども家庭支援センター","province":"東京都","city":"西多摩郡檜原村","address":"檜原村2717番地檜原村やすらぎの里ふれあい館内","lat":35.72684,"lon":139.14885},{"name":"檜原村子ども家庭支援センター","province":"東京都","city":"西多摩郡檜原村","address":"檜原村2717番地檜原村やすらぎの里ふれあい館内","lat":35.72683,"lon":139.16281},{"name":"檜原村子ども家庭支援センター","province":"東京都","city":"西多摩郡檜原村","address":"檜原村2717番地檜原村やすらぎの里ふれあい館内","lat":33.53778,"lon":130.38956},{"name":"檜原村子ども家庭支援センター","province":"東京都","city":"西多摩郡檜原村","address":"檜原村2717番地檜原村やすらぎの里ふれあい館内","lat":35.735393,"lon":139.143657},{"name":"檜原村子ども家庭支援センター","province":"東京都","city":"西多摩郡檜原村","address":"檜原村2717番地檜原村やすらぎの里ふれあい館内","lat":35.72684,"lon":139.14885},{"name":"檜原村子ども家庭支援センター","province":"東京都","city":"西多摩郡檜原村","address":"檜原村2717番地檜原村やすらぎの里ふれあい館内","lat":35.72683,"lon":139.16281},{"name":"檜原村子ども家庭支援センター","province":"東京都","city":"西多摩郡檜原村","address":"檜原村2717番地檜原村やすらぎの里ふれあい館内","lat":33.53778,"lon":130.38956},{"name":"檜原村子ども家庭支援センター","province":"東京都","city":"西多摩郡檜原村","address":"檜原村2717番地檜原村やすらぎの里ふれあい館内","lat":35.735393,"lon":139.143657},{"name":"檜原村子ども家庭支援センター","province":"東京都","city":"西多摩郡檜原村","address":"檜原村2717番地檜原村やすらぎの里ふれあい館内","lat":35.72684,"lon":139.14885},{"name":"檜原村子ども家庭支援センター","province":"東京都","city":"西多摩郡檜原村","address":"檜原村2717番地檜原村やすらぎの里ふれあい館内","lat":35.72683,"lon":139.16281},{"name":"檜原村子ども家庭支援センター","province":"東京都","city":"西多摩郡檜原村","address":"檜原村2717番地檜原村やすらぎの里ふれあい館内","lat":33.53778,"lon":130.38956}]}