{"keyword":"椅子","data":[{"name":"神戸岩園地","province":"東京都","city":"西多摩郡檜原村","address":"東京都西多摩郡檜原村神戸","lat":35.746349,"lon":139.121862},{"name":"数馬広場","province":"東京都","city":"西多摩郡檜原村","address":"東京都西多摩郡檜原村数馬","lat":35.726315,"lon":139.050323},{"name":"払沢の滝園地","province":"東京都","city":"西多摩郡檜原村","address":"東京都西多摩郡檜原村本宿","lat":35.729889,"lon":139.14174},{"name":"檜原都民の森","province":"東京都","city":"西多摩郡檜原村","address":"東京都西多摩郡檜原村数馬","lat":35.737874,"lon":139.031015},{"name":"檜原都民の森","province":"東京都","city":"西多摩郡檜原村","address":"東京都西多摩郡檜原村数馬","lat":35.739826,"lon":139.029075},{"name":"檜原村役場","province":"東京都","city":"西多摩郡檜原村","address":"東京都西多摩郡檜原村上元郷467-1","lat":35.726725,"lon":139.149063},{"name":"やすらぎの里","province":"東京都","city":"西多摩郡檜原村","address":"東京都西多摩郡檜原村三都郷2717","lat":35.735384,"lon":139.143736},{"name":"やすらぎの里","province":"東京都","city":"西多摩郡檜原村","address":"東京都西多摩郡檜原村三都郷2717","lat":35.735381,"lon":139.143716},{"name":"やすらぎの里","province":"東京都","city":"西多摩郡檜原村","address":"東京都西多摩郡檜原村三都郷2717","lat":35.735351,"lon":139.143718},{"name":"下元郷公衆トイレ","province":"東京都","city":"西多摩郡檜原村","address":"東京都西多摩郡檜原村下元郷","lat":35.723842,"lon":139.159626},{"name":"払沢の滝入口バス停公衆トイレ","province":"東京都","city":"西多摩郡檜原村","address":"東京都西多摩郡檜原村本宿","lat":35.729807,"lon":139.143798},{"name":"小岩公衆トイレ","province":"東京都","city":"西多摩郡檜原村","address":"東京都西多摩郡檜原村樋里","lat":35.731549,"lon":139.112796},{"name":"人里公衆トイレ","province":"東京都","city":"西多摩郡檜原村","address":"東京都西多摩郡檜原村人里","lat":35.713407,"lon":139.088362}]}