{"keyword":"男女","data":[{"name":"ひのはら保育園","province":"東京都","city":"西多摩郡檜原村","address":"西多摩郡檜原村357","lat":35.727678,"lon":139.152435},{"name":"檜原村やすらぎの里","province":"東京都","city":"西多摩郡檜原村","address":"西多摩郡檜原村2717","lat":35.735304,"lon":139.143647},{"name":"神戸岩園地","province":"東京都","city":"西多摩郡檜原村","address":"東京都西多摩郡檜原村神戸","lat":35.746349,"lon":139.121862},{"name":"数馬広場","province":"東京都","city":"西多摩郡檜原村","address":"東京都西多摩郡檜原村数馬","lat":35.726315,"lon":139.050323},{"name":"払沢の滝園地","province":"東京都","city":"西多摩郡檜原村","address":"東京都西多摩郡檜原村本宿","lat":35.729889,"lon":139.14174},{"name":"檜原都民の森","province":"東京都","city":"西多摩郡檜原村","address":"東京都西多摩郡檜原村数馬","lat":35.737874,"lon":139.031015},{"name":"檜原都民の森","province":"東京都","city":"西多摩郡檜原村","address":"東京都西多摩郡檜原村数馬","lat":35.739826,"lon":139.029075},{"name":"檜原村役場","province":"東京都","city":"西多摩郡檜原村","address":"東京都西多摩郡檜原村上元郷467-1","lat":35.726725,"lon":139.149063},{"name":"やすらぎの里","province":"東京都","city":"西多摩郡檜原村","address":"東京都西多摩郡檜原村三都郷2717","lat":35.735384,"lon":139.143736},{"name":"やすらぎの里","province":"東京都","city":"西多摩郡檜原村","address":"東京都西多摩郡檜原村三都郷2717","lat":35.735381,"lon":139.143716},{"name":"やすらぎの里","province":"東京都","city":"西多摩郡檜原村","address":"東京都西多摩郡檜原村三都郷2717","lat":35.735351,"lon":139.143718},{"name":"下元郷公衆トイレ","province":"東京都","city":"西多摩郡檜原村","address":"東京都西多摩郡檜原村下元郷","lat":35.723842,"lon":139.159626},{"name":"払沢の滝入口バス停公衆トイレ","province":"東京都","city":"西多摩郡檜原村","address":"東京都西多摩郡檜原村本宿","lat":35.729807,"lon":139.143798},{"name":"小岩公衆トイレ","province":"東京都","city":"西多摩郡檜原村","address":"東京都西多摩郡檜原村樋里","lat":35.731549,"lon":139.112796},{"name":"人里公衆トイレ","province":"東京都","city":"西多摩郡檜原村","address":"東京都西多摩郡檜原村人里","lat":35.713407,"lon":139.088362},{"name":"檜原村図書館","province":"東京都","city":"西多摩郡檜原村","address":"東京都西多摩郡檜原村本宿621-1","lat":35.73074655,"lon":139.14348588},{"name":"ひのはら保育園","province":"東京都","city":"西多摩郡檜原村","address":"西多摩郡檜原村357","lat":35.72684,"lon":139.14885},{"name":"檜原村地域包括支援センター","province":"東京都","city":"西多摩郡檜原村","address":"西多摩郡檜原村2717","lat":35.726822,"lon":139.14888},{"name":"檜原村福祉けんこう課福祉係","province":"東京都","city":"西多摩郡檜原村","address":"西多摩郡檜原村2717","lat":35.726822,"lon":139.14888},{"name":"やすらぎの里","province":"東京都","city":"西多摩郡檜原村","address":"西多摩郡檜原村2717","lat":35.726822,"lon":139.14888},{"name":"ひのきのその","province":"東京都","city":"西多摩郡檜原村","address":"東京都西多摩郡檜原村下元郷5354-6","lat":35.72581401,"lon":139.1596734},{"name":"ひのはら保育園","province":"東京都","city":"西多摩郡檜原村","address":"西多摩郡檜原村357","lat":35.72683,"lon":139.16281},{"name":"やすらぎの里（原則特異災害のみ）","province":"東京都","city":"西多摩郡檜原村","address":"東京都西多摩郡檜原村三都郷2717","lat":35.7353041,"lon":139.14364675},{"name":"檜原総合グラウンド","province":"東京都","city":"西多摩郡檜原村","address":"東京都西多摩郡檜原村三都郷","lat":35.74083426,"lon":139.13527251},{"name":"ひのはらユースホステル","province":"東京都","city":"西多摩郡檜原村","address":"西多摩郡檜原村7779-10","lat":35.72361966,"lon":139.1520472},{"name":"＊?郷土資料館","province":"東京都","city":"西多摩郡檜原村","address":"西多摩郡檜原村3221","lat":35.743475,"lon":139.130033},{"name":"桧原村本庁舎","province":"東京都","city":"西多摩郡檜原村","address":"東京都西多摩郡檜原村上元郷467-1","lat":35.72689989,"lon":139.14880216},{"name":"桧原村本庁舎","province":"東京都","city":"西多摩郡檜原村","address":"西多摩郡桧原村467-1","lat":35.72688,"lon":139.1487},{"name":"※桧原村本庁舎","province":"東京都","city":"西多摩郡檜原村","address":"東京都西多摩郡檜原村上元郷467-1","lat":35.72689989,"lon":139.14880216},{"name":"檜原村図書館","province":"東京都","city":"西多摩郡檜原村","address":"東京都西多摩郡檜原村本宿621-1","lat":35.73074655,"lon":139.14348588},{"name":"檜原村地域包括支援センター","province":"東京都","city":"西多摩郡檜原村","address":"西多摩郡檜原村2717","lat":35.726822,"lon":139.14888},{"name":"檜原村福祉けんこう課福祉係","province":"東京都","city":"西多摩郡檜原村","address":"西多摩郡檜原村2717","lat":35.726822,"lon":139.14888},{"name":"やすらぎの里","province":"東京都","city":"西多摩郡檜原村","address":"西多摩郡檜原村2717","lat":35.726822,"lon":139.14888},{"name":"ひのはらユースホステル","province":"東京都","city":"西多摩郡檜原村","address":"西多摩郡檜原村7779-10","lat":35.72361966,"lon":139.1520472},{"name":"＊?郷土資料館","province":"東京都","city":"西多摩郡檜原村","address":"西多摩郡檜原村3221","lat":35.743475,"lon":139.130033},{"name":"檜原村図書館","province":"東京都","city":"西多摩郡檜原村","address":"東京都西多摩郡檜原村本宿621-1","lat":35.73074655,"lon":139.14348588},{"name":"檜原村地域包括支援センター","province":"東京都","city":"西多摩郡檜原村","address":"西多摩郡檜原村2717","lat":35.726822,"lon":139.14888},{"name":"檜原村福祉けんこう課福祉係","province":"東京都","city":"西多摩郡檜原村","address":"西多摩郡檜原村2717","lat":35.726822,"lon":139.14888},{"name":"やすらぎの里","province":"東京都","city":"西多摩郡檜原村","address":"西多摩郡檜原村2717","lat":35.726822,"lon":139.14888},{"name":"ひのはらユースホステル","province":"東京都","city":"西多摩郡檜原村","address":"西多摩郡檜原村7779-10","lat":35.72361966,"lon":139.1520472},{"name":"＊?郷土資料館","province":"東京都","city":"西多摩郡檜原村","address":"西多摩郡檜原村3221","lat":35.743475,"lon":139.130033},{"name":"檜原村図書館","province":"東京都","city":"西多摩郡檜原村","address":"東京都西多摩郡檜原村本宿621-1","lat":35.73074655,"lon":139.14348588},{"name":"ひのはらユースホステル","province":"東京都","city":"西多摩郡檜原村","address":"西多摩郡檜原村7779-10","lat":35.72361966,"lon":139.1520472},{"name":"＊?郷土資料館","province":"東京都","city":"西多摩郡檜原村","address":"西多摩郡檜原村3221","lat":35.743475,"lon":139.130033},{"name":"檜原村図書館","province":"東京都","city":"西多摩郡檜原村","address":"東京都西多摩郡檜原村本宿621-1","lat":35.73074655,"lon":139.14348588},{"name":"ひのはらユースホステル","province":"東京都","city":"西多摩郡檜原村","address":"西多摩郡檜原村7779-10","lat":35.72361966,"lon":139.1520472},{"name":"＊?郷土資料館","province":"東京都","city":"西多摩郡檜原村","address":"西多摩郡檜原村3221","lat":35.743475,"lon":139.130033},{"name":"ひのはらユースホステル","province":"東京都","city":"西多摩郡檜原村","address":"西多摩郡檜原村7779-10","lat":35.72361966,"lon":139.1520472},{"name":"ひのはらユースホステル","province":"東京都","city":"西多摩郡檜原村","address":"西多摩郡檜原村7779-10","lat":35.72361966,"lon":139.1520472},{"name":"ひのはらユースホステル","province":"東京都","city":"西多摩郡檜原村","address":"西多摩郡檜原村7779-10","lat":35.72361966,"lon":139.1520472},{"name":"ひのはらユースホステル","province":"東京都","city":"西多摩郡檜原村","address":"西多摩郡檜原村7779-10","lat":35.72361966,"lon":139.1520472}]}