{"keyword":"医薬","data":[{"name":"中原すくすく児童遊園","province":"千葉県","city":"柏市","address":"千葉県柏市中原1丁目26-13","lat":35.82510756,"lon":139.96721289},{"name":"市立中原公園","province":"千葉県","city":"柏市","address":"千葉県柏市中原2丁目21-4","lat":35.82366056,"lon":139.9675074},{"name":"中原すくすく児童遊園","province":"千葉県","city":"柏市","address":"千葉県柏市中原1丁目26-13","lat":35.82510756,"lon":139.96721289},{"name":"中原すくすく児童遊園","province":"千葉県","city":"柏市","address":"千葉県柏市中原1丁目26-13","lat":35.82510756,"lon":139.96721289},{"name":"中原すくすく児童遊園","province":"千葉県","city":"柏市","address":"千葉県柏市中原1丁目26-13","lat":35.82510756,"lon":139.96721289},{"name":"中原すくすく児童遊園","province":"千葉県","city":"柏市","address":"千葉県柏市中原1丁目26-13","lat":35.82510756,"lon":139.96721289},{"name":"中原すくすく児童遊園","province":"千葉県","city":"柏市","address":"千葉県柏市中原1丁目26-13","lat":35.82510756,"lon":139.96721289},{"name":"中原すくすく児童遊園","province":"千葉県","city":"柏市","address":"千葉県柏市中原1丁目26-13","lat":35.82510756,"lon":139.96721289},{"name":"中原すくすく児童遊園","province":"千葉県","city":"柏市","address":"千葉県柏市中原1丁目26-13","lat":35.82510756,"lon":139.96721289},{"name":"中原すくすく児童遊園","province":"千葉県","city":"柏市","address":"千葉県柏市中原1丁目26-13","lat":35.82510756,"lon":139.96721289},{"name":"中原すくすく児童遊園","province":"千葉県","city":"柏市","address":"千葉県柏市中原1丁目26-13","lat":35.82510756,"lon":139.96721289},{"name":"中原すくすく児童遊園","province":"千葉県","city":"柏市","address":"千葉県柏市中原1丁目26-13","lat":35.82510756,"lon":139.96721289},{"name":"中原すくすく児童遊園","province":"千葉県","city":"柏市","address":"千葉県柏市中原1丁目26-13","lat":35.82510756,"lon":139.96721289},{"name":"中原すくすく児童遊園","province":"千葉県","city":"柏市","address":"千葉県柏市中原1丁目26-13","lat":35.82510756,"lon":139.96721289},{"name":"中原すくすく児童遊園","province":"千葉県","city":"柏市","address":"千葉県柏市中原1丁目26-13","lat":35.82510756,"lon":139.96721289},{"name":"中原すくすく児童遊園","province":"千葉県","city":"柏市","address":"千葉県柏市中原1丁目26-13","lat":35.82510756,"lon":139.96721289},{"name":"中原すくすく児童遊園","province":"千葉県","city":"柏市","address":"千葉県柏市中原1丁目26-13","lat":35.82510756,"lon":139.96721289},{"name":"中原すくすく児童遊園","province":"千葉県","city":"柏市","address":"千葉県柏市中原1丁目26-13","lat":35.82510756,"lon":139.96721289},{"name":"中原すくすく児童遊園","province":"千葉県","city":"柏市","address":"千葉県柏市中原1丁目26-13","lat":35.82510756,"lon":139.96721289},{"name":"中原すくすく児童遊園","province":"千葉県","city":"柏市","address":"千葉県柏市中原1丁目26-13","lat":35.82510756,"lon":139.96721289},{"name":"中原すくすく児童遊園","province":"千葉県","city":"柏市","address":"千葉県柏市中原1丁目26-13","lat":35.82510756,"lon":139.96721289},{"name":"中原すくすく児童遊園","province":"千葉県","city":"柏市","address":"千葉県柏市中原1丁目26-13","lat":35.82510756,"lon":139.96721289},{"name":"中原すくすく児童遊園","province":"千葉県","city":"柏市","address":"千葉県柏市中原1丁目26-13","lat":35.82510756,"lon":139.96721289},{"name":"中原すくすく児童遊園","province":"千葉県","city":"柏市","address":"千葉県柏市中原1丁目26-13","lat":35.82510756,"lon":139.96721289},{"name":"中原すくすく児童遊園","province":"千葉県","city":"柏市","address":"千葉県柏市中原1丁目26-13","lat":35.82510756,"lon":139.96721289},{"name":"中原すくすく児童遊園","province":"千葉県","city":"柏市","address":"千葉県柏市中原1丁目26-13","lat":35.82510756,"lon":139.96721289},{"name":"中原すくすく児童遊園","province":"千葉県","city":"柏市","address":"千葉県柏市中原1丁目26-13","lat":35.82510756,"lon":139.96721289},{"name":"中原すくすく児童遊園","province":"千葉県","city":"柏市","address":"千葉県柏市中原1丁目26-13","lat":35.82510756,"lon":139.96721289},{"name":"中原すくすく児童遊園","province":"千葉県","city":"柏市","address":"千葉県柏市中原1丁目26-13","lat":35.82510756,"lon":139.96721289},{"name":"中原すくすく児童遊園","province":"千葉県","city":"柏市","address":"千葉県柏市中原1丁目26-13","lat":35.82510756,"lon":139.96721289},{"name":"中原すくすく児童遊園","province":"千葉県","city":"柏市","address":"千葉県柏市中原1丁目26-13","lat":35.82510756,"lon":139.96721289},{"name":"中原すくすく児童遊園","province":"千葉県","city":"柏市","address":"千葉県柏市中原1丁目26-13","lat":35.82510756,"lon":139.96721289},{"name":"中原すくすく児童遊園","province":"千葉県","city":"柏市","address":"千葉県柏市中原1丁目26-13","lat":35.82510756,"lon":139.96721289},{"name":"中原すくすく児童遊園","province":"千葉県","city":"柏市","address":"千葉県柏市中原1丁目26-13","lat":35.82510756,"lon":139.96721289},{"name":"中原すくすく児童遊園","province":"千葉県","city":"柏市","address":"千葉県柏市中原1丁目26-13","lat":35.82510756,"lon":139.96721289},{"name":"中原すくすく児童遊園","province":"千葉県","city":"柏市","address":"千葉県柏市中原1丁目26-13","lat":35.82510756,"lon":139.96721289},{"name":"中原すくすく児童遊園","province":"千葉県","city":"柏市","address":"千葉県柏市中原1丁目26-13","lat":35.82510756,"lon":139.96721289},{"name":"中原すくすく児童遊園","province":"千葉県","city":"柏市","address":"千葉県柏市中原1丁目26-13","lat":35.82510756,"lon":139.96721289},{"name":"中原すくすく児童遊園","province":"千葉県","city":"柏市","address":"千葉県柏市中原1丁目26-13","lat":35.82510756,"lon":139.96721289},{"name":"中原すくすく児童遊園","province":"千葉県","city":"柏市","address":"千葉県柏市中原1丁目26-13","lat":35.82510756,"lon":139.96721289},{"name":"中原すくすく児童遊園","province":"千葉県","city":"柏市","address":"千葉県柏市中原1丁目26-13","lat":35.82510756,"lon":139.96721289},{"name":"中原すくすく児童遊園","province":"千葉県","city":"柏市","address":"千葉県柏市中原1丁目26-13","lat":35.82510756,"lon":139.96721289},{"name":"中原すくすく児童遊園","province":"千葉県","city":"柏市","address":"千葉県柏市中原1丁目26-13","lat":35.82510756,"lon":139.96721289},{"name":"中原すくすく児童遊園","province":"千葉県","city":"柏市","address":"千葉県柏市中原1丁目26-13","lat":35.82510756,"lon":139.96721289},{"name":"中原すくすく児童遊園","province":"千葉県","city":"柏市","address":"千葉県柏市中原1丁目26-13","lat":35.82510756,"lon":139.96721289},{"name":"中原すくすく児童遊園","province":"千葉県","city":"柏市","address":"千葉県柏市中原1丁目26-13","lat":35.82510756,"lon":139.96721289},{"name":"中原すくすく児童遊園","province":"千葉県","city":"柏市","address":"千葉県柏市中原1丁目26-13","lat":35.82510756,"lon":139.96721289},{"name":"中原すくすく児童遊園","province":"千葉県","city":"柏市","address":"千葉県柏市中原1丁目26-13","lat":35.82510756,"lon":139.96721289}]}