{"keyword":"盲人","data":[{"name":"杉光園","province":"東京都","city":"台東区","address":"台東区台東3-1-6","lat":35.704463,"lon":139.781321},{"name":"盲人自立センター陽光園","province":"東京都","city":"中野区","address":"中野区中野2-29-15サンハイツ中野208","lat":35.703702,"lon":139.66583},{"name":"杉並区立杉並視覚障害者会館","province":"東京都","city":"杉並区","address":"杉並区南荻窪3-28-10","lat":35.703289,"lon":139.611018},{"name":"光の家鍼灸マッサージホーム","province":"東京都","city":"日野市","address":"日野市旭が丘1-17-17","lat":35.656652,"lon":139.372803},{"name":"杉光園","province":"東京都","city":"台東区","address":"台東区台東3-1-6","lat":35.70423,"lon":139.78123},{"name":"盲人自立センター陽光園","province":"東京都","city":"中野区","address":"中野区中野2-29-15サンハイツ中野208","lat":35.70362,"lon":139.66574},{"name":"杉並区立杉並視覚障害者会館","province":"東京都","city":"杉並区","address":"杉並区南荻窪3-28-10","lat":35.70319,"lon":139.61076},{"name":"光の家鍼灸マッサージホーム","province":"東京都","city":"日野市","address":"日野市旭が丘1-17-17","lat":35.65611,"lon":139.37268},{"name":"杉光園","province":"東京都","city":"台東区","address":"台東区台東3-1-6","lat":35.70423,"lon":139.78124},{"name":"盲人自立センター陽光園","province":"東京都","city":"中野区","address":"中野区中野2-29-15サンハイツ中野208","lat":35.70363,"lon":139.66574}]}