{"keyword":"人材","data":[{"name":"東京都福祉人材センター人材情報室","province":"東京都","city":"千代田区","address":"千代田区飯田橋3-10-3東京しごとセンター7階","lat":35.700557,"lon":139.749575},{"name":"東京都福祉人材センター研修室","province":"東京都","city":"文京区","address":"文京区小日向4-1-6東京都社会福祉保健医療研修センター1階","lat":35.713955,"lon":139.740684},{"name":"東京都福祉人材センター人材情報室多摩支所","province":"東京都","city":"立川市","address":"立川市曙町2-34-13オリンピック第3ビル7階","lat":35.702556,"lon":139.414673},{"name":"東京都福祉人材センター","province":"東京都","city":"千代田区","address":"千代田区飯田橋3-10-3東京しごとセンター5階","lat":35.70069,"lon":139.74985},{"name":"東京都福祉人材センター研修室","province":"東京都","city":"文京区","address":"文京区小日向4-1-6東京都社会福祉保健医療研修センター1階","lat":35.71382,"lon":139.74043},{"name":"東京都福祉人材センター多摩支所","province":"東京都","city":"立川市","address":"立川市曙町2-34-13オリンピック第3ビル7階","lat":35.70255,"lon":139.41466},{"name":"東京都福祉人材センター","province":"東京都","city":"千代田区","address":"千代田区飯田橋3-10-3東京しごとセンター7階","lat":35.700557,"lon":139.749575},{"name":"東京都福祉人材センター多摩支所","province":"東京都","city":"立川市","address":"立川市曙町2-34-13オリンピック第3ビル7階","lat":35.702556,"lon":139.414673}]}