{"keyword":"位置","data":[{"name":"南大井シルバーセンター","province":"東京都","city":"品川区","address":"東京都品川区南大井3丁目7-14","lat":35.5916187,"lon":139.7342376},{"name":"春光福祉会　特別養護老人ホーム「ロイヤルサニー」","province":"東京都","city":"品川区","address":"東京都品川区西大井2丁目4-4","lat":35.5999621,"lon":139.7224704},{"name":"さくら会老人保健施設「ケアセンター南大井」","province":"東京都","city":"品川区","address":"東京都品川区南大井5丁目19","lat":35.5945343,"lon":139.733675},{"name":"西大井シルバーセンター","province":"東京都","city":"品川区","address":"東京都品川区西大井1丁目8-7","lat":35.6008976,"lon":139.7230698},{"name":"八潮児童センター","province":"東京都","city":"品川区","address":"東京都品川区八潮5丁目10-27","lat":35.5998066,"lon":139.7516327},{"name":"高齢者住宅八潮わかくさ荘","province":"東京都","city":"品川区","address":"東京都品川区八潮5丁目10-27","lat":35.5998699,"lon":139.7509539},{"name":"心身障害者福祉会館","province":"東京都","city":"品川区","address":"東京都品川区旗の台5丁目2","lat":35.6048875,"lon":139.7006163},{"name":"旗の台シルバーセンター","province":"東京都","city":"品川区","address":"東京都品川区旗の台4丁目13-1","lat":35.6025803,"lon":139.7046896},{"name":"関ヶ原シルバーセンター","province":"東京都","city":"品川区","address":"東京都品川区東大井6丁目11-11","lat":35.6018677,"lon":139.7364935},{"name":"品川児童学園","province":"東京都","city":"品川区","address":"東京都品川区南品川3丁目7","lat":35.6073495,"lon":139.7446282},{"name":"品川総合福祉センター","province":"東京都","city":"品川区","address":"東京都品川区八潮5丁目1-1","lat":35.6052496,"lon":139.7522717},{"name":"中延シルバーセンター","province":"東京都","city":"品川区","address":"東京都品川区中延1丁目4-12","lat":35.6125932,"lon":139.7118185},{"name":"特別養護老人ホーム「成幸ホーム」","province":"東京都","city":"品川区","address":"東京都品川区中延1丁目8-15","lat":35.6122655,"lon":139.7115887},{"name":"ゆたかシルバーセンター","province":"東京都","city":"品川区","address":"東京都品川区豊町3丁目2","lat":35.6081669,"lon":139.7194903},{"name":"南品川シルバーセンター","province":"東京都","city":"品川区","address":"東京都品川区南品川5丁目10","lat":35.6100801,"lon":139.7395401},{"name":"都立品川特別支援学校","province":"東京都","city":"品川区","address":"東京都品川区南品川6丁目15-20","lat":35.6097666,"lon":139.7378227},{"name":"東品川シルバーセンター","province":"東京都","city":"品川区","address":"東京都品川区東品川3丁目32","lat":35.6126645,"lon":139.7503745},{"name":"小山シルバーセンター","province":"東京都","city":"品川区","address":"東京都品川区小山5丁目17-17","lat":35.6147042,"lon":139.7014478},{"name":"平塚シルバーセンター","province":"東京都","city":"品川区","address":"東京都品川区平塚2丁目10","lat":35.6169969,"lon":139.7139996},{"name":"大崎シルバーセンター","province":"東京都","city":"品川区","address":"東京都品川区大崎2丁目7","lat":35.6168885,"lon":139.7256112},{"name":"北品川シルバーセンター","province":"東京都","city":"品川区","address":"東京都品川区北品川1丁目29-11","lat":35.6206822,"lon":139.7418432},{"name":"福栄会","province":"東京都","city":"品川区","address":"東京都品川区東品川3丁目1-8","lat":35.617101,"lon":139.7467953},{"name":"西五反田シルバーセンター","province":"東京都","city":"品川区","address":"東京都品川区西五反田3丁目9-9","lat":35.6266424,"lon":139.7170725},{"name":"五反田保育園","province":"東京都","city":"品川区","address":"東京都品川区東五反田2丁目15","lat":35.6216342,"lon":139.7294771},{"name":"上大崎シルバーセンター","province":"東京都","city":"品川区","address":"東京都品川区上大崎1丁目3-11","lat":35.6347299,"lon":139.7222261},{"name":"荏原消防署","province":"東京都","city":"品川区","address":"東京都品川区平塚3丁目16-20","lat":35.6144967,"lon":139.7105109},{"name":"品川消防署","province":"東京都","city":"品川区","address":"東京都品川区北品川3丁目7-31","lat":35.6170878,"lon":139.7397523},{"name":"滝王子出張所","province":"東京都","city":"品川区","address":"東京都品川区大井5丁目17","lat":35.5984647,"lon":139.7274195},{"name":"消防署","province":"東京都","city":"品川区","address":"東京都品川区旗の台6丁目24-12","lat":35.6056823,"lon":139.6999571},{"name":"戸越出張所","province":"東京都","city":"品川区","address":"東京都品川区戸越5丁目20-15","lat":35.6083161,"lon":139.7187459},{"name":"東品川出張所","province":"東京都","city":"品川区","address":"東京都品川区東品川3丁目32","lat":35.6134542,"lon":139.7504186},{"name":"消防署","province":"東京都","city":"品川区","address":"東京都品川区西五反田7丁目25","lat":35.6200332,"lon":139.7185314},{"name":"大井警察署","province":"東京都","city":"品川区","address":"東京都品川区大井5丁目10-2","lat":35.5989109,"lon":139.7298653},{"name":"荏原警察署","province":"東京都","city":"品川区","address":"東京都品川区荏原6丁目19-10","lat":35.6120395,"lon":139.7062371},{"name":"品川警察署","province":"東京都","city":"品川区","address":"東京都品川区東品川3丁目14","lat":35.6138397,"lon":139.7450501},{"name":"大崎警察署","province":"東京都","city":"品川区","address":"東京都品川区大崎4丁目2-10","lat":35.6217168,"lon":139.7241446},{"name":"虎ノ門駅9番口","province":"東京都","city":"港区","address":"東京都港区虎ノ門一丁目1番15号","lat":35.669865,"lon":139.751303,"ID":"EE0000000001","名称_カナ":"トラノモンエキ9バングチ"},{"name":"内幸町駅A4番口","province":"東京都","city":"港区","address":"東京都港区西新橋一丁目3番12号","lat":35.668889,"lon":139.754194,"ID":"EE0000000002","名称_カナ":"ウチサイワイチョウエキA4バングチ"},{"name":"新橋駅銀座口","province":"東京都","city":"港区","address":"東京都港区新橋一丁目11番","lat":35.667359,"lon":139.758966,"ID":"EE0000000003","名称_カナ":"シンバシエキギンザクチ"},{"name":"海洋船舶ビル前","province":"東京都","city":"港区","address":"東京都港区虎ノ門一丁目15番16号","lat":35.669506,"lon":139.748946,"ID":"EE0000000131","名称_カナ":"カイヨウセンパクビルマエ"},{"name":"第2岡名ビル前","province":"東京都","city":"港区","address":"東京都港区新橋一丁目24番16号","lat":35.668772,"lon":139.751228,"ID":"EE0000000132","名称_カナ":"ダイ2オカナビルマエ"},{"name":"新橋駅前西口広場","province":"東京都","city":"港区","address":"東京都港区新橋二丁目16番1号","lat":35.667038,"lon":139.757554,"ID":"EE0000000004","名称_カナ":"シンバシエキマエニシグチヒロバ"},{"name":"新橋駅前西口広場2","province":"東京都","city":"港区","address":"東京都港区新橋二丁目16番1号","lat":35.666869,"lon":139.75745,"ID":"EE0000000005","名称_カナ":"シンバシエキマエニシグチヒロバ2"},{"name":"神谷町駅4番口","province":"東京都","city":"港区","address":"東京都港区虎ノ門五丁目1番8号","lat":35.663448,"lon":139.745311,"ID":"EE0000000006","名称_カナ":"カミヤチョウエキ4バングチ"},{"name":"慈恵大学旧館裏門","province":"東京都","city":"港区","address":"東京都港区西新橋三丁目25番8号","lat":35.662551,"lon":139.749532,"ID":"EE0000000133","名称_カナ":"ジケイダイガクキュウカンウラモン"},{"name":"百楽ビル前","province":"東京都","city":"港区","address":"東京都港区新橋五丁目8番1号","lat":35.663898,"lon":139.755106,"ID":"EE0000000134","名称_カナ":"ヒャクラクビルマエ"},{"name":"御成門駅A5番口","province":"東京都","city":"港区","address":"東京都港区西新橋三丁目24番","lat":35.661268,"lon":139.751402,"ID":"EE0000000007","名称_カナ":"オナリモンエキA5バングチ"},{"name":"港区本庁舎(芝地区総合支所)","province":"東京都","city":"港区","address":"東京都港区芝公園一丁目5番25号","lat":35.65802,"lon":139.751476,"ID":"EE0000000008","名称_カナ":"ミナトクホンチョウシャ(シバチクソウゴウシショ)"},{"name":"大門駅A6番口","province":"東京都","city":"港区","address":"東京都港区芝大門二丁目3番1号","lat":35.656786,"lon":139.753784,"ID":"EE0000000009","名称_カナ":"ダイモンエキA6バングチ"},{"name":"浜松町駅北口","province":"東京都","city":"港区","address":"東京都港区浜松町二丁目4番1号","lat":35.656527,"lon":139.756391,"ID":"EE0000000010","名称_カナ":"ハママツチョウエキキタグチ"},{"name":"都営芝公園駅前出入口方","province":"東京都","city":"港区","address":"東京都港区芝公園二丁目7番1号","lat":35.65405,"lon":139.75016,"ID":"EE0000000135","名称_カナ":"トエイシバコウエンエキマエデイリグチカタ"},{"name":"竹芝客船ターミナル公園入口","province":"東京都","city":"港区","address":"東京都港区海岸一丁目12番2号","lat":35.65501,"lon":139.76267,"ID":"EE0000000136","名称_カナ":"タケシバキャクセンターミナルコウエンイリグチ"},{"name":"田町駅三田口","province":"東京都","city":"港区","address":"東京都港区芝五丁目34番","lat":35.646297,"lon":139.747229,"ID":"EE0000000011","名称_カナ":"タマチエキミタグチ"},{"name":"乃木坂駅駅前郵便局付近","province":"東京都","city":"港区","address":"東京都港区六本木七丁目3番10号","lat":35.666466,"lon":139.727938,"ID":"EE0000000013","名称_カナ":"ノギザカエキエキマエユウビンキョクフキン"},{"name":"六本木駅4番口","province":"東京都","city":"港区","address":"東京都港区六本木七丁目14番12号","lat":35.663036,"lon":139.731505,"ID":"EE0000000015","名称_カナ":"ロッポンギエキ4バングチ"},{"name":"六本木駅6番口","province":"東京都","city":"港区","address":"東京都港区六本木四丁目8番5号","lat":35.663946,"lon":139.733384,"ID":"EE0000000014","名称_カナ":"ロッポンギエキ6バングチ"},{"name":"六本木一丁目駅3番口","province":"東京都","city":"港区","address":"東京都港区六本木一丁目4番","lat":35.666436,"lon":139.739212,"ID":"EE0000000012","名称_カナ":"ロッポンギイッチョウメエキ3バングチ"},{"name":"麻布地区総合支所","province":"東京都","city":"港区","address":"東京都港区六本木五丁目16番45号","lat":35.660606,"lon":139.735062,"ID":"EE0000000016","名称_カナ":"アザブチクソウゴウシショ"},{"name":"麻布十番駅5番口","province":"東京都","city":"港区","address":"東京都港区麻布十番一丁目11番8号","lat":35.655585,"lon":139.736938,"ID":"EE0000000017","名称_カナ":"アザブジュウバンエキ5バングチ"},{"name":"ツイン一の橋NO1ビル前","province":"東京都","city":"港区","address":"東京都港区麻布十番四丁目3番","lat":35.65456,"lon":139.73715,"ID":"EE0000000137","名称_カナ":"ツインイチノハシナンバー1ビルマエ"},{"name":"広尾駅1番口","province":"東京都","city":"港区","address":"東京都港区南麻布五丁目15番","lat":35.651159,"lon":139.722362,"ID":"EE0000000018","名称_カナ":"ヒロオエキ1バングチ"},{"name":"有栖川公園広尾門","province":"東京都","city":"港区","address":"東京都港区南麻布五丁目7番1号","lat":35.65146,"lon":139.72394,"ID":"EE0000000138","名称_カナ":"アリスガワコウエンヒロオモン"},{"name":"仙台坂交差点脇","province":"東京都","city":"港区","address":"東京都港区南麻布三丁目3番39号","lat":35.65185,"lon":139.73057,"ID":"EE0000000139","名称_カナ":"センダイザカコウサテンワキ"},{"name":"福泉寺前","province":"東京都","city":"港区","address":"東京都港区南麻布一丁目6番8号","lat":35.65229,"lon":139.73639,"ID":"EE0000000140","名称_カナ":"フクセンジマエ"},{"name":"本村公園前","province":"東京都","city":"港区","address":"東京都港区南麻布三丁目4番","lat":35.65027,"lon":139.73111,"ID":"EE0000000141","名称_カナ":"ホンムラコウエンマエ"},{"name":"みずほ銀行麻布支店前","province":"東京都","city":"港区","address":"東京都港区南麻布二丁目11番4号","lat":35.64776,"lon":139.73633,"ID":"EE0000000142","名称_カナ":"ミズホギンコウアザブシテンマエ"},{"name":"赤坂見附駅豊川稲荷前歩道橋付近","province":"東京都","city":"港区","address":"東京都港区元赤坂一丁目3番9号","lat":35.677096,"lon":139.734456,"ID":"EE0000000019","名称_カナ":"アカサカミツケエキトヨカワイナリマエホドウキョウフキン"},{"name":"赤坂見附駅歩道橋下","province":"東京都","city":"港区","address":"東京都港区赤坂三丁目1番2号","lat":35.6776,"lon":139.7368,"ID":"EE0000000143","名称_カナ":"アカサカミツケエキホドウキョウシタ"},{"name":"赤坂見附駅1番口","province":"東京都","city":"港区","address":"東京都港区赤坂三丁目3番3号","lat":35.675371,"lon":139.738006,"ID":"EE0000000020","名称_カナ":"アカサカミツケエキ1バングチ"},{"name":"赤坂地区総合支所","province":"東京都","city":"港区","address":"東京都港区赤坂四丁目18番13号","lat":35.674754,"lon":139.731628,"ID":"EE0000000021","名称_カナ":"アカサカチクソウゴウシショ"},{"name":"赤坂駅氷川公園付近","province":"東京都","city":"港区","address":"東京都港区赤坂六丁目5番1号","lat":35.671436,"lon":139.7374,"ID":"EE0000000023","名称_カナ":"アカサカエキヒカワコウエンフキン"},{"name":"ランディック第2赤坂ビル前","province":"東京都","city":"港区","address":"東京都港区赤坂二丁目10番9号","lat":35.67011,"lon":139.74173,"ID":"EE0000000144","名称_カナ":"ランディックダイ2アカサカビルマエ"},{"name":"東京スター銀行前","province":"東京都","city":"港区","address":"東京都港区赤坂一丁目6番16号","lat":35.66997,"lon":139.74208,"ID":"EE0000000145","名称_カナ":"トウキョウスターギンコウマエ"},{"name":"青山一丁目駅NTTビル付近","province":"東京都","city":"港区","address":"東京都港区赤坂八丁目4番23号","lat":35.673428,"lon":139.726761,"ID":"EE0000000022","名称_カナ":"アオヤマイッチョウメエキNTTビルフキン"},{"name":"青葉公園","province":"東京都","city":"港区","address":"東京都港区南青山一丁目4番4号","lat":35.67094,"lon":139.72508,"ID":"EE0000000146","名称_カナ":"アオバコウエン"},{"name":"外苑いちょう並木入口","province":"東京都","city":"港区","address":"東京都港区北青山二丁目1番","lat":35.66957,"lon":139.716135,"ID":"EE0000000024","名称_カナ":"ガイエンイチョウナミキイリグチ"},{"name":"外苑前駅外苑前歩道橋付近","province":"東京都","city":"港区","address":"東京都港区北青山二丁目14番","lat":35.670247,"lon":139.716667,"ID":"EE0000000025","名称_カナ":"ガイエンマエエキガイエンマエホドウキョウフキン"},{"name":"表参道駅B5番口","province":"東京都","city":"港区","address":"東京都港区北青山三丁目6番12号","lat":35.665303,"lon":139.712018,"ID":"EE0000000026","名称_カナ":"オモテサンドウエキB5バングチ"},{"name":"表参道駅B3番口","province":"東京都","city":"港区","address":"東京都港区南青山五丁目1番22号","lat":35.664156,"lon":139.711909,"ID":"EE0000000027","名称_カナ":"オモテサンドウエキB3バングチ"},{"name":"高輪地区総合支所","province":"東京都","city":"港区","address":"東京都港区高輪一丁目16番25号","lat":35.641957,"lon":139.73408,"ID":"EE0000000028","名称_カナ":"タカナワチクソウゴウシショ"},{"name":"東海大学専門職大学院横","province":"東京都","city":"港区","address":"東京都港区高輪二丁目3番12号","lat":35.6385,"lon":139.73447,"ID":"EE0000000147","名称_カナ":"トウカイダイガクセンモンショクダイガクインヨコ"},{"name":"東京研修センター三田教室正面前","province":"東京都","city":"港区","address":"東京都港区三田三丁目10番5号","lat":35.64062,"lon":139.74081,"ID":"EE0000000148","名称_カナ":"トウキョウケンシュウセンターミタキョウシツショウメンマエ"},{"name":"大和消火器際","province":"東京都","city":"港区","address":"東京都港区白金台五丁目18番2号","lat":35.63731,"lon":139.72372,"ID":"EE0000000149","名称_カナ":"ダイワショウカキキワ"},{"name":"白金台駅1番口","province":"東京都","city":"港区","address":"東京都港区白金台三丁目14番6号","lat":35.637516,"lon":139.725505,"ID":"EE0000000029","名称_カナ":"シロガネダイエキ1バングチ"},{"name":"明治学院歩道橋下","province":"東京都","city":"港区","address":"東京都港区白金台一丁目2番37号","lat":35.63598,"lon":139.73121,"ID":"EE0000000150","名称_カナ":"メイジガクインホドウキョウシタ"},{"name":"泉岳寺交差点付近","province":"東京都","city":"港区","address":"東京都港区高輪二丁目15番16号","lat":35.636808,"lon":139.738942,"ID":"EE0000000030","名称_カナ":"センガクジコウサテンフキン"},{"name":"港区立高輪公園前","province":"東京都","city":"港区","address":"東京都港区高輪三丁目18番18号","lat":35.63311,"lon":139.73622,"ID":"EE0000000151","名称_カナ":"ミナトクリツタカナワコウエンマエ"},{"name":"芝浦1丁目交差点際","province":"東京都","city":"港区","address":"東京都港区芝浦一丁目4番11号","lat":35.64868,"lon":139.75496,"ID":"EE0000000152","名称_カナ":"シバウラ1チョウメコウサテンキワ"},{"name":"芝浦港南地区総合支所","province":"東京都","city":"港区","address":"東京都港区芝浦一丁目16番1号","lat":35.646566,"lon":139.751907,"ID":"EE0000000031","名称_カナ":"シバウラコウナンチクソウゴウシショ"},{"name":"田町駅芝浦口","province":"東京都","city":"港区","address":"東京都港区芝浦三丁目3番","lat":35.645036,"lon":139.748183,"ID":"EE0000000032","名称_カナ":"タマチエキシバウラグチ"},{"name":"グランパーク前","province":"東京都","city":"港区","address":"東京都港区芝浦三丁目4番19号","lat":35.64335,"lon":139.74679,"ID":"EE0000000153","名称_カナ":"グランパークマエ"},{"name":"芝浦工大前左","province":"東京都","city":"港区","address":"東京都港区芝浦三丁目7番12号","lat":35.64366,"lon":139.74956,"ID":"EE0000000154","名称_カナ":"シバウラコウダイマエヒダリ"},{"name":"品川駅港南口","province":"東京都","city":"港区","address":"東京都港区港南二丁目14番","lat":35.628948,"lon":139.741558,"ID":"EE0000000034","名称_カナ":"シナガワエキコウナングチ"},{"name":"東八ツ山公園前","province":"東京都","city":"港区","address":"東京都港区港南二丁目8番","lat":35.62494,"lon":139.74366,"ID":"EE0000000155","名称_カナ":"ヒガシヤツヤマコウエンマエ"},{"name":"お台場学園前","province":"東京都","city":"港区","address":"東京都港区台場一丁目1番","lat":35.634165,"lon":139.776363,"ID":"EE0000000035","名称_カナ":"オダイバガクエンマエ"},{"name":"お台場レインボー公園前","province":"東京都","city":"港区","address":"東京都港区台場一丁目3番1号","lat":35.632065,"lon":139.778071,"ID":"EE0000000036","名称_カナ":"オダイバレインボーコウエンマエ"},{"name":"お台場海浜公園東口広場","province":"東京都","city":"港区","address":"東京都港区台場一丁目4番","lat":35.631181,"lon":139.777459,"ID":"EE0000000037","名称_カナ":"オダイバカイヒンコウエンヒガシグチヒロバ"},{"name":"お台場海浜公園中央駐車場付近","province":"東京都","city":"港区","address":"東京都港区台場一丁目4番","lat":35.626501,"lon":139.769378,"ID":"EE0000000039","名称_カナ":"オダイバカイヒンコウエンチュウオウチュウシャジョウフキン"},{"name":"台場交差点付近","province":"東京都","city":"港区","address":"東京都港区台場一丁目6番","lat":35.628485,"lon":139.775005,"ID":"EE0000000040","名称_カナ":"ダイバコウサテンフキン"},{"name":"港区役所(芝地区総合支所)","province":"東京都","city":"港区","address":"東京都港区芝公園一丁目5番25号","lat":35.65802,"lon":139.751476,"ID":"EE0000000041","名称_カナ":"ミナトクヤクショ(シバチクソウゴウシショ)"},{"name":"虎ノ門いきいきプラザ","province":"東京都","city":"港区","address":"東京都港区虎ノ門一丁目21番10号","lat":35.667896,"lon":139.748736,"ID":"EE0000000053","名称_カナ":"トラノモンイキイキプラザ"},{"name":"港南いきいきプラザ","province":"東京都","city":"港区","address":"東京都港区港南四丁目2番1号","lat":35.629675,"lon":139.747065,"ID":"EE0000000066","名称_カナ":"コウナンイキイキプラザ"},{"name":"赤坂子ども中高生プラザ 青山館(カリッパ)","province":"東京都","city":"港区","address":"東京都港区北青山三丁目4番1-201号","lat":35.667302,"lon":139.712219,"ID":"EE0000000070","名称_カナ":"アカサカコドモチュウコウセイプラザ アオヤマカン(カリッパ)"},{"name":"障害者グループホーム芝浦","province":"東京都","city":"港区","address":"東京都港区芝浦三丁目5番34号","lat":35.64355,"lon":139.74784,"ID":"EE0000000087","名称_カナ":"ショウガイシャグループホームシバウラ"},{"name":"やすらぎ会館","province":"東京都","city":"港区","address":"東京都港区南青山二丁目34番1号","lat":35.665826,"lon":139.724349,"ID":"EE0000000093","名称_カナ":"ヤスラギカイカン"},{"name":"ふれあいの湯","province":"東京都","city":"港区","address":"東京都港区芝二丁目2番18号","lat":35.653044,"lon":139.752746,"ID":"EE0000000094","名称_カナ":"フレアイノユ"},{"name":"子ども家庭総合支援センター","province":"東京都","city":"港区","address":"東京都港区南青山五丁目7番11号及び12号","lat":35.662774,"lon":139.713122,"ID":"EE0000000101","名称_カナ":"コドモカテイソウゴウシエンセンター"},{"name":"麻布区民協働スペース","province":"東京都","city":"港区","address":"東京都港区六本木五丁目16番46号麻布保育園3階","lat":35.661075,"lon":139.735447,"ID":"EE0000000107","名称_カナ":"アザブクミンキョウドウスペース"},{"name":"高輪台区民協働スペース","province":"東京都","city":"港区","address":"東京都港区高輪三丁目10番16号優っくり村高輪台1階","lat":35.631001,"lon":139.732164,"ID":"EE0000000111","名称_カナ":"タカナワダイクミンキョウドウスペース"},{"name":"三田図書館","province":"東京都","city":"港区","address":"東京都港区芝五丁目36番4号札の辻スクエア4階~6階","lat":35.645225,"lon":139.744764,"ID":"EE0000000115","名称_カナ":"ミタトショカン"},{"name":"産業振興センター","province":"東京都","city":"港区","address":"東京都港区芝五丁目36番4号札の辻スクエア9階~11階","lat":35.645225,"lon":139.744764,"ID":"EE0000000116","名称_カナ":"サンギョウシンコウセンター"},{"name":"子育てひろば あっぴぃ赤坂","province":"東京都","city":"港区","address":"東京都港区赤坂九丁目4番2号パークコート赤坂檜町ザタワー2階","lat":35.668377,"lon":139.729839,"ID":"EE0000000120","名称_カナ":"コソダテヒロバ アッピイアカサカ"},{"name":"子育てひろば あっぴぃ白金台","province":"東京都","city":"港区","address":"東京都港区白金台四丁目6番2号ゆかしの杜1階","lat":35.639161,"lon":139.726711,"ID":"EE0000000121","名称_カナ":"コソダテヒロバ アッピイシロカネダイ"},{"name":"白金台学童クラブ","province":"東京都","city":"港区","address":"東京都港区白金台四丁目6番2号ゆかしの杜6階","lat":35.639144,"lon":139.726727,"ID":"EE0000000126","名称_カナ":"シロカネダイガクドウクラブ"},{"name":"がん在宅緩和ケア支援センター","province":"東京都","city":"港区","address":"東京都港区白金台四丁目6番2号ゆかしの杜5階","lat":35.639085,"lon":139.726394,"ID":"EE0000000158","名称_カナ":"ガンザイタクカンワケアシエンセンター"},{"name":"みなと保育サポート白金","province":"東京都","city":"港区","address":"東京都港区白金三丁目10番12号2階","lat":35.644938,"lon":139.731052,"ID":"EE0000000170","名称_カナ":"ミナトホイクサポートシロガネ"},{"name":"港区国際交流スペース","province":"東京都","city":"港区","address":"東京都港区北青山一丁目6番3号アパート3号棟地下1階","lat":35.674579,"lon":139.721404,"ID":"EE0000000173","名称_カナ":"ミナトクコクサイコウリュウスペース"},{"name":"春光福祉会 特別養護老人ホーム「ロイヤルサニー」","province":"東京都","city":"品川区","address":"東京都品川区西大井2丁目4-4","lat":35.5999621,"lon":139.7224704,"経度":"139.7224704","緯度":"35.5999621"}]}