{"keyword":"区","data":[{"name":"千代田保健所","province":"東京都","city":"千代田区","address":"千代田区九段北1-2-14","lat":35.696071,"lon":139.752142},{"name":"中央区保健所","province":"東京都","city":"中央区","address":"中央区明石町12-1","lat":35.666506,"lon":139.777035},{"name":"日本橋保健センター","province":"東京都","city":"中央区","address":"中央区日本橋堀留町1-1-1","lat":35.687412,"lon":139.778963},{"name":"月島保健センター","province":"東京都","city":"中央区","address":"中央区月島2-10-3","lat":35.663187,"lon":139.783929},{"name":"みなと保健所","province":"東京都","city":"港区","address":"港区三田1-4-10","lat":35.654031,"lon":139.742558},{"name":"新宿区保健所","province":"東京都","city":"新宿区","address":"新宿区新宿5-18-21","lat":35.693904,"lon":139.705677},{"name":"牛込保健センター","province":"東京都","city":"新宿区","address":"新宿区弁天町50","lat":35.703717,"lon":139.727194},{"name":"四谷保健センター","province":"東京都","city":"新宿区","address":"新宿区三栄町25","lat":35.688619,"lon":139.723967},{"name":"東新宿保健センター","province":"東京都","city":"新宿区","address":"新宿区新宿7-26-4","lat":35.698087,"lon":139.709654},{"name":"落合保健センター","province":"東京都","city":"新宿区","address":"新宿区下落合4-6-7","lat":35.718717,"lon":139.694996},{"name":"文京区保健所","province":"東京都","city":"文京区","address":"文京区春日1-16-21","lat":35.707951,"lon":139.75243},{"name":"保健サービスセンター","province":"東京都","city":"文京区","address":"文京区春日1-16-21","lat":35.707951,"lon":139.75243},{"name":"保健サービスセンター本郷支所","province":"東京都","city":"文京区","address":"文京区千駄木5-20-18","lat":35.727082,"lon":139.760168},{"name":"台東保健所","province":"東京都","city":"台東区","address":"台東区東上野4-22-8","lat":35.71447,"lon":139.78152},{"name":"浅草保健相談センター","province":"東京都","city":"台東区","address":"台東区花川戸1-14-16","lat":35.713793,"lon":139.79963},{"name":"墨田区保健所","province":"東京都","city":"墨田区","address":"墨田区吾妻橋1-23-20","lat":35.710724,"lon":139.801496},{"name":"向島保健センター","province":"東京都","city":"墨田区","address":"墨田区東向島5-16-2","lat":35.725882,"lon":139.821106},{"name":"本所保健センター","province":"東京都","city":"墨田区","address":"墨田区東駒形1-6-4","lat":35.705438,"lon":139.798058},{"name":"江東区保健所(健康推進課)","province":"東京都","city":"江東区","address":"江東区東陽2-1-1","lat":35.66574,"lon":139.814216},{"name":"江東区保健所(生活衛生課)","province":"東京都","city":"江東区","address":"江東区東陽2-1-1","lat":35.66574,"lon":139.814216},{"name":"江東区保健所(保健予防課)","province":"東京都","city":"江東区","address":"江東区東陽2-1-1","lat":35.66574,"lon":139.814216},{"name":"城東保健相談所","province":"東京都","city":"江東区","address":"江東区大島3-1-3","lat":35.689996,"lon":139.82765},{"name":"城東南部保健相談所","province":"東京都","city":"江東区","address":"江東区南砂4-3-10","lat":35.674348,"lon":139.82777},{"name":"深川保健相談所","province":"東京都","city":"江東区","address":"江東区白河3-4-3-301","lat":35.682163,"lon":139.805765},{"name":"深川南部保健相談所","province":"東京都","city":"江東区","address":"江東区枝川1-8-15-102","lat":35.65751,"lon":139.802364},{"name":"品川区保健所","province":"東京都","city":"品川区","address":"品川区広町2-1-36","lat":35.608836,"lon":139.730241},{"name":"品川保健センター","province":"東京都","city":"品川区","address":"品川区北品川3-11-22","lat":35.616586,"lon":139.740732},{"name":"大井保健センター","province":"東京都","city":"品川区","address":"品川区大井2-27-20","lat":35.604084,"lon":139.730375},{"name":"荏原保健センター","province":"東京都","city":"品川区","address":"品川区荏原2-9-6","lat":35.617185,"lon":139.711504},{"name":"目黒区保健所","province":"東京都","city":"目黒区","address":"目黒区上目黒2-19-15","lat":35.641262,"lon":139.69859},{"name":"碑文谷保健センター","province":"東京都","city":"目黒区","address":"目黒区碑文谷4-16-18","lat":35.621378,"lon":139.682498},{"name":"大田区保健所（健康医療政策課）","province":"東京都","city":"大田区","address":"大田区蒲田5-13-14","lat":35.561258,"lon":139.715986},{"name":"大田区保健所(感染症対策課)","province":"東京都","city":"大田区","address":"大田区蒲田5-13-14","lat":35.561258,"lon":139.715986},{"name":"大田区保健所（生活衛生課）","province":"東京都","city":"大田区","address":"大田区大森西1-12-1","lat":35.578193,"lon":139.722935},{"name":"大田区保健所（健康づくり課）","province":"東京都","city":"大田区","address":"大田区蒲田5-13-14","lat":35.561258,"lon":139.715986},{"name":"大田区保健所（大森地域健康課）","province":"東京都","city":"大田区","address":"大田区大森西1-12-1","lat":35.578193,"lon":139.722935},{"name":"大田区保健所（調布地域健康課）","province":"東京都","city":"大田区","address":"大田区雪谷大塚町4-6","lat":35.593151,"lon":139.680594},{"name":"大田区保健所（蒲田地域健康課）","province":"東京都","city":"大田区","address":"大田区蒲田本町2-1-1","lat":35.558534,"lon":139.718422},{"name":"大田区保健所（糀谷・羽田地域健康課）","province":"東京都","city":"大田区","address":"大田区東糀谷1-21-15","lat":35.557413,"lon":139.739657},{"name":"世田谷保健所","province":"東京都","city":"世田谷区","address":"世田谷区世田谷4-22-35","lat":35.646141,"lon":139.651636},{"name":"世田谷総合支所（健康づくり課）","province":"東京都","city":"世田谷区","address":"世田谷区世田谷4-22-33","lat":35.646513,"lon":139.652191},{"name":"北沢総合支所（健康づくり課）","province":"東京都","city":"世田谷区","address":"世田谷区松原6-3-5北沢保健福祉センター内","lat":35.657007,"lon":139.653794},{"name":"玉川総合支所（健康づくり課）","province":"東京都","city":"世田谷区","address":"世田谷区等々力4-19-18","lat":35.610679,"lon":139.652448},{"name":"砧総合支所（健康づくり課）","province":"東京都","city":"世田谷区","address":"世田谷区成城6-2-1","lat":35.641293,"lon":139.600582},{"name":"烏山総合支所（健康づくり課）","province":"東京都","city":"世田谷区","address":"世田谷区南烏山6-22-14","lat":35.669776,"lon":139.598031},{"name":"渋谷区保健所","province":"東京都","city":"渋谷区","address":"渋谷区渋谷1-18-21","lat":35.661974,"lon":139.703739},{"name":"恵比寿保健相談所","province":"東京都","city":"渋谷区","address":"渋谷区恵比寿2-27-18","lat":35.645301,"lon":139.719613},{"name":"幡ケ谷保健相談所","province":"東京都","city":"渋谷区","address":"渋谷区幡ケ谷3-39-1","lat":35.679416,"lon":139.672005},{"name":"中野区保健所","province":"東京都","city":"中野区","address":"中野区中野2-17-4","lat":35.702824,"lon":139.669335},{"name":"中部すこやか福祉センター","province":"東京都","city":"中野区","address":"中野区中央3-19-1","lat":35.7004,"lon":139.674176},{"name":"北部すこやか福祉センター","province":"東京都","city":"中野区","address":"中野区江古田4-31-10","lat":35.724616,"lon":139.661418},{"name":"南部すこやか福祉センター","province":"東京都","city":"中野区","address":"中野区弥生町5-11-26","lat":35.688192,"lon":139.668377},{"name":"鷺宮すこやか福祉センター","province":"東京都","city":"中野区","address":"中野区鷺宮3-58-10","lat":35.723543,"lon":139.639201},{"name":"杉並保健所（健康推進課）","province":"東京都","city":"杉並区","address":"杉並区荻窪5-20-1","lat":35.702253,"lon":139.620192},{"name":"杉並保健所（生活衛生課）","province":"東京都","city":"杉並区","address":"杉並区荻窪5-20-1","lat":35.702253,"lon":139.620192},{"name":"杉並保健所（保健予防課）","province":"東京都","city":"杉並区","address":"杉並区荻窪5-20-1","lat":35.702253,"lon":139.620192},{"name":"荻窪保健センター","province":"東京都","city":"杉並区","address":"杉並区荻窪5-20-1","lat":35.702253,"lon":139.620192},{"name":"高井戸保健センター","province":"東京都","city":"杉並区","address":"杉並区高井戸東3-20-3","lat":35.684972,"lon":139.620229},{"name":"高円寺保健センター","province":"東京都","city":"杉並区","address":"杉並区高円寺南3-24-15","lat":35.701429,"lon":139.645773},{"name":"上井草保健センター","province":"東京都","city":"杉並区","address":"杉並区上井草3-8-19","lat":35.719048,"lon":139.601429},{"name":"和泉保健センター","province":"東京都","city":"杉並区","address":"杉並区和泉4-50-6","lat":35.682654,"lon":139.655901},{"name":"池袋保健所（地域保健課）","province":"東京都","city":"豊島区","address":"豊島区東池袋1-20-9","lat":35.731339,"lon":139.71556},{"name":"池袋保健所（生活衛生課）","province":"東京都","city":"豊島区","address":"豊島区東池袋1-20-9","lat":35.731339,"lon":139.71556},{"name":"池袋保健所（健康推進課）","province":"東京都","city":"豊島区","address":"豊島区東池袋1-20-9","lat":35.731339,"lon":139.71556},{"name":"長崎健康相談所","province":"東京都","city":"豊島区","address":"豊島区長崎2-27-18","lat":35.729594,"lon":139.693087},{"name":"北区保健所（生活衛生課）","province":"東京都","city":"北区","address":"北区東十条2-7-3","lat":35.763111,"lon":139.730513},{"name":"北区保健所（保健予防課）","province":"東京都","city":"北区","address":"北区東十条2-7-3","lat":35.763111,"lon":139.730513},{"name":"王子健康支援センター","province":"東京都","city":"北区","address":"北区東十条2-7-3北区保健所1階","lat":35.763111,"lon":139.730513},{"name":"赤羽健康支援センター","province":"東京都","city":"北区","address":"北区赤羽南1-13-1赤羽会館6階","lat":35.777728,"lon":139.723755},{"name":"滝野川福祉保健センター","province":"東京都","city":"北区","address":"北区西ケ原1-19-12","lat":35.74278,"lon":139.747571},{"name":"荒川区保健所（生活衛生課）","province":"東京都","city":"荒川区","address":"荒川区荒川2-11-1","lat":35.737061,"lon":139.783389},{"name":"荒川区保健所（健康推進課）","province":"東京都","city":"荒川区","address":"荒川区荒川2-11-1","lat":35.737061,"lon":139.783389},{"name":"荒川区保健所（保健予防課）","province":"東京都","city":"荒川区","address":"荒川区荒川2-11-1","lat":35.737061,"lon":139.783389},{"name":"板橋区保健所（健康推進課）","province":"東京都","city":"板橋区","address":"板橋区板橋2-66-1","lat":35.75092,"lon":139.709199},{"name":"板橋区保健所（予防対策課）","province":"東京都","city":"板橋区","address":"板橋区大山東町32-15","lat":35.750567,"lon":139.708091},{"name":"板橋区保健所（生活衛生課）","province":"東京都","city":"板橋区","address":"板橋区大山東町32-15","lat":35.750567,"lon":139.708091},{"name":"板橋健康福祉センター","province":"東京都","city":"板橋区","address":"板橋区大山東町32-15","lat":35.750567,"lon":139.708091},{"name":"上板橋健康福祉センター","province":"東京都","city":"板橋区","address":"板橋区桜川3-18-6","lat":35.760057,"lon":139.675532},{"name":"赤塚健康福祉センター","province":"東京都","city":"板橋区","address":"板橋区赤塚1-10-13","lat":35.772107,"lon":139.647162},{"name":"志村健康福祉センター","province":"東京都","city":"板橋区","address":"板橋区蓮根2-5-5","lat":35.781171,"lon":139.677173},{"name":"高島平健康福祉センター","province":"東京都","city":"板橋区","address":"板橋区高島平3-13-28","lat":35.788142,"lon":139.659319},{"name":"練馬区保健所（生活衛生課）","province":"東京都","city":"練馬区","address":"練馬区豊玉北6-12-1","lat":35.735573,"lon":139.651671},{"name":"練馬区保健所（保健予防課）","province":"東京都","city":"練馬区","address":"練馬区豊玉北6-12-1","lat":35.735573,"lon":139.651671},{"name":"豊玉保健相談所","province":"東京都","city":"練馬区","address":"練馬区豊玉北5-15-19","lat":35.736014,"lon":139.654851},{"name":"北保健相談所","province":"東京都","city":"練馬区","address":"練馬区北町8-2-11","lat":35.763961,"lon":139.651376},{"name":"光が丘保健相談所","province":"東京都","city":"練馬区","address":"練馬区光が丘2-9-6","lat":35.759486,"lon":139.629589},{"name":"石神井保健相談所","province":"東京都","city":"練馬区","address":"練馬区石神井町7-3-28","lat":35.74452,"lon":139.601328},{"name":"大泉保健相談所","province":"東京都","city":"練馬区","address":"練馬区大泉学園町5-8-8","lat":35.767045,"lon":139.586631},{"name":"関保健相談所","province":"東京都","city":"練馬区","address":"練馬区関町東1-27-4","lat":35.726538,"lon":139.5813},{"name":"足立保健所（生活衛生課）","province":"東京都","city":"足立区","address":"足立区中央本町1-5-3","lat":35.771103,"lon":139.803976},{"name":"足立保健所（保健予防課）","province":"東京都","city":"足立区","address":"足立区中央本町1-17-1","lat":35.774892,"lon":139.804584},{"name":"足立保健所（中央本町地域・保健総合支援課）","province":"東京都","city":"足立区","address":"足立区中央本町1-5-3","lat":35.771103,"lon":139.803976},{"name":"竹の塚保健センター","province":"東京都","city":"足立区","address":"足立区西竹の塚1-11-2エミエルタワー竹の塚2階","lat":35.79352,"lon":139.789671},{"name":"江北保健センター","province":"東京都","city":"足立区","address":"足立区西新井本町2-30-40","lat":35.775921,"lon":139.771665},{"name":"千住保健センター","province":"東京都","city":"足立区","address":"足立区千住仲町19-3","lat":35.746346,"lon":139.801617},{"name":"東部保健センター","province":"東京都","city":"足立区","address":"足立区大谷田3-11-13","lat":35.779467,"lon":139.842459},{"name":"足立保健所（衛生試験所）","province":"東京都","city":"足立区","address":"足立区中央本町1-5-3","lat":35.771103,"lon":139.803976},{"name":"葛飾区保健所（地域保健課）","province":"東京都","city":"葛飾区","address":"葛飾区青戸4-15-14","lat":35.751567,"lon":139.850589},{"name":"葛飾区保健所（生活衛生課）","province":"東京都","city":"葛飾区","address":"葛飾区青戸4-15-14","lat":35.751567,"lon":139.850589},{"name":"葛飾区保健所（健康づくり課）","province":"東京都","city":"葛飾区","address":"葛飾区青戸4-15-14","lat":35.751567,"lon":139.850589},{"name":"葛飾区保健所（保健予防課）","province":"東京都","city":"葛飾区","address":"葛飾区青戸4-15-14","lat":35.751567,"lon":139.850589},{"name":"青戸保健センター","province":"東京都","city":"葛飾区","address":"葛飾区青戸4-15-14","lat":35.751567,"lon":139.850589},{"name":"金町保健センター","province":"東京都","city":"葛飾区","address":"葛飾区金町4-18-19","lat":35.764635,"lon":139.865057},{"name":"新小岩保健センター","province":"東京都","city":"葛飾区","address":"葛飾区西新小岩4-21-12","lat":35.721687,"lon":139.852227},{"name":"水元保健センター","province":"東京都","city":"葛飾区","address":"葛飾区東水元1-7-3","lat":35.778847,"lon":139.867526},{"name":"江戸川保健所（生活衛生課）","province":"東京都","city":"江戸川区","address":"江戸川区東小岩3-23-3","lat":35.733873,"lon":139.893965},{"name":"江戸川保健所（保健予防課）","province":"東京都","city":"江戸川区","address":"江戸川区中央4-24-19","lat":35.709623,"lon":139.868262},{"name":"中央健康サポートセンター","province":"東京都","city":"江戸川区","address":"江戸川区中央4-24-19","lat":35.709623,"lon":139.868262},{"name":"小岩健康サポートセンター","province":"東京都","city":"江戸川区","address":"江戸川区東小岩3-23-3","lat":35.733873,"lon":139.893965},{"name":"東部健康サポートセンター","province":"東京都","city":"江戸川区","address":"江戸川区瑞江2-5-7","lat":35.694019,"lon":139.897643},{"name":"清新町健康サポートセンター","province":"東京都","city":"江戸川区","address":"江戸川区清新町1-3-11","lat":35.662897,"lon":139.855773},{"name":"葛西健康サポートセンター","province":"東京都","city":"江戸川区","address":"江戸川区中葛西3-10-1","lat":35.665925,"lon":139.86958},{"name":"鹿骨健康サポートセンター","province":"東京都","city":"江戸川区","address":"江戸川区鹿骨1-55-10","lat":35.709728,"lon":139.890588},{"name":"小松川健康サポートセンター","province":"東京都","city":"江戸川区","address":"江戸川区小松川3-6-1","lat":35.696298,"lon":139.848617},{"name":"なぎさ健康サポートセンター","province":"東京都","city":"江戸川区","address":"江戸川区南葛西7-1-27","lat":35.645633,"lon":139.8813},{"name":"四谷保健センター","province":"東京都","city":"新宿区","address":"新宿区四谷三栄町10-16","lat":35.688474,"lon":139.726283},{"name":"千代田保健所","province":"東京都","city":"千代田区","address":"東京都千代田区九段北1丁目2-14","lat":35.69607147,"lon":139.75213913},{"name":"中央区保健所","province":"東京都","city":"中央区","address":"東京都中央区明石町12-1","lat":35.66657812,"lon":139.77679376},{"name":"日本橋保健センター","province":"東京都","city":"中央区","address":"東京都中央区日本橋堀留町1丁目1-1","lat":35.68741207,"lon":139.77896299},{"name":"月島保健センター","province":"東京都","city":"中央区","address":"東京都中央区月島2丁目10-3","lat":35.66326202,"lon":139.78397937},{"name":"晴海保健センター","province":"東京都","city":"中央区","address":"東京都中央区晴海4丁目8-1","lat":35.65242978,"lon":139.77998283},{"name":"みなと保健所","province":"東京都","city":"港区","address":"東京都港区三田1丁目4-10","lat":35.65403081,"lon":139.7425582},{"name":"新宿区保健所","province":"東京都","city":"新宿区","address":"東京都新宿区新宿5丁目18-21","lat":35.69390388,"lon":139.70567105},{"name":"牛込保健センター","province":"東京都","city":"新宿区","address":"東京都新宿区矢来町6","lat":35.70106761,"lon":139.73091853},{"name":"四谷保健センター","province":"東京都","city":"新宿区","address":"東京都新宿区四谷三栄町10-16","lat":35.68881047,"lon":139.72427238},{"name":"東新宿保健センター","province":"東京都","city":"新宿区","address":"東京都新宿区新宿7丁目26-4","lat":35.69808963,"lon":139.70962332},{"name":"落合保健センター","province":"東京都","city":"新宿区","address":"東京都新宿区下落合4丁目6-7","lat":35.71871744,"lon":139.694996},{"name":"文京保健所","province":"東京都","city":"文京区","address":"東京都文京区春日1丁目16-21","lat":35.70794517,"lon":139.75242748},{"name":"保健サービスセンター","province":"東京都","city":"文京区","address":"東京都文京区春日1丁目16-21","lat":35.70794517,"lon":139.75242748},{"name":"保健サービスセンター本郷支所","province":"東京都","city":"文京区","address":"東京都文京区千駄木5丁目20-18","lat":35.72709628,"lon":139.76017919},{"name":"台東保健所","province":"東京都","city":"台東区","address":"東京都台東区東上野4丁目22-8","lat":35.71447043,"lon":139.78151994},{"name":"浅草保健相談センター","province":"東京都","city":"台東区","address":"東京都台東区花川戸2丁目11-10","lat":35.71488192,"lon":139.80042386},{"name":"墨田区保健所","province":"東京都","city":"墨田区","address":"東京都墨田区吾妻橋1丁目23-20","lat":35.71072382,"lon":139.80149602},{"name":"向島保健センター","province":"東京都","city":"墨田区","address":"東京都墨田区東向島5丁目16-2","lat":35.72588248,"lon":139.82110559},{"name":"本所保健センター","province":"東京都","city":"墨田区","address":"東京都墨田区東駒形1丁目6-4","lat":35.7054382,"lon":139.79805828},{"name":"江東区保健所(健康推進課)","province":"東京都","city":"江東区","address":"東京都江東区東陽2丁目1-1","lat":35.66574028,"lon":139.8142155},{"name":"江東区保健所(生活衛生課)","province":"東京都","city":"江東区","address":"東京都江東区東陽2丁目1-1","lat":35.66574028,"lon":139.8142155},{"name":"江東区保健所(保健予防課)","province":"東京都","city":"江東区","address":"東京都江東区東陽2丁目1-1","lat":35.66574028,"lon":139.8142155},{"name":"城東保健相談所","province":"東京都","city":"江東区","address":"東京都江東区大島3丁目1-3","lat":35.68999589,"lon":139.82765002},{"name":"城東南部保健相談所","province":"東京都","city":"江東区","address":"東京都江東区南砂4丁目3-10","lat":35.67438398,"lon":139.82767528},{"name":"品川区保健所","province":"東京都","city":"品川区","address":"東京都品川区広町2丁目1-36","lat":35.60881128,"lon":139.73028866},{"name":"品川保健センター","province":"東京都","city":"品川区","address":"東京都品川区北品川3丁目11-22","lat":35.61658571,"lon":139.74073199},{"name":"大井保健センター","province":"東京都","city":"品川区","address":"東京都品川区大井2丁目27-20","lat":35.60406184,"lon":139.73038047},{"name":"荏原保健センター","province":"東京都","city":"品川区","address":"東京都品川区西五反田6丁目6-6","lat":35.62309266,"lon":139.71741427},{"name":"目黒区保健所","province":"東京都","city":"目黒区","address":"東京都目黒区上目黒2丁目19-15","lat":35.64110969,"lon":139.69847649},{"name":"碑文谷保健センター","province":"東京都","city":"目黒区","address":"東京都目黒区碑文谷4丁目16-18","lat":35.62137271,"lon":139.68246174},{"name":"大田区保健所（健康医療政策課）","province":"東京都","city":"大田区","address":"東京都大田区蒲田5丁目13-14","lat":35.56143339,"lon":139.71606685},{"name":"大田区保健所(感染症対策課)","province":"東京都","city":"大田区","address":"東京都大田区蒲田5丁目13-14","lat":35.56143339,"lon":139.71606685},{"name":"大田区保健所（生活衛生課）","province":"東京都","city":"大田区","address":"東京都大田区大森西1丁目12-1","lat":35.57816201,"lon":139.72294595},{"name":"大田区保健所（健康づくり課）","province":"東京都","city":"大田区","address":"東京都大田区蒲田5丁目13-14","lat":35.56143339,"lon":139.71606685},{"name":"大田区保健所（大森地域健康課）","province":"東京都","city":"大田区","address":"東京都大田区大森西1丁目12-1","lat":35.57816201,"lon":139.72294595},{"name":"大田区保健所（調布地域健康課）","province":"東京都","city":"大田区","address":"東京都大田区雪谷大塚町4-6","lat":35.5931512,"lon":139.68059373},{"name":"大田区保健所（蒲田地域健康課）","province":"東京都","city":"大田区","address":"東京都大田区蒲田本町2丁目1-1","lat":35.55854219,"lon":139.71842237},{"name":"大田区保健所（糀谷・羽田地域健康課）","province":"東京都","city":"大田区","address":"東京都大田区東糀谷1丁目21-15","lat":35.55741289,"lon":139.73965732},{"name":"世田谷保健所","province":"東京都","city":"世田谷区","address":"東京都世田谷区世田谷4丁目24-1","lat":35.64811049,"lon":139.65111076},{"name":"世田谷総合支所保健福祉センター（健康づくり課）","province":"東京都","city":"世田谷区","address":"東京都世田谷区世田谷4丁目22-33","lat":35.64651071,"lon":139.65221628},{"name":"北沢総合支所保健福祉センター（健康づくり課）","province":"東京都","city":"世田谷区","address":"東京都世田谷区北沢2丁目8-18","lat":35.66216214,"lon":139.66978374},{"name":"玉川総合支所保健福祉センター（健康づくり課）","province":"東京都","city":"世田谷区","address":"東京都世田谷区等々力3丁目4-1","lat":35.60856773,"lon":139.64839004},{"name":"砧総合支所保健福祉センター（健康づくり課）","province":"東京都","city":"世田谷区","address":"東京都世田谷区成城6丁目2-1","lat":35.64126555,"lon":139.60059297},{"name":"烏山総合支所保健福祉センター（健康づくり課）","province":"東京都","city":"世田谷区","address":"東京都世田谷区南烏山6丁目22-14","lat":35.66980644,"lon":139.59797266},{"name":"渋谷区保健所","province":"東京都","city":"渋谷区","address":"東京都渋谷区宇田川町1-1","lat":35.66395376,"lon":139.69807679},{"name":"中央保健相談所","province":"東京都","city":"渋谷区","address":"東京都渋谷区宇田川町5-6","lat":35.66287111,"lon":139.69819793},{"name":"恵比寿保健相談所","province":"東京都","city":"渋谷区","address":"東京都渋谷区恵比寿2丁目27-18","lat":35.64530128,"lon":139.7196134},{"name":"幡ケ谷保健相談所","province":"東京都","city":"渋谷区","address":"東京都渋谷区幡ヶ谷3丁目39-1","lat":35.67936858,"lon":139.67202737},{"name":"中野区保健所","province":"東京都","city":"中野区","address":"東京都中野区中野2丁目17-4","lat":35.70282407,"lon":139.66933499},{"name":"中部すこやか福祉センター","province":"東京都","city":"中野区","address":"東京都中野区中央3丁目19-1","lat":35.70028006,"lon":139.67381249},{"name":"北部すこやか福祉センター","province":"東京都","city":"中野区","address":"東京都中野区江古田4丁目31-10","lat":35.72461583,"lon":139.66141808},{"name":"南部すこやか福祉センター","province":"東京都","city":"中野区","address":"東京都中野区弥生町5丁目11-26","lat":35.68814802,"lon":139.66844124},{"name":"鷺宮すこやか福祉センター","province":"東京都","city":"中野区","address":"東京都中野区若宮3丁目58-10","lat":35.72208222,"lon":139.64033664},{"name":"杉並保健所（健康推進課）","province":"東京都","city":"杉並区","address":"東京都杉並区荻窪5丁目20-1","lat":35.70215612,"lon":139.62026419},{"name":"杉並保健所（生活衛生課）","province":"東京都","city":"杉並区","address":"東京都杉並区荻窪5丁目20-1","lat":35.70215612,"lon":139.62026419},{"name":"杉並保健所（保健予防課）","province":"東京都","city":"杉並区","address":"東京都杉並区荻窪5丁目20-1","lat":35.70215612,"lon":139.62026419},{"name":"荻窪保健センター","province":"東京都","city":"杉並区","address":"東京都杉並区荻窪5丁目20-1","lat":35.70215612,"lon":139.62026419},{"name":"高井戸保健センター","province":"東京都","city":"杉並区","address":"東京都杉並区高井戸東3丁目20-3","lat":35.68498036,"lon":139.62020099},{"name":"高円寺保健センター","province":"東京都","city":"杉並区","address":"東京都杉並区高円寺南3丁目24-15","lat":35.70143191,"lon":139.64577879},{"name":"上井草保健センター","province":"東京都","city":"杉並区","address":"東京都杉並区上井草3丁目8-19","lat":35.71903429,"lon":139.60143999},{"name":"和泉保健センター","province":"東京都","city":"杉並区","address":"東京都杉並区和泉4丁目50-6","lat":35.6826539,"lon":139.6559009},{"name":"池袋保健所（地域保健課）","province":"東京都","city":"豊島区","address":"東京都豊島区東池袋4丁目42-16","lat":35.72757828,"lon":139.72109618},{"name":"池袋保健所（保健予防課）","province":"東京都","city":"豊島区","address":"東京都豊島区東池袋4丁目42-16","lat":35.72757828,"lon":139.72109618},{"name":"池袋保健所（生活衛生課）","province":"東京都","city":"豊島区","address":"東京都豊島区東池袋4丁目42-16","lat":35.72757828,"lon":139.72109618},{"name":"池袋保健所（健康推進課）","province":"東京都","city":"豊島区","address":"東京都豊島区東池袋4丁目42-16","lat":35.72757828,"lon":139.72109618},{"name":"長崎健康相談所","province":"東京都","city":"豊島区","address":"東京都豊島区長崎3丁目6-24","lat":35.72873835,"lon":139.68815727},{"name":"北区保健所（生活衛生課）","province":"東京都","city":"北区","address":"東京都北区東十条2丁目7-3","lat":35.76302725,"lon":139.73054116},{"name":"北区保健所（保健予防課）","province":"東京都","city":"北区","address":"東京都北区東十条2丁目7-3","lat":35.76302725,"lon":139.73054116},{"name":"王子健康支援センター","province":"東京都","city":"北区","address":"東京都北区東十条2丁目7-3","lat":35.76302725,"lon":139.73054116},{"name":"赤羽健康支援センター","province":"東京都","city":"北区","address":"東京都北区赤羽南1丁目13-1","lat":35.77772801,"lon":139.72374944},{"name":"滝野川健康支援センター","province":"東京都","city":"北区","address":"東京都北区西ケ原1丁目19-12","lat":35.74277991,"lon":139.74757667},{"name":"荒川区保健所（生活衛生課）","province":"東京都","city":"荒川区","address":"東京都荒川区荒川2丁目11-1","lat":35.73706089,"lon":139.78338914},{"name":"荒川区保健所（健康推進課）","province":"東京都","city":"荒川区","address":"東京都荒川区荒川2丁目11-1","lat":35.73706089,"lon":139.78338914},{"name":"荒川区保健所（保健予防課）","province":"東京都","city":"荒川区","address":"東京都荒川区荒川2丁目11-1","lat":35.73706089,"lon":139.78338914},{"name":"板橋区保健所（健康推進課）","province":"東京都","city":"板橋区","address":"東京都板橋区板橋2丁目66-1","lat":35.75091701,"lon":139.70919342},{"name":"板橋区保健所（予防対策課）","province":"東京都","city":"板橋区","address":"東京都板橋区大山東町32-15","lat":35.75056702,"lon":139.70809075},{"name":"板橋区保健所（生活衛生課）","province":"東京都","city":"板橋区","address":"東京都板橋区大山東町32-15","lat":35.75056702,"lon":139.70809075},{"name":"板橋健康福祉センター","province":"東京都","city":"板橋区","address":"東京都板橋区大山東町32-15","lat":35.75056702,"lon":139.70809075},{"name":"上板橋健康福祉センター","province":"東京都","city":"板橋区","address":"東京都板橋区桜川3丁目18-6","lat":35.76005656,"lon":139.67553193},{"name":"赤塚健康福祉センター","province":"東京都","city":"板橋区","address":"東京都板橋区赤塚1丁目10-13","lat":35.7721073,"lon":139.64716176},{"name":"志村健康福祉センター","province":"東京都","city":"板橋区","address":"東京都板橋区蓮根2丁目5-5","lat":35.78117079,"lon":139.67717267},{"name":"高島平健康福祉センター","province":"東京都","city":"板橋区","address":"東京都板橋区高島平3丁目13-28","lat":35.78814153,"lon":139.65931856},{"name":"練馬区保健所（生活衛生課）","province":"東京都","city":"練馬区","address":"東京都練馬区豊玉北6丁目12-1","lat":35.73558101,"lon":139.65167678},{"name":"練馬区保健所（保健予防課）","province":"東京都","city":"練馬区","address":"東京都練馬区豊玉北6丁目12-1","lat":35.73558101,"lon":139.65167678},{"name":"豊玉保健相談所","province":"東京都","city":"練馬区","address":"東京都練馬区豊玉北5丁目15-19","lat":35.73594216,"lon":139.65492649},{"name":"北保健相談所","province":"東京都","city":"練馬区","address":"東京都練馬区北町6丁目35-7","lat":35.75720905,"lon":139.64949272},{"name":"光が丘保健相談所","province":"東京都","city":"練馬区","address":"東京都練馬区光が丘2丁目9-6","lat":35.75941388,"lon":139.62976375},{"name":"石神井保健相談所","province":"東京都","city":"練馬区","address":"東京都練馬区石神井町7丁目3-28","lat":35.74453977,"lon":139.60134731},{"name":"大泉保健相談所","province":"東京都","city":"練馬区","address":"東京都練馬区大泉学園町5丁目8-8","lat":35.76707824,"lon":139.58662845},{"name":"関保健相談所","province":"東京都","city":"練馬区","address":"東京都練馬区関町東1丁目27-4","lat":35.72653849,"lon":139.58129968},{"name":"足立保健所（生活衛生課）","province":"東京都","city":"足立区","address":"東京都足立区中央本町1丁目5-3","lat":35.77107006,"lon":139.80388997},{"name":"足立保健所（感染症対策課）","province":"東京都","city":"足立区","address":"東京都足立区中央本町1丁目5-3","lat":35.77107006,"lon":139.80388997},{"name":"足立保健所（中央本町地域・保健総合支援課）","province":"東京都","city":"足立区","address":"東京都足立区中央本町1丁目5-3","lat":35.77107006,"lon":139.80388997},{"name":"足立保健所（衛生試験所）","province":"東京都","city":"足立区","address":"東京都足立区中央本町1丁目5-3","lat":35.77107006,"lon":139.80388997},{"name":"竹の塚保健センター","province":"東京都","city":"足立区","address":"東京都足立区西竹の塚1丁目11-2","lat":35.79335326,"lon":139.78973472},{"name":"江北保健センター","province":"東京都","city":"足立区","address":"東京都足立区西新井本町2丁目30-40","lat":35.77600747,"lon":139.77157304},{"name":"千住保健センター","province":"東京都","city":"足立区","address":"東京都足立区千住仲町19-3","lat":35.74632333,"lon":139.80160027},{"name":"東部保健センター","province":"東京都","city":"足立区","address":"東京都足立区大谷田3丁目11-13","lat":35.77948897,"lon":139.84245309},{"name":"葛飾区保健所（地域保健課）","province":"東京都","city":"葛飾区","address":"東京都葛飾区青戸4丁目15-14","lat":35.75147327,"lon":139.8505256},{"name":"葛飾区保健所（生活衛生課）","province":"東京都","city":"葛飾区","address":"東京都葛飾区青戸4丁目15-14","lat":35.75147327,"lon":139.8505256},{"name":"葛飾区保健所（健康推進課）","province":"東京都","city":"葛飾区","address":"東京都葛飾区青戸4丁目15-14","lat":35.75147327,"lon":139.8505256},{"name":"葛飾区保健所（保健予防課）","province":"東京都","city":"葛飾区","address":"東京都葛飾区青戸4丁目15-14","lat":35.75147327,"lon":139.8505256},{"name":"青戸保健センター","province":"東京都","city":"葛飾区","address":"東京都葛飾区青戸4丁目15-14","lat":35.75147327,"lon":139.8505256},{"name":"金町保健センター","province":"東京都","city":"葛飾区","address":"東京都葛飾区金町4丁目18-19","lat":35.76463548,"lon":139.86505735},{"name":"新小岩保健センター","province":"東京都","city":"葛飾区","address":"東京都葛飾区西新小岩4丁目33-2","lat":35.71900154,"lon":139.85337431},{"name":"水元保健センター","province":"東京都","city":"葛飾区","address":"東京都葛飾区東水元1丁目7-3","lat":35.77884728,"lon":139.8675263},{"name":"江戸川保健所（生活衛生課）","province":"東京都","city":"江戸川区","address":"東京都江戸川区東小岩3丁目23-3","lat":35.73387864,"lon":139.89399229},{"name":"江戸川保健所（保健予防課）","province":"東京都","city":"江戸川区","address":"東京都江戸川区中央4丁目24-19","lat":35.70962253,"lon":139.86826222},{"name":"中央健康サポートセンター","province":"東京都","city":"江戸川区","address":"東京都江戸川区中央4丁目24-19","lat":35.70962253,"lon":139.86826222},{"name":"小岩健康サポートセンター","province":"東京都","city":"江戸川区","address":"東京都江戸川区東小岩3丁目23-3","lat":35.73387864,"lon":139.89399229},{"name":"東部健康サポートセンター","province":"東京都","city":"江戸川区","address":"東京都江戸川区瑞江2丁目5-7","lat":35.69401926,"lon":139.8976433},{"name":"清新町健康サポートセンター","province":"東京都","city":"江戸川区","address":"東京都江戸川区清新町1丁目3-11","lat":35.66289717,"lon":139.85577317},{"name":"葛西健康サポートセンター","province":"東京都","city":"江戸川区","address":"東京都江戸川区中葛西3丁目10-1","lat":35.66592511,"lon":139.86958022},{"name":"鹿骨健康サポートセンター","province":"東京都","city":"江戸川区","address":"東京都江戸川区鹿骨1丁目55-10","lat":35.70972765,"lon":139.89058766},{"name":"小松川健康サポートセンター","province":"東京都","city":"江戸川区","address":"東京都江戸川区小松川3丁目6-1","lat":35.69629809,"lon":139.84861738},{"name":"なぎさ健康サポートセンター","province":"東京都","city":"江戸川区","address":"東京都江戸川区南葛西7丁目1-27","lat":35.64563335,"lon":139.88129956},{"name":"千代田保健所","province":"東京都","city":"千代田区","address":"千代田区九段北1-2-14","lat":35.69598,"lon":139.75204},{"name":"中央区保健所","province":"東京都","city":"中央区","address":"中央区明石町12-1","lat":35.66659,"lon":139.77684},{"name":"日本橋保健センター","province":"東京都","city":"中央区","address":"中央区日本橋堀留町1-1-1","lat":35.68706,"lon":139.77928},{"name":"月島保健センター","province":"東京都","city":"中央区","address":"中央区月島2-10-3","lat":35.66351,"lon":139.78418},{"name":"みなと保健所","province":"東京都","city":"港区","address":"港区三田1-4-10","lat":35.65316,"lon":139.74274},{"name":"新宿区保健所","province":"東京都","city":"新宿区","address":"新宿区新宿5-18-21","lat":35.69441,"lon":139.70663},{"name":"牛込保健センター","province":"東京都","city":"新宿区","address":"新宿区矢来町6","lat":35.70112,"lon":139.73083},{"name":"四谷保健センター","province":"東京都","city":"新宿区","address":"新宿区四谷三栄町10-16","lat":35.68874,"lon":139.72412},{"name":"東新宿保健センター","province":"東京都","city":"新宿区","address":"新宿区新宿7-26-4","lat":35.69917,"lon":139.7092},{"name":"落合保健センター","province":"東京都","city":"新宿区","address":"新宿区下落合4-6-7","lat":35.71946,"lon":139.69492},{"name":"文京保健所","province":"東京都","city":"文京区","address":"文京区春日1-16-21","lat":35.70794,"lon":139.75278},{"name":"保健サービスセンター","province":"東京都","city":"文京区","address":"文京区春日1-16-21","lat":35.70794,"lon":139.75278},{"name":"保健サービスセンター本郷支所","province":"東京都","city":"文京区","address":"文京区千駄木5-20-18","lat":35.72718,"lon":139.76012},{"name":"台東保健所","province":"東京都","city":"台東区","address":"台東区東上野4-22-8","lat":35.71452,"lon":139.78156},{"name":"浅草保健相談センター","province":"東京都","city":"台東区","address":"台東区花川戸2-11-10","lat":35.7147,"lon":139.80031},{"name":"墨田区保健所","province":"東京都","city":"墨田区","address":"墨田区吾妻橋1-23-20","lat":35.71006,"lon":139.8011},{"name":"向島保健センター","province":"東京都","city":"墨田区","address":"墨田区東向島5-16-2","lat":35.72611,"lon":139.82111},{"name":"本所保健センター","province":"東京都","city":"墨田区","address":"墨田区東駒形1-6-4","lat":35.70532,"lon":139.79796},{"name":"江東区保健所(健康推進課)","province":"東京都","city":"江東区","address":"江東区東陽2-1-1","lat":35.66642,"lon":139.81459},{"name":"江東区保健所(生活衛生課)","province":"東京都","city":"江東区","address":"江東区東陽2-1-1","lat":35.66642,"lon":139.81459},{"name":"江東区保健所(保健予防課)","province":"東京都","city":"江東区","address":"江東区東陽2-1-1","lat":35.66642,"lon":139.81459},{"name":"城東保健相談所","province":"東京都","city":"江東区","address":"江東区大島3-1-3","lat":35.68985,"lon":139.82712},{"name":"城東南部保健相談所","province":"東京都","city":"江東区","address":"江東区南砂4-3-10","lat":35.67444,"lon":139.8271},{"name":"深川保健相談所","province":"東京都","city":"江東区","address":"江東区白河3-4-3-301","lat":35.68221,"lon":139.806},{"name":"深川南部保健相談所","province":"東京都","city":"江東区","address":"江東区枝川1-8-15-102","lat":35.65753,"lon":139.80211},{"name":"品川区保健所","province":"東京都","city":"品川区","address":"品川区広町2-1-36","lat":35.6083,"lon":139.73096},{"name":"品川保健センター","province":"東京都","city":"品川区","address":"品川区北品川3-11-22","lat":35.61644,"lon":139.73927},{"name":"大井保健センター","province":"東京都","city":"品川区","address":"品川区大井2-27-20","lat":35.60418,"lon":139.73032},{"name":"荏原保健センター","province":"東京都","city":"品川区","address":"品川区西五反田6-6-6","lat":35.62268,"lon":139.71748},{"name":"目黒区保健所","province":"東京都","city":"目黒区","address":"目黒区上目黒2-19-15","lat":35.64108,"lon":139.69838},{"name":"碑文谷保健センター","province":"東京都","city":"目黒区","address":"目黒区碑文谷4-16-18","lat":35.62111,"lon":139.6821},{"name":"大田区保健所（健康医療政策課）","province":"東京都","city":"大田区","address":"大田区蒲田5-13-14","lat":35.56125,"lon":139.71576},{"name":"大田区保健所(感染症対策課)","province":"東京都","city":"大田区","address":"大田区蒲田5-13-14","lat":35.56125,"lon":139.71576},{"name":"大田区保健所（生活衛生課）","province":"東京都","city":"大田区","address":"大田区大森西1-12-1","lat":35.57768,"lon":139.72266},{"name":"大田区保健所（健康づくり課）","province":"東京都","city":"大田区","address":"大田区蒲田5-13-14","lat":35.56125,"lon":139.71576},{"name":"大田区保健所（大森地域健康課）","province":"東京都","city":"大田区","address":"大田区大森西1-12-1","lat":35.57768,"lon":139.72266},{"name":"大田区保健所（調布地域健康課）","province":"東京都","city":"大田区","address":"大田区雪谷大塚町4-6","lat":35.59329,"lon":139.68016},{"name":"大田区保健所（蒲田地域健康課）","province":"東京都","city":"大田区","address":"大田区蒲田本町2-1-1","lat":35.55798,"lon":139.71837},{"name":"大田区保健所（糀谷・羽田地域健康課）","province":"東京都","city":"大田区","address":"大田区東糀谷1-21-15","lat":35.55752,"lon":139.73979},{"name":"世田谷保健所","province":"東京都","city":"世田谷区","address":"世田谷区世田谷4-24-1","lat":35.64844,"lon":139.65125},{"name":"世田谷総合支所保健福祉センター（健康づくり課）","province":"東京都","city":"世田谷区","address":"世田谷区世田谷4-22-33","lat":35.64657,"lon":139.65193},{"name":"北沢総合支所保健福祉センター（健康づくり課）","province":"東京都","city":"世田谷区","address":"世田谷区北沢2-8-18","lat":35.66237,"lon":139.66968},{"name":"玉川総合支所保健福祉センター（健康づくり課）","province":"東京都","city":"世田谷区","address":"世田谷区等々力3-4-1","lat":35.60863,"lon":139.64839},{"name":"砧総合支所保健福祉センター（健康づくり課）","province":"東京都","city":"世田谷区","address":"世田谷区成城6-2-1","lat":35.64123,"lon":139.60078},{"name":"烏山総合支所保健福祉センター（健康づくり課）","province":"東京都","city":"世田谷区","address":"世田谷区南烏山6-22-14","lat":35.66956,"lon":139.59814},{"name":"渋谷区保健所","province":"東京都","city":"渋谷区","address":"渋谷区宇田川町1-1","lat":35.66415,"lon":139.69789},{"name":"中央保健相談所","province":"東京都","city":"渋谷区","address":"渋谷区宇田川町5-6","lat":35.66322,"lon":139.69783},{"name":"恵比寿保健相談所","province":"東京都","city":"渋谷区","address":"渋谷区恵比寿2-27-18","lat":35.64554,"lon":139.72012},{"name":"幡ケ谷保健相談所","province":"東京都","city":"渋谷区","address":"渋谷区幡ケ谷3-39-1","lat":35.67944,"lon":139.67197},{"name":"中野区保健所","province":"東京都","city":"中野区","address":"中野区中野2-17-4","lat":35.70287,"lon":139.66949},{"name":"中部すこやか福祉センター","province":"東京都","city":"中野区","address":"中野区中央3-19-1","lat":35.70008,"lon":139.67422},{"name":"北部すこやか福祉センター","province":"東京都","city":"中野区","address":"中野区江古田4-31-10","lat":35.72435,"lon":139.66159},{"name":"南部すこやか福祉センター","province":"東京都","city":"中野区","address":"中野区弥生町5-11-26","lat":35.68792,"lon":139.66827},{"name":"鷺宮すこやか福祉センター","province":"東京都","city":"中野区","address":"中野区若宮3-58-10","lat":35.7222,"lon":139.63969},{"name":"杉並保健所（健康推進課）","province":"東京都","city":"杉並区","address":"杉並区荻窪5-20-1","lat":35.70236,"lon":139.62022},{"name":"杉並保健所（生活衛生課）","province":"東京都","city":"杉並区","address":"杉並区荻窪5-20-1","lat":35.70236,"lon":139.62022},{"name":"杉並保健所（保健予防課）","province":"東京都","city":"杉並区","address":"杉並区荻窪5-20-1","lat":35.70236,"lon":139.62022},{"name":"荻窪保健センター","province":"東京都","city":"杉並区","address":"杉並区荻窪5-20-1","lat":35.70236,"lon":139.62022},{"name":"高井戸保健センター","province":"東京都","city":"杉並区","address":"杉並区高井戸東3-20-3","lat":35.68507,"lon":139.62036},{"name":"高円寺保健センター","province":"東京都","city":"杉並区","address":"杉並区高円寺南3-24-15","lat":35.70125,"lon":139.64597},{"name":"上井草保健センター","province":"東京都","city":"杉並区","address":"杉並区上井草3-8-19","lat":35.71889,"lon":139.6013},{"name":"和泉保健センター","province":"東京都","city":"杉並区","address":"杉並区和泉4-50-6","lat":35.68291,"lon":139.65593},{"name":"池袋保健所（地域保健課）","province":"東京都","city":"豊島区","address":"豊島区東池袋4-42-16","lat":35.72778,"lon":139.72185},{"name":"池袋保健所（生活衛生課）","province":"東京都","city":"豊島区","address":"豊島区東池袋4-42-16","lat":35.72778,"lon":139.72185},{"name":"池袋保健所（健康推進課）","province":"東京都","city":"豊島区","address":"豊島区東池袋4-42-16","lat":35.72778,"lon":139.72185},{"name":"長崎健康相談所","province":"東京都","city":"豊島区","address":"豊島区長崎3-6-24","lat":35.72884,"lon":139.68799},{"name":"北区保健所（生活衛生課）","province":"東京都","city":"北区","address":"北区東十条2-7-3","lat":35.76303,"lon":139.73059},{"name":"北区保健所（保健予防課）","province":"東京都","city":"北区","address":"北区東十条2-7-3","lat":35.76303,"lon":139.73059},{"name":"王子健康支援センター","province":"東京都","city":"北区","address":"北区東十条2-7-3","lat":35.76303,"lon":139.73059},{"name":"赤羽健康支援センター","province":"東京都","city":"北区","address":"北区赤羽南1-13-1赤羽会館6階","lat":35.77772,"lon":139.72371},{"name":"滝野川健康支援センター","province":"東京都","city":"北区","address":"北区西ケ原1-19-12","lat":35.74276,"lon":139.74791},{"name":"荒川区保健所（生活衛生課）","province":"東京都","city":"荒川区","address":"荒川区荒川2-11-1","lat":35.73694,"lon":139.78354},{"name":"荒川区保健所（健康推進課）","province":"東京都","city":"荒川区","address":"荒川区荒川2-11-1","lat":35.73694,"lon":139.78354},{"name":"荒川区保健所（保健予防課）","province":"東京都","city":"荒川区","address":"荒川区荒川2-11-1","lat":35.73694,"lon":139.78354},{"name":"板橋区保健所（感染症対策課）","province":"東京都","city":"板橋区","address":"板橋区大山東町32-15","lat":35.75045,"lon":139.70816},{"name":"板橋区保健所（健康推進課）","province":"東京都","city":"板橋区","address":"板橋区板橋2-66-1","lat":35.75111,"lon":139.70912},{"name":"板橋区保健所（予防対策課）","province":"東京都","city":"板橋区","address":"板橋区大山東町32-15","lat":35.75045,"lon":139.70816},{"name":"板橋区保健所（生活衛生課）","province":"東京都","city":"板橋区","address":"板橋区大山東町32-15","lat":35.75045,"lon":139.70816},{"name":"板橋健康福祉センター","province":"東京都","city":"板橋区","address":"板橋区大山東町32-15","lat":35.75045,"lon":139.70816},{"name":"上板橋健康福祉センター","province":"東京都","city":"板橋区","address":"板橋区桜川3-18-6","lat":35.76015,"lon":139.67572},{"name":"赤塚健康福祉センター","province":"東京都","city":"板橋区","address":"板橋区赤塚1-10-13","lat":35.77201,"lon":139.64677},{"name":"志村健康福祉センター","province":"東京都","city":"板橋区","address":"板橋区蓮根2-5-5","lat":35.78085,"lon":139.67709},{"name":"高島平健康福祉センター","province":"東京都","city":"板橋区","address":"板橋区高島平3-13-28","lat":35.78799,"lon":139.65884},{"name":"練馬区保健所（生活衛生課）","province":"東京都","city":"練馬区","address":"練馬区豊玉北6-12-1","lat":35.73571,"lon":139.65167},{"name":"練馬区保健所（保健予防課）","province":"東京都","city":"練馬区","address":"練馬区豊玉北6-12-1","lat":35.73571,"lon":139.65167},{"name":"豊玉保健相談所","province":"東京都","city":"練馬区","address":"練馬区豊玉北5-15-19","lat":35.73619,"lon":139.65497},{"name":"北保健相談所","province":"東京都","city":"練馬区","address":"練馬区北町6-35-7","lat":35.7577,"lon":139.64937},{"name":"光が丘保健相談所","province":"東京都","city":"練馬区","address":"練馬区光が丘2-9-6","lat":35.75914,"lon":139.63036},{"name":"石神井保健相談所","province":"東京都","city":"練馬区","address":"練馬区石神井町7-3-28","lat":35.7443,"lon":139.60115},{"name":"大泉保健相談所","province":"東京都","city":"練馬区","address":"練馬区大泉学園町5-8-8","lat":35.76731,"lon":139.58688},{"name":"関保健相談所","province":"東京都","city":"練馬区","address":"練馬区関町東1-27-4","lat":35.72668,"lon":139.58139},{"name":"足立保健所（生活衛生課）","province":"東京都","city":"足立区","address":"足立区中央本町1-5-3","lat":35.77107,"lon":139.80389},{"name":"足立保健所（感染症対策課）","province":"東京都","city":"足立区","address":"足立区中央本町1-5-3","lat":35.77107,"lon":139.80389},{"name":"足立保健所（中央本町地域・保健総合支援課）","province":"東京都","city":"足立区","address":"足立区中央本町1-5-3","lat":35.77107,"lon":139.80389},{"name":"足立保健所（衛生試験所）","province":"東京都","city":"足立区","address":"足立区中央本町1-5-3","lat":35.77107,"lon":139.80389},{"name":"竹の塚保健センター","province":"東京都","city":"足立区","address":"足立区西竹の塚1-11-2エミエルタワー竹の塚2階","lat":35.79345,"lon":139.78973},{"name":"江北保健センター","province":"東京都","city":"足立区","address":"足立区西新井本町2-30-40","lat":35.77583,"lon":139.77092},{"name":"千住保健センター","province":"東京都","city":"足立区","address":"足立区千住仲町19-3千住庁舎4階","lat":35.74637,"lon":139.80156},{"name":"東部保健センター","province":"東京都","city":"足立区","address":"足立区大谷田3-11-13","lat":35.77939,"lon":139.84218},{"name":"葛飾区保健所（地域保健課）","province":"東京都","city":"葛飾区","address":"葛飾区青戸4-15-14","lat":35.75141,"lon":139.85063},{"name":"葛飾区保健所（生活衛生課）","province":"東京都","city":"葛飾区","address":"葛飾区青戸4-15-14","lat":35.75141,"lon":139.85063},{"name":"葛飾区保健所（健康づくり課）","province":"東京都","city":"葛飾区","address":"葛飾区青戸4-15-14","lat":35.75141,"lon":139.85063},{"name":"葛飾区保健所（保健予防課）","province":"東京都","city":"葛飾区","address":"葛飾区青戸4-15-14","lat":35.75141,"lon":139.85063},{"name":"青戸保健センター","province":"東京都","city":"葛飾区","address":"葛飾区青戸4-15-14","lat":35.75141,"lon":139.85063},{"name":"金町保健センター","province":"東京都","city":"葛飾区","address":"葛飾区金町4-18-19","lat":35.76478,"lon":139.86496},{"name":"新小岩保健センター","province":"東京都","city":"葛飾区","address":"葛飾区西新小岩4-33-2","lat":35.71869,"lon":139.85342},{"name":"水元保健センター","province":"東京都","city":"葛飾区","address":"葛飾区東水元1-7-3","lat":35.77879,"lon":139.86784},{"name":"江戸川保健所（生活衛生課）","province":"東京都","city":"江戸川区","address":"江戸川区東小岩3-23-3","lat":35.73393,"lon":139.89398},{"name":"江戸川保健所（保健予防課）","province":"東京都","city":"江戸川区","address":"江戸川区中央4-24-19","lat":35.70982,"lon":139.86824},{"name":"中央健康サポートセンター","province":"東京都","city":"江戸川区","address":"江戸川区中央4-24-19","lat":35.70982,"lon":139.86824},{"name":"小岩健康サポートセンター","province":"東京都","city":"江戸川区","address":"江戸川区東小岩3-23-3","lat":35.73393,"lon":139.89398},{"name":"東部健康サポートセンター","province":"東京都","city":"江戸川区","address":"江戸川区瑞江2-5-7","lat":35.69398,"lon":139.89775},{"name":"清新町健康サポートセンター","province":"東京都","city":"江戸川区","address":"江戸川区清新町1-3-11","lat":35.66125,"lon":139.85623},{"name":"葛西健康サポートセンター","province":"東京都","city":"江戸川区","address":"江戸川区中葛西3-10-1","lat":35.66589,"lon":139.86938},{"name":"鹿骨健康サポートセンター","province":"東京都","city":"江戸川区","address":"江戸川区鹿骨1-55-10","lat":35.70947,"lon":139.89064},{"name":"小松川健康サポートセンター","province":"東京都","city":"江戸川区","address":"江戸川区小松川3-6-1","lat":35.69702,"lon":139.84932},{"name":"なぎさ健康サポートセンター","province":"東京都","city":"江戸川区","address":"江戸川区南葛西7-1-27","lat":35.64574,"lon":139.87993},{"name":"荏原保健センター","province":"東京都","city":"品川区","address":"品川区荏原2-9-6","lat":35.61701,"lon":139.71111},{"name":"王子健康支援センター","province":"東京都","city":"北区","address":"北区赤羽南1-13-1赤羽会館6階","lat":35.77772,"lon":139.72371},{"name":"長崎健康相談所","province":"東京都","city":"豊島区","address":"豊島区長崎2-27-18","lat":35.72959,"lon":139.69295},{"name":"新小岩保健センター","province":"東京都","city":"葛飾区","address":"葛飾区西新小岩4-21-12","lat":35.72127,"lon":139.85213},{"name":"世田谷総合支所保健福祉センター（健康づくり課）","province":"東京都","city":"世田谷区","address":"世田谷区世田谷4-22-33","lat":35.646513,"lon":139.652191},{"name":"北沢総合支所保健福祉センター（健康づくり課）","province":"東京都","city":"世田谷区","address":"世田谷区北沢2-8-18","lat":35.662132,"lon":139.669952},{"name":"玉川総合支所保健福祉センター（健康づくり課）","province":"東京都","city":"世田谷区","address":"世田谷区等々力4-19-18","lat":35.610679,"lon":139.652448},{"name":"砧総合支所保健福祉センター（健康づくり課）","province":"東京都","city":"世田谷区","address":"世田谷区成城6-2-1","lat":35.641293,"lon":139.600582},{"name":"烏山総合支所保健福祉センター（健康づくり課）","province":"東京都","city":"世田谷区","address":"世田谷区南烏山6-22-14","lat":35.669776,"lon":139.598031},{"name":"渋谷区保健所","province":"東京都","city":"渋谷区","address":"渋谷区宇田川町1-1","lat":35.663475,"lon":139.697189},{"name":"中央保健相談所","province":"東京都","city":"渋谷区","address":"渋谷区渋谷1-18-21","lat":35.661461,"lon":139.703949},{"name":"南部すこやか福祉センター","province":"東京都","city":"中野区","address":"中野区弥生町5-11-26","lat":35.68808,"lon":139.668823},{"name":"足立保健所（感染症対策課）","province":"東京都","city":"足立区","address":"足立区中央本町1-5-3","lat":35.771079,"lon":139.803906},{"name":"世田谷保健所","province":"東京都","city":"世田谷区","address":"世田谷区世田谷4-22-35","lat":35.64657,"lon":139.65193},{"name":"千代田保健所","province":"東京都","city":"千代田区","address":"千代田区九段北1-2-14","lat":35.69598,"lon":139.75205},{"name":"新宿区保健所","province":"東京都","city":"新宿区","address":"新宿区新宿5-18-21","lat":35.69441,"lon":139.70664},{"name":"牛込保健センター","province":"東京都","city":"新宿区","address":"新宿区弁天町50","lat":35.70326,"lon":139.72746},{"name":"四谷保健センター","province":"東京都","city":"新宿区","address":"新宿区四谷三栄町10-16","lat":35.68864,"lon":139.72612},{"name":"文京区保健所","province":"東京都","city":"文京区","address":"文京区春日1-16-21","lat":35.70794,"lon":139.75278},{"name":"烏山総合支所保健福祉センター（健康づくり課）","province":"東京都","city":"世田谷区","address":"世田谷区南烏山6-22-14","lat":35.66956,"lon":139.59815},{"name":"中央保健相談所","province":"東京都","city":"渋谷区","address":"渋谷区渋谷1-18-21","lat":35.66185,"lon":139.70392},{"name":"中野区保健所","province":"東京都","city":"中野区","address":"中野区中野2-17-4","lat":35.70287,"lon":139.6695},{"name":"中部すこやか福祉センター","province":"東京都","city":"中野区","address":"中野区中央3-19-1","lat":35.70009,"lon":139.67423},{"name":"鷺宮すこやか福祉センター","province":"東京都","city":"中野区","address":"中野区鷺宮3-58-10","lat":35.72442,"lon":139.64104},{"name":"関保健相談所","province":"東京都","city":"練馬区","address":"練馬区関町東1-27-4","lat":35.72669,"lon":139.58139},{"name":"清新町健康サポートセンター","province":"東京都","city":"江戸川区","address":"江戸川区清新町1-3-11","lat":35.66126,"lon":139.85623},{"name":"葛西健康サポートセンター","province":"東京都","city":"江戸川区","address":"江戸川区中葛西3-10-1","lat":35.66589,"lon":139.86939},{"name":"深川南部保健相談所","province":"東京都","city":"江東区","address":"江東区枝川1-8-15-102","lat":35.65471,"lon":139.80589},{"name":"玉川総合支所保健福祉センター（健康づくり課）","province":"東京都","city":"世田谷区","address":"世田谷区等々力4-19-18","lat":35.61036,"lon":139.65262},{"name":"鷺宮すこやか福祉センター","province":"東京都","city":"中野区","address":"中野区鷺宮3-58-10","lat":35.72433,"lon":139.64253},{"name":"北保健相談所","province":"東京都","city":"練馬区","address":"練馬区北町8-2-11","lat":35.76413,"lon":139.65102},{"name":"公益財団法人 港区スポーツふれあい文化健康財団(Kissポート財団)","province":"東京都","city":"港区","address":"港区赤坂四丁目18番13号赤坂コミュニティーぷらざ内","lat":35.674729,"lon":139.731722,"URL":"<a href='https://www.city.minato.tokyo.jp/shisetsu/kankekikan/kankekikan/02.html' target='_blank'>https://www.city.minato.tokyo.jp/shisetsu/kankekikan/kankekikan/02.html</a>","分類":"区関係機関","地区":"赤坂地区","連絡先":"電話番号:03-5770-6837 ファックス番号:03-5770-6884"},{"name":"社会福祉法人 港区社会福祉協議会","province":"東京都","city":"港区","address":"港区六本木五丁目16番45号麻布地区総合支所2階","lat":35.660657,"lon":139.735078,"URL":"<a href='https://www.city.minato.tokyo.jp/shisetsu/kankekikan/kankekikan/03.html' target='_blank'>https://www.city.minato.tokyo.jp/shisetsu/kankekikan/kankekikan/03.html</a>","分類":"区関係機関","地区":"麻布地区","連絡先":"電話番号:03-6230-0280 ファックス番号:03-6230-0285"},{"name":"公益社団法人 港区シルバー人材センター","province":"東京都","city":"港区","address":"港区南麻布一丁目5番26号(ゆうあい南麻布内)","lat":35.651307,"lon":139.735279,"URL":"<a href='https://www.city.minato.tokyo.jp/shisetsu/kankekikan/kankekikan/05.html' target='_blank'>https://www.city.minato.tokyo.jp/shisetsu/kankekikan/kankekikan/05.html</a>","分類":"区関係機関","地区":"麻布地区","連絡先":"電話番号:03-5232-9681 ファックス番号:03-5232-9680"},{"name":"一般財団法人 港区国際交流協会","province":"東京都","city":"港区","address":"港区北青山一丁目6番3号都営北青山一丁目アパート3号棟地下1階","lat":35.674568,"lon":139.721294,"URL":"<a href='https://www.city.minato.tokyo.jp/shisetsu/kankekikan/kankekikan/06.html' target='_blank'>https://www.city.minato.tokyo.jp/shisetsu/kankekikan/kankekikan/06.html</a>","分類":"区関係機関","地区":"赤坂地区","連絡先":"電話番号:03-6440-0233 ファックス番号:03-6440-0234"},{"name":"特定非営利活動法人 みなと障がい者福祉事業団","province":"東京都","city":"港区","address":"港区芝一丁目8番23号障害保健福祉センター内","lat":35.651756,"lon":139.755562,"URL":"<a href='https://www.city.minato.tokyo.jp/shisetsu/kankekikan/kankekikan/07.html' target='_blank'>https://www.city.minato.tokyo.jp/shisetsu/kankekikan/kankekikan/07.html</a>","分類":"区関係機関","地区":"芝地区","連絡先":"電話:03-5439-8062"}]}