{"keyword":"指定","data":[{"name":"紙本着色妙国寺絵図","province":"","city":"","address":"南品川2-8-23","lat":35.611868,"lon":139.742899},{"name":"絹本淡彩沢庵和尚像","province":"","city":"","address":"北品川3-11-9","lat":35.616144,"lon":139.738973},{"name":"妙国寺文書","province":"","city":"","address":"南品川2-8-23","lat":35.611868,"lon":139.742899},{"name":"沢庵宗彭墨蹟（寛永17年）","province":"","city":"","address":"北品川3-11-9","lat":35.616144,"lon":139.738973},{"name":"沢庵宗彭墨蹟（正保2年）","province":"","city":"","address":"北品川3-11-9","lat":35.616144,"lon":139.738973},{"name":"東海寺拝領御道具帳","province":"","city":"","address":"北品川3-11-9","lat":35.616144,"lon":139.738973},{"name":"東海寺公用記録","province":"","city":"","address":"北品川3-11-9","lat":35.616144,"lon":139.738973},{"name":"高輪車町及び如来寺門前絵図","province":"","city":"","address":"西大井5-22-25","lat":35.59686,"lon":139.717244},{"name":"土浦家住宅","province":"","city":"","address":"上大崎2丁目","lat":35.636955,"lon":139.715392},{"name":"春秋庵白雄墓","province":"","city":"","address":"南品川5-16-22","lat":35.607671,"lon":139.742341},{"name":"白井鳥酔墓","province":"","city":"","address":"南品川5-16-22","lat":35.607671,"lon":139.742341},{"name":"岩倉具視墓","province":"","city":"","address":"南品川5-16-22","lat":35.607671,"lon":139.742341},{"name":"旧島津家本邸","province":"","city":"","address":"東五反田3-16-21","lat":35.627345,"lon":139.728232},{"name":"絹本著色仏眼曼荼羅図","province":"","city":"","address":"南品川3-5-17","lat":35.609711,"lon":139.743527},{"name":"金小札色々威胴丸","province":"","city":"","address":"大井4-22-16","lat":35.600257,"lon":139.732992},{"name":"沢庵墓","province":"","city":"","address":"北品川4-11-8","lat":35.617099,"lon":139.735705},{"name":"賀茂真淵墓","province":"","city":"","address":"北品川4-11-8","lat":35.617099,"lon":139.735705},{"name":"江戸の里神楽（品川神社）","province":"","city":"","address":"東大井2-16-7","lat":35.600328,"lon":139.741562}]}