{"keyword":"命令","data":[{"name":"ムーミン保育室","province":"新潟県","city":"新潟市東区","address":"新潟県新潟市東区太平3丁目19-1","lat":37.94468894,"lon":139.1113799},{"name":"ムーミン保育室","province":"新潟県","city":"新潟市東区","address":"新潟県新潟市東区太平3丁目19-1","lat":37.94468894,"lon":139.1113799},{"name":"ムーミン保育室","province":"新潟県","city":"新潟市東区","address":"新潟県新潟市東区太平3丁目19-1","lat":37.94468894,"lon":139.1113799},{"name":"ムーミン保育室","province":"新潟県","city":"新潟市東区","address":"新潟県新潟市東区太平3丁目19-1","lat":37.94468894,"lon":139.1113799},{"name":"ムーミン保育室","province":"新潟県","city":"新潟市東区","address":"新潟県新潟市東区太平3丁目19-1","lat":37.94468894,"lon":139.1113799},{"name":"ムーミン保育室","province":"新潟県","city":"新潟市東区","address":"新潟県新潟市東区太平3丁目19-1","lat":37.94468894,"lon":139.1113799},{"name":"ムーミン保育室","province":"新潟県","city":"新潟市東区","address":"新潟県新潟市東区太平3丁目19-1","lat":37.94468894,"lon":139.1113799},{"name":"ムーミン保育室","province":"新潟県","city":"新潟市東区","address":"新潟県新潟市東区太平3丁目19-1","lat":37.94468894,"lon":139.1113799},{"name":"ムーミン保育室","province":"新潟県","city":"新潟市東区","address":"新潟県新潟市東区太平3丁目19-1","lat":37.94468894,"lon":139.1113799},{"name":"ムーミン保育室","province":"新潟県","city":"新潟市東区","address":"新潟県新潟市東区太平3丁目19-1","lat":37.94468894,"lon":139.1113799},{"name":"ムーミン保育室","province":"新潟県","city":"新潟市東区","address":"新潟県新潟市東区太平3丁目19-1","lat":37.94468894,"lon":139.1113799},{"name":"ムーミン保育室","province":"新潟県","city":"新潟市東区","address":"新潟県新潟市東区太平3丁目19-1","lat":37.94468894,"lon":139.1113799},{"name":"ムーミン保育室","province":"新潟県","city":"新潟市東区","address":"新潟県新潟市東区太平3丁目19-1","lat":37.94468894,"lon":139.1113799},{"name":"ムーミン保育室","province":"新潟県","city":"新潟市東区","address":"新潟県新潟市東区太平3丁目19-1","lat":37.94468894,"lon":139.1113799},{"name":"ムーミン保育室","province":"新潟県","city":"新潟市東区","address":"新潟県新潟市東区太平3丁目19-1","lat":37.94468894,"lon":139.1113799},{"name":"ムーミン保育室","province":"新潟県","city":"新潟市東区","address":"新潟県新潟市東区太平3丁目19-1","lat":37.94468894,"lon":139.1113799},{"name":"ムーミン保育室","province":"新潟県","city":"新潟市東区","address":"新潟県新潟市東区太平3丁目19-1","lat":37.94468894,"lon":139.1113799},{"name":"ムーミン保育室","province":"新潟県","city":"新潟市東区","address":"新潟県新潟市東区太平3丁目19-1","lat":37.94468894,"lon":139.1113799},{"name":"ムーミン保育室","province":"新潟県","city":"新潟市東区","address":"新潟県新潟市東区太平3丁目19-1","lat":37.94468894,"lon":139.1113799},{"name":"ムーミン保育室","province":"新潟県","city":"新潟市東区","address":"新潟県新潟市東区太平3丁目19-1","lat":37.94468894,"lon":139.1113799},{"name":"ムーミン保育室","province":"新潟県","city":"新潟市東区","address":"新潟県新潟市東区太平3丁目19-1","lat":37.94468894,"lon":139.1113799},{"name":"ムーミン保育室","province":"新潟県","city":"新潟市東区","address":"新潟県新潟市東区太平3丁目19-1","lat":37.94468894,"lon":139.1113799},{"name":"ムーミン保育室","province":"新潟県","city":"新潟市東区","address":"新潟県新潟市東区太平3丁目19-1","lat":37.94468894,"lon":139.1113799},{"name":"ムーミン保育室","province":"新潟県","city":"新潟市東区","address":"新潟県新潟市東区太平3丁目19-1","lat":37.94468894,"lon":139.1113799},{"name":"ムーミン保育室","province":"新潟県","city":"新潟市東区","address":"新潟県新潟市東区太平3丁目19-1","lat":37.94468894,"lon":139.1113799},{"name":"ムーミン保育室","province":"新潟県","city":"新潟市東区","address":"新潟県新潟市東区太平3丁目19-1","lat":37.94468894,"lon":139.1113799},{"name":"ムーミン保育室","province":"新潟県","city":"新潟市東区","address":"新潟県新潟市東区太平3丁目19-1","lat":37.94468894,"lon":139.1113799},{"name":"ムーミン保育室","province":"新潟県","city":"新潟市東区","address":"新潟県新潟市東区太平3丁目19-1","lat":37.94468894,"lon":139.1113799},{"name":"ムーミン保育室","province":"新潟県","city":"新潟市東区","address":"新潟県新潟市東区太平3丁目19-1","lat":37.94468894,"lon":139.1113799},{"name":"ムーミン保育室","province":"新潟県","city":"新潟市東区","address":"新潟県新潟市東区太平3丁目19-1","lat":37.94468894,"lon":139.1113799},{"name":"ムーミン保育室","province":"新潟県","city":"新潟市東区","address":"新潟県新潟市東区太平3丁目19-1","lat":37.94468894,"lon":139.1113799},{"name":"ムーミン保育室","province":"新潟県","city":"新潟市東区","address":"新潟県新潟市東区太平3丁目19-1","lat":37.94468894,"lon":139.1113799},{"name":"ムーミン保育室","province":"新潟県","city":"新潟市東区","address":"新潟県新潟市東区太平3丁目19-1","lat":37.94468894,"lon":139.1113799},{"name":"ムーミン保育室","province":"新潟県","city":"新潟市東区","address":"新潟県新潟市東区太平3丁目19-1","lat":37.94468894,"lon":139.1113799},{"name":"ムーミン保育室","province":"新潟県","city":"新潟市東区","address":"新潟県新潟市東区太平3丁目19-1","lat":37.94468894,"lon":139.1113799},{"name":"ムーミン保育室","province":"新潟県","city":"新潟市東区","address":"新潟県新潟市東区太平3丁目19-1","lat":37.94468894,"lon":139.1113799},{"name":"ムーミン保育室","province":"新潟県","city":"新潟市東区","address":"新潟県新潟市東区太平3丁目19-1","lat":37.94468894,"lon":139.1113799},{"name":"ムーミン保育室","province":"新潟県","city":"新潟市東区","address":"新潟県新潟市東区太平3丁目19-1","lat":37.94468894,"lon":139.1113799},{"name":"ムーミン保育室","province":"新潟県","city":"新潟市東区","address":"新潟県新潟市東区太平3丁目19-1","lat":37.94468894,"lon":139.1113799},{"name":"ムーミン保育室","province":"新潟県","city":"新潟市東区","address":"新潟県新潟市東区太平3丁目19-1","lat":37.94468894,"lon":139.1113799},{"name":"ムーミン保育室","province":"新潟県","city":"新潟市東区","address":"新潟県新潟市東区太平3丁目19-1","lat":37.94468894,"lon":139.1113799},{"name":"ムーミン保育室","province":"新潟県","city":"新潟市東区","address":"新潟県新潟市東区太平3丁目19-1","lat":37.94468894,"lon":139.1113799},{"name":"ムーミン保育室","province":"新潟県","city":"新潟市東区","address":"新潟県新潟市東区太平3丁目19-1","lat":37.94468894,"lon":139.1113799},{"name":"ムーミン保育室","province":"新潟県","city":"新潟市東区","address":"新潟県新潟市東区太平3丁目19-1","lat":37.94468894,"lon":139.1113799},{"name":"ムーミン保育室","province":"新潟県","city":"新潟市東区","address":"新潟県新潟市東区太平3丁目19-1","lat":37.94468894,"lon":139.1113799},{"name":"ムーミン保育室","province":"新潟県","city":"新潟市東区","address":"新潟県新潟市東区太平3丁目19-1","lat":37.94468894,"lon":139.1113799},{"name":"ムーミン保育室","province":"新潟県","city":"新潟市東区","address":"新潟県新潟市東区太平3丁目19-1","lat":37.94468894,"lon":139.1113799},{"name":"ムーミン保育室","province":"新潟県","city":"新潟市東区","address":"新潟県新潟市東区太平3丁目19-1","lat":37.94468894,"lon":139.1113799},{"name":"ムーミン保育室","province":"新潟県","city":"新潟市東区","address":"新潟県新潟市東区太平3丁目19-1","lat":37.94468894,"lon":139.1113799}]}