{"keyword":"ライン","data":[{"name":"東京ガス（株）","province":"東京都","city":"港区","address":"港区海岸1-5-20","lat":35.65344,"lon":139.7584},{"name":"東京ガス（株）新宿パークタワー","province":"東京都","city":"新宿区","address":"新宿区西新宿3-7-1","lat":35.68537,"lon":139.691},{"name":"東京ガス（株）目黒ビル","province":"東京都","city":"目黒区","address":"目黒区目黒3-1-3","lat":35.63553,"lon":139.7061},{"name":"東京ガス（株）西荻窪ビル","province":"東京都","city":"杉並区","address":"杉並区西荻北5-8-22","lat":35.70908,"lon":139.6017},{"name":"東京ガス（株）板橋整圧所倉庫","province":"東京都","city":"板橋区","address":"板橋区新河岸2-1","lat":35.79414,"lon":139.6628},{"name":"東京ガス（株）保谷ビル","province":"東京都","city":"西東京市","address":"西東京市柳沢2-18-46","lat":35.72477,"lon":139.5523},{"name":"東京ガス（株）北部支店","province":"東京都","city":"北区","address":"北区滝野川5-42","lat":35.74919,"lon":139.7229},{"name":"東京ガス（株）千住ビル","province":"東京都","city":"荒川区","address":"荒川区南千住3-13-1","lat":35.73191,"lon":139.8083},{"name":"東京ガス（株）粕谷ビル","province":"東京都","city":"世田谷区","address":"世田谷区粕谷1-7-3","lat":35.6596,"lon":139.6132},{"name":"東京ガス（株）麻布ビル","province":"東京都","city":"港区","address":"港区南麻布2-5-19","lat":35.64959,"lon":139.7371},{"name":"東京ガス（株）山之内ビル","province":"東京都","city":"新宿区","address":"新宿区西新宿3-7-30","lat":35.68533,"lon":139.6902},{"name":"東京ガス（株）深川グラウンド","province":"東京都","city":"江東区","address":"江東区猿江2-15","lat":35.68689,"lon":139.8184},{"name":"東京ガス（株）大森グラウンド","province":"東京都","city":"大田区","address":"大田区大森東3-28","lat":35.57262,"lon":139.7406},{"name":"東京ガス（株）立川ビル","province":"東京都","city":"立川市","address":"立川市曙町3-6-13","lat":35.69969,"lon":139.4223},{"name":"東京ガス（株）武蔵野苑","province":"東京都","city":"小平市","address":"小平市大沼町3-14","lat":35.73913,"lon":139.4996},{"name":"東京ガス（株）多摩備蓄倉庫","province":"東京都","city":"多摩市","address":"多摩市唐木田2-2","lat":35.61162,"lon":139.405},{"name":"水道局中央支所","province":"東京都","city":"千代田区","address":"千代田区内神田2-1-12","lat":35.68903,"lon":139.7682},{"name":"水道局東部第一支所","province":"東京都","city":"江東区","address":"江東区新砂1-7-2","lat":35.66894,"lon":139.8245},{"name":"水道局東部第二支所","province":"東京都","city":"荒川区","address":"荒川区南千住6-40-1","lat":35.73848,"lon":139.7929},{"name":"水道局西部支所","province":"東京都","city":"杉並区","address":"杉並区和泉3-8-10","lat":35.67536,"lon":139.6461},{"name":"水道局南部支所","province":"東京都","city":"大田区","address":"大田区大森本町1-7-10","lat":35.58485,"lon":139.737},{"name":"水道局南部支所（桜丘庁舎）","province":"東京都","city":"世田谷区","address":"世田谷区桜丘5-50-16","lat":35.64794,"lon":139.6181},{"name":"水道局北部支所","province":"東京都","city":"練馬区","address":"練馬区中村北1-9-4","lat":35.73485,"lon":139.6477},{"name":"水道局多摩水道改革推進本部／立川給水管理事務所","province":"東京都","city":"立川市","address":"立川市緑町6-7","lat":35.7086,"lon":139.4122},{"name":"水道局多摩水道改革推進本部／多摩給水管理事務所","province":"東京都","city":"多摩市","address":"多摩市山王下1-17","lat":35.62549,"lon":139.4165},{"name":"中部下水道事務所","province":"東京都","city":"千代田区","address":"東京都千代田区大手町2丁目6-2","lat":35.68539531,"lon":139.76895777},{"name":"北部下水道事務所","province":"東京都","city":"台東区","address":"東京都台東区蔵前2丁目1-8","lat":35.70210239,"lon":139.79220078},{"name":"東部第一下水道事務所","province":"東京都","city":"江東区","address":"東京都江東区東陽7丁目1-14","lat":35.67539751,"lon":139.81689597},{"name":"東部第二下水道事務所","province":"東京都","city":"葛飾区","address":"東京都葛飾区小菅1丁目2-1","lat":35.75266153,"lon":139.81892566},{"name":"西部第一下水道事務所","province":"東京都","city":"中野区","address":"東京都中野区新井3丁目37-4","lat":35.71529745,"lon":139.6622323},{"name":"西部第二下水道事務所","province":"東京都","city":"北区","address":"東京都北区浮間4丁目27-1","lat":35.78904234,"lon":139.69236003},{"name":"南部下水道事務所","province":"東京都","city":"大田区","address":"東京都大田区雪谷大塚町13-26","lat":35.59020441,"lon":139.67744983},{"name":"流域下水道本部","province":"東京都","city":"立川市","address":"東京都立川市錦町1丁目7-26","lat":35.69556568,"lon":139.41734836}]}