{"category":"wireless","data":[{"name":"聖路加国際病院","province":"東京都","city":"中央区","address":"東京都中央区明石町9-1","lat":35.66741137,"lon":139.77705481},{"name":"東京都味噌工業協同組合","province":"東京都","city":"中央区","address":"東京都中央区日本橋浜町2丁目16-5","lat":35.68747342,"lon":139.78640757},{"name":"全国味噌工業協同組合連合会","province":"東京都","city":"中央区","address":"東京都中央区新川1丁目26-19","lat":35.67648277,"lon":139.78356776},{"name":"日本醤油協会","province":"東京都","city":"中央区","address":"東京都中央区日本橋小網町3-11","lat":35.68117393,"lon":139.7826819},{"name":"晴海給水所","province":"東京都","city":"中央区","address":"東京都中央区晴海1丁目6-3","lat":35.65852366,"lon":139.78411284},{"name":"区立あかつき公園","province":"東京都","city":"中央区","address":"東京都中央区築地7丁目19-1","lat":35.66666142,"lon":139.7758105},{"name":"区立堀留児童公園","province":"東京都","city":"中央区","address":"東京都中央区日本橋堀留町1丁目1-16","lat":35.68635386,"lon":139.77931298},{"name":"佃水門","province":"東京都","city":"中央区","address":"東京都中央区晴海1丁目1-26","lat":35.66197894,"lon":139.7876958},{"name":"朝潮水門（水防倉庫）","province":"東京都","city":"中央区","address":"東京都中央区勝どき6丁目3","lat":35.65549314,"lon":139.77306391},{"name":"築地川水門","province":"東京都","city":"中央区","address":"東京都中央区浜離宮庭園1-1","lat":35.66256987,"lon":139.76322283},{"name":"浜離宮排水機場","province":"東京都","city":"中央区","address":"東京都中央区浜離宮庭園1-1","lat":35.66256987,"lon":139.76322283},{"name":"汐留川水門","province":"東京都","city":"中央区","address":"東京都中央区浜離宮庭園1-1","lat":35.66256987,"lon":139.76322283},{"name":"東京都味噌工業協同組合","province":"東京都","city":"中央区","address":"東京都中央区日本橋浜町2丁目16-5","lat":35.68747342,"lon":139.78640757},{"name":"全国味噌工業協同組合連合会","province":"東京都","city":"中央区","address":"東京都中央区新川1丁目26-19","lat":35.67648277,"lon":139.78356776},{"name":"東京舞台芸術活動支援センター","province":"東京都","city":"中央区","address":"東京都中央区日本橋箱崎町18-14","lat":35.68017135,"lon":139.78563735},{"name":"築地市場","province":"東京都","city":"中央区","address":"東京都中央区築地5丁目2-1","lat":35.66515585,"lon":139.76925834},{"name":"晴海総合高等学校","province":"東京都","city":"中央区","address":"東京都中央区晴海1丁目2-1","lat":35.65991522,"lon":139.78568212},{"name":"晴海ふ頭","province":"東京都","city":"中央区","address":"東京都中央区晴海2丁目","lat":35.6549074,"lon":139.78393517},{"name":"月島ふ頭","province":"東京都","city":"中央区","address":"東京都中央区豊海町","lat":35.65314056,"lon":139.77090583},{"name":"常盤橋","province":"東京都","city":"中央区","address":"東京都中央区日本橋本石町2丁目1","lat":35.6869841,"lon":139.77150202},{"name":"中央区立総合スポーツセンター","province":"東京都","city":"中央区","address":"東京都中央区日本橋浜町2丁目59-1","lat":35.68785406,"lon":139.78937729}]}