{"keyword":"スモッグ","data":[{"name":"浜離宮恩賜庭園","province":"東京都","city":"中央区","address":"東京都中央区浜離宮庭園","lat":35.659737,"lon":139.763493},{"name":"中央区立月島運動場","province":"東京都","city":"中央区","address":"東京都中央区晴海1丁目3-29","lat":35.65907089,"lon":139.78637652},{"name":"中央区立豊海運動公園","province":"東京都","city":"中央区","address":"東京都中央区豊海町3-19","lat":35.65321559,"lon":139.77225293},{"name":"浜離宮恩賜庭園","province":"東京都","city":"中央区","address":"東京都中央区浜離宮庭園","lat":35.659737,"lon":139.763493},{"name":"浜離宮恩賜庭園","province":"東京都","city":"中央区","address":"東京都中央区浜離宮庭園","lat":35.659737,"lon":139.763493},{"name":"浜離宮恩賜庭園","province":"東京都","city":"中央区","address":"東京都中央区浜離宮庭園","lat":35.659737,"lon":139.763493},{"name":"浜離宮恩賜庭園","province":"東京都","city":"中央区","address":"東京都中央区浜離宮庭園","lat":35.659737,"lon":139.763493},{"name":"浜離宮恩賜庭園","province":"東京都","city":"中央区","address":"東京都中央区浜離宮庭園","lat":35.659737,"lon":139.763493},{"name":"浜離宮恩賜庭園","province":"東京都","city":"中央区","address":"東京都中央区浜離宮庭園","lat":35.659737,"lon":139.763493},{"name":"浜離宮恩賜庭園","province":"東京都","city":"中央区","address":"東京都中央区浜離宮庭園","lat":35.659737,"lon":139.763493},{"name":"浜離宮恩賜庭園","province":"東京都","city":"中央区","address":"東京都中央区浜離宮庭園","lat":35.659737,"lon":139.763493},{"name":"浜離宮恩賜庭園","province":"東京都","city":"中央区","address":"東京都中央区浜離宮庭園","lat":35.659737,"lon":139.763493},{"name":"浜離宮恩賜庭園","province":"東京都","city":"中央区","address":"東京都中央区浜離宮庭園","lat":35.659737,"lon":139.763493},{"name":"浜離宮恩賜庭園","province":"東京都","city":"中央区","address":"東京都中央区浜離宮庭園","lat":35.659737,"lon":139.763493},{"name":"浜離宮恩賜庭園","province":"東京都","city":"中央区","address":"東京都中央区浜離宮庭園","lat":35.659737,"lon":139.763493},{"name":"浜離宮恩賜庭園","province":"東京都","city":"中央区","address":"東京都中央区浜離宮庭園","lat":35.659737,"lon":139.763493},{"name":"浜離宮恩賜庭園","province":"東京都","city":"中央区","address":"東京都中央区浜離宮庭園","lat":35.659737,"lon":139.763493},{"name":"浜離宮恩賜庭園","province":"東京都","city":"中央区","address":"東京都中央区浜離宮庭園","lat":35.659737,"lon":139.763493},{"name":"浜離宮恩賜庭園","province":"東京都","city":"中央区","address":"東京都中央区浜離宮庭園","lat":35.659737,"lon":139.763493},{"name":"浜離宮恩賜庭園","province":"東京都","city":"中央区","address":"東京都中央区浜離宮庭園","lat":35.659737,"lon":139.763493},{"name":"浜離宮恩賜庭園","province":"東京都","city":"中央区","address":"東京都中央区浜離宮庭園","lat":35.659737,"lon":139.763493},{"name":"浜離宮恩賜庭園","province":"東京都","city":"中央区","address":"東京都中央区浜離宮庭園","lat":35.659737,"lon":139.763493},{"name":"浜離宮恩賜庭園","province":"東京都","city":"中央区","address":"東京都中央区浜離宮庭園","lat":35.659737,"lon":139.763493},{"name":"浜離宮恩賜庭園","province":"東京都","city":"中央区","address":"東京都中央区浜離宮庭園","lat":35.659737,"lon":139.763493},{"name":"浜離宮恩賜庭園","province":"東京都","city":"中央区","address":"東京都中央区浜離宮庭園","lat":35.659737,"lon":139.763493},{"name":"浜離宮恩賜庭園","province":"東京都","city":"中央区","address":"東京都中央区浜離宮庭園","lat":35.659737,"lon":139.763493},{"name":"浜離宮恩賜庭園","province":"東京都","city":"中央区","address":"東京都中央区浜離宮庭園","lat":35.659737,"lon":139.763493},{"name":"浜離宮恩賜庭園","province":"東京都","city":"中央区","address":"東京都中央区浜離宮庭園","lat":35.659737,"lon":139.763493},{"name":"浜離宮恩賜庭園","province":"東京都","city":"中央区","address":"東京都中央区浜離宮庭園","lat":35.659737,"lon":139.763493},{"name":"浜離宮恩賜庭園","province":"東京都","city":"中央区","address":"東京都中央区浜離宮庭園","lat":35.659737,"lon":139.763493},{"name":"浜離宮恩賜庭園","province":"東京都","city":"中央区","address":"東京都中央区浜離宮庭園","lat":35.659737,"lon":139.763493},{"name":"浜離宮恩賜庭園","province":"東京都","city":"中央区","address":"東京都中央区浜離宮庭園","lat":35.659737,"lon":139.763493},{"name":"浜離宮恩賜庭園","province":"東京都","city":"中央区","address":"東京都中央区浜離宮庭園","lat":35.659737,"lon":139.763493},{"name":"浜離宮恩賜庭園","province":"東京都","city":"中央区","address":"東京都中央区浜離宮庭園","lat":35.659737,"lon":139.763493},{"name":"浜離宮恩賜庭園","province":"東京都","city":"中央区","address":"東京都中央区浜離宮庭園","lat":35.659737,"lon":139.763493},{"name":"浜離宮恩賜庭園","province":"東京都","city":"中央区","address":"東京都中央区浜離宮庭園","lat":35.659737,"lon":139.763493},{"name":"浜離宮恩賜庭園","province":"東京都","city":"中央区","address":"東京都中央区浜離宮庭園","lat":35.659737,"lon":139.763493},{"name":"浜離宮恩賜庭園","province":"東京都","city":"中央区","address":"東京都中央区浜離宮庭園","lat":35.659737,"lon":139.763493},{"name":"浜離宮恩賜庭園","province":"東京都","city":"中央区","address":"東京都中央区浜離宮庭園","lat":35.659737,"lon":139.763493},{"name":"浜離宮恩賜庭園","province":"東京都","city":"中央区","address":"東京都中央区浜離宮庭園","lat":35.659737,"lon":139.763493},{"name":"浜離宮恩賜庭園","province":"東京都","city":"中央区","address":"東京都中央区浜離宮庭園","lat":35.659737,"lon":139.763493},{"name":"浜離宮恩賜庭園","province":"東京都","city":"中央区","address":"東京都中央区浜離宮庭園","lat":35.659737,"lon":139.763493},{"name":"浜離宮恩賜庭園","province":"東京都","city":"中央区","address":"東京都中央区浜離宮庭園","lat":35.659737,"lon":139.763493},{"name":"浜離宮恩賜庭園","province":"東京都","city":"中央区","address":"東京都中央区浜離宮庭園","lat":35.659737,"lon":139.763493},{"name":"浜離宮恩賜庭園","province":"東京都","city":"中央区","address":"東京都中央区浜離宮庭園","lat":35.659737,"lon":139.763493},{"name":"浜離宮恩賜庭園","province":"東京都","city":"中央区","address":"東京都中央区浜離宮庭園","lat":35.659737,"lon":139.763493},{"name":"浜離宮恩賜庭園","province":"東京都","city":"中央区","address":"東京都中央区浜離宮庭園","lat":35.659737,"lon":139.763493},{"name":"浜離宮恩賜庭園","province":"東京都","city":"中央区","address":"東京都中央区浜離宮庭園","lat":35.659737,"lon":139.763493}]}