{"keyword":"一覧","data":[{"name":"複合施設中央区保健所\"","province":"東京都","city":"中央区","address":"東京都中央区明石町12-1","lat":35.66657812,"lon":139.77679376},{"name":"宝町駅（都営浅草線）","province":"東京都","city":"中央区","address":"東京都中央区京橋2丁目13-11","lat":35.67561312,"lon":139.77248543},{"name":"東銀座駅（都営浅草線）","province":"東京都","city":"中央区","address":"東京都中央区銀座4丁目10-10","lat":35.67006636,"lon":139.76691664},{"name":"築地市場駅（都営大江戸線）","province":"東京都","city":"中央区","address":"東京都中央区築地5丁目1-2","lat":35.6653252,"lon":139.76662799},{"name":"月島スポーツプラザ","province":"東京都","city":"中央区","address":"東京都中央区月島1丁目9-2","lat":35.66515624,"lon":139.78299884},{"name":"月島図書館","province":"東京都","city":"中央区","address":"東京都中央区月島4丁目1-1","lat":35.66204544,"lon":139.78211847},{"name":"日本橋駅（都営浅草線）","province":"東京都","city":"中央区","address":"東京都中央区日本橋1丁目13-1","lat":35.68221529,"lon":139.77554072},{"name":"複合施設（日本橋図書館）\"","province":"東京都","city":"中央区","address":"東京都中央区日本橋人形町1丁目1-17","lat":35.68469854,"lon":139.78139615},{"name":"人形町駅（都営浅草線）","province":"東京都","city":"中央区","address":"東京都中央区日本橋人形町3丁目7-13","lat":35.68632617,"lon":139.78191571},{"name":"総合スポーツセンター","province":"東京都","city":"中央区","address":"東京都中央区日本橋浜町2丁目59-1","lat":35.68785406,"lon":139.78937729},{"name":"浜町駅（都営新宿線）","province":"東京都","city":"中央区","address":"東京都中央区日本橋浜町2丁目59-3","lat":35.68874832,"lon":139.78755762},{"name":"馬喰横山駅（都営新宿線）","province":"東京都","city":"中央区","address":"東京都中央区日本橋横山町4-13","lat":35.69192002,"lon":139.78272122},{"name":"東日本橋駅（都営浅草線）","province":"東京都","city":"中央区","address":"東京都中央区東日本橋3丁目11-8","lat":35.69231449,"lon":139.78467121}]}