{"keyword":"保育","data":[{"name":"十思保育園","province":"東京都","city":"中央区","address":"中央区日本橋小伝馬町5-1","lat":35.690887,"lon":139.777032},{"name":"にじいろ保育園小伝馬町","province":"東京都","city":"中央区","address":"中央区日本橋小伝馬町13-7","lat":35.691153,"lon":139.779549},{"name":"日生東日本橋保育園ひびき","province":"東京都","city":"中央区","address":"中央区東日本橋一丁目5番13号セイワ東日本橋ビル1~4階","lat":35.691142,"lon":139.785896},{"name":"テンダーラビング保育園東日本橋","province":"東京都","city":"中央区","address":"中央区東日本橋1-4-6東日本橋一丁目ビル1・2F","lat":35.691009,"lon":139.786219},{"name":"あい保育園日本橋","province":"東京都","city":"中央区","address":"中央区日本橋富沢町9番10号","lat":35.689526,"lon":139.782857},{"name":"にんぎょうちょうさくらさくほいくえん","province":"東京都","city":"中央区","address":"中央区日本橋富沢町2-6","lat":35.687879,"lon":139.783727},{"name":"かふう保育園日本橋","province":"東京都","city":"中央区","address":"中央区日本橋富沢町10-18ユニゾ東日本橋ビル2F","lat":35.689551,"lon":139.781916},{"name":"浜町保育園","province":"東京都","city":"中央区","address":"中央区日本橋浜町3-37-1","lat":35.685518,"lon":139.791302},{"name":"キッズハウス浜町公園","province":"東京都","city":"中央区","address":"中央区日本橋浜町2-44-4第17村上ビル1・2F","lat":35.687621,"lon":139.788069},{"name":"中央区立堀留町保育園","province":"東京都","city":"中央区","address":"中央区日本橋堀留町1-1-1-2F","lat":35.687412,"lon":139.778963},{"name":"ほっぺるランド日本橋堀留町","province":"東京都","city":"中央区","address":"中央区日本橋堀留町二丁目8番4号日本橋コアビル1階","lat":35.688654,"lon":139.781402},{"name":"人形町保育園","province":"東京都","city":"中央区","address":"中央区日本橋人形町2-14-5","lat":35.684604,"lon":139.784849},{"name":"モニカ人形町園","province":"東京都","city":"中央区","address":"中央区日本橋人形町三丁目7番5号","lat":35.68664,"lon":139.781357},{"name":"日本橋保育園","province":"東京都","city":"中央区","address":"中央区日本橋蛎殻町1-1-2","lat":35.68076,"lon":139.783526},{"name":"グローバルキッズかきがら園","province":"東京都","city":"中央区","address":"中央区日本橋蛎殻町一丁目16番11号ユニゾ蛎殻町一丁目ビル1・2階","lat":35.683143,"lon":139.782554},{"name":"あい保育園水天宮","province":"東京都","city":"中央区","address":"中央区日本橋蛎殻町一丁目29番9号","lat":35.683121,"lon":139.783874},{"name":"学栄ナーサリー日本橋蛎殻町保育園","province":"東京都","city":"中央区","address":"中央区日本橋蛎殻町2-15-5","lat":35.684335,"lon":139.786785},{"name":"コビープリスクールはこざき","province":"東京都","city":"中央区","address":"中央区日本橋箱崎町17番9号箱崎升喜ビル1・2階","lat":35.680571,"lon":139.785154},{"name":"京橋こども園","province":"東京都","city":"中央区","address":"中央区京橋2-17-7","lat":35.676188,"lon":139.773388},{"name":"中央区立八丁堀保育園","province":"東京都","city":"中央区","address":"中央区八丁堀4-5-10","lat":35.674013,"lon":139.775874},{"name":"太陽の子新川保育園","province":"東京都","city":"中央区","address":"中央区新川一丁目24番1号秀和第二新川ビル2階","lat":35.676788,"lon":139.785276},{"name":"あい保育園新川","province":"東京都","city":"中央区","address":"中央区新川1-26-9新川イワデビル1.2階","lat":35.676027,"lon":139.78404},{"name":"日生新川保育園ひびき","province":"東京都","city":"中央区","address":"中央区新川2-30-3","lat":35.672819,"lon":139.782943},{"name":"桜川保育園","province":"東京都","city":"中央区","address":"中央区入船1-1-13","lat":35.673752,"lon":139.778213},{"name":"ブライト保育園東京入船","province":"東京都","city":"中央区","address":"中央区入船3-5-10藤和入船ビル2F","lat":35.67085,"lon":139.77628},{"name":"明石町保育園","province":"東京都","city":"中央区","address":"中央区明石町12-1","lat":35.666506,"lon":139.777035},{"name":"ぽけっとランド明石町保育園","province":"東京都","city":"中央区","address":"中央区明石町7番15号2・3階","lat":35.66769,"lon":139.778736},{"name":"築地保育園","province":"東京都","city":"中央区","address":"中央区築地4-15-1","lat":35.666378,"lon":139.76815},{"name":"つくだ保育園","province":"東京都","city":"中央区","address":"中央区佃2-2-2","lat":35.666867,"lon":139.786907},{"name":"みちてる保育園","province":"東京都","city":"中央区","address":"中央区佃二丁目22番2号","lat":35.666509,"lon":139.786718},{"name":"保育所まぁむ月島駅前園","province":"東京都","city":"中央区","address":"中央区佃2-10-9ライオンズタワー月島","lat":35.666095,"lon":139.784438},{"name":"ほっぺるランド佃","province":"東京都","city":"中央区","address":"中央区佃1-11-8-2F","lat":35.669775,"lon":139.784415},{"name":"月島保育園","province":"東京都","city":"中央区","address":"中央区月島2-10-3","lat":35.663187,"lon":139.783929},{"name":"太陽の子月島保育園","province":"東京都","city":"中央区","address":"中央区月島一丁目5番2号キャピタルゲートプレイス2階","lat":35.663904,"lon":139.783246},{"name":"アンジェリカ月島保育園","province":"東京都","city":"中央区","address":"中央区月島二丁目13番5号2・3階","lat":35.662854,"lon":139.783555},{"name":"月島聖ルカ保育園","province":"東京都","city":"中央区","address":"中央区月島四丁目5番8号","lat":35.66044,"lon":139.783313},{"name":"つきのみさきさくらさくほいくえん","province":"東京都","city":"中央区","address":"中央区月島四丁目4番11号","lat":35.660876,"lon":139.783382},{"name":"晴海こども園","province":"東京都","city":"中央区","address":"中央区晴海2-4-31","lat":35.654907,"lon":139.783935},{"name":"晴海保育園","province":"東京都","city":"中央区","address":"中央区晴海1-5-15","lat":35.659549,"lon":139.784543},{"name":"ポピンズナーサリースクール晴海","province":"東京都","city":"中央区","address":"中央区晴海二丁目1番40号晴海フロント2階","lat":35.655899,"lon":139.783977},{"name":"アスク晴海３丁目保育園","province":"東京都","city":"中央区","address":"中央区晴海三丁目10番1号グラスシティ晴海1階","lat":35.654038,"lon":139.779116},{"name":"はるみさくらさくほいくえん","province":"東京都","city":"中央区","address":"中央区晴海2-5-24","lat":35.655393,"lon":139.782546},{"name":"小学館アカデミー勝どきこども園","province":"東京都","city":"中央区","address":"中央区勝どき一丁目3番1号アパートメンツタワー勝どき2階","lat":35.660775,"lon":139.776948},{"name":"かちどき西保育園","province":"東京都","city":"中央区","address":"中央区勝どき1-8-1-3F","lat":35.659665,"lon":139.776583},{"name":"勝どき保育園","province":"東京都","city":"中央区","address":"中央区勝どき1-4-1","lat":35.660368,"lon":139.777208},{"name":"まなびの森保育園勝どき","province":"東京都","city":"中央区","address":"中央区勝どき三丁目3番7号KNリバーシティ2階","lat":35.659223,"lon":139.774891},{"name":"アスク勝どき保育園","province":"東京都","city":"中央区","address":"中央区勝どき四丁目8番14号","lat":35.656912,"lon":139.775597},{"name":"ほっぺるランド勝どき","province":"東京都","city":"中央区","address":"中央区勝どき三丁目4番4号","lat":35.659082,"lon":139.775683},{"name":"さわやか保育園・勝どき６丁目","province":"東京都","city":"中央区","address":"中央区勝どき六丁目3番1号","lat":35.654724,"lon":139.774347},{"name":"ベネッセ勝どき保育園","province":"東京都","city":"中央区","address":"中央区勝どき5-1-17勝どきザ・リバーフロント2F","lat":35.658046,"lon":139.772575},{"name":"ほっぺるランド新島橋かちどき","province":"東京都","city":"中央区","address":"中央区勝どき5-2-15-1・2階","lat":35.657193,"lon":139.773405},{"name":"勝どきえほん保育園","province":"東京都","city":"中央区","address":"中央区勝どき6-1-9","lat":35.65594,"lon":139.774159}]}