{"keyword":"区","data":[{"name":"中央区保健所","province":"東京都","city":"中央区","address":"中央区明石町12-1","lat":35.666506,"lon":139.777035},{"name":"日本橋保健センター","province":"東京都","city":"中央区","address":"中央区日本橋堀留町1-1-1","lat":35.687412,"lon":139.778963},{"name":"月島保健センター","province":"東京都","city":"中央区","address":"中央区月島2-10-3","lat":35.663187,"lon":139.783929},{"name":"中央区保健所","province":"東京都","city":"中央区","address":"東京都中央区明石町12-1","lat":35.66657812,"lon":139.77679376},{"name":"日本橋保健センター","province":"東京都","city":"中央区","address":"東京都中央区日本橋堀留町1丁目1-1","lat":35.68741207,"lon":139.77896299},{"name":"月島保健センター","province":"東京都","city":"中央区","address":"東京都中央区月島2丁目10-3","lat":35.66326202,"lon":139.78397937},{"name":"晴海保健センター","province":"東京都","city":"中央区","address":"東京都中央区晴海4丁目8-1","lat":35.65242978,"lon":139.77998283},{"name":"中央区保健所","province":"東京都","city":"中央区","address":"中央区明石町12-1","lat":35.66659,"lon":139.77684},{"name":"日本橋保健センター","province":"東京都","city":"中央区","address":"中央区日本橋堀留町1-1-1","lat":35.68706,"lon":139.77928},{"name":"月島保健センター","province":"東京都","city":"中央区","address":"中央区月島2-10-3","lat":35.66351,"lon":139.78418}]}