{"keyword":"収蔵","data":[{"name":"晴海給水所","province":"東京都","city":"中央区","address":"東京都中央区晴海1-6-3","lat":35.65832,"lon":139.78408},{"name":"区立あかつき公園","province":"東京都","city":"中央区","address":"東京都中央区築地7-19-1","lat":35.665987,"lon":139.776889},{"name":"区立堀留児童公園","province":"東京都","city":"中央区","address":"東京都中央区日本橋堀留町1-1-16","lat":35.6871001,"lon":139.779214},{"name":"聖路加国際病院","province":"東京都","city":"中央区","address":"東京都中央区明石町9-1","lat":35.66741137,"lon":139.77705481},{"name":"晴海給水所","province":"東京都","city":"中央区","address":"東京都中央区晴海1丁目6-3","lat":35.65852366,"lon":139.78411284},{"name":"区立あかつき公園","province":"東京都","city":"中央区","address":"東京都中央区築地7丁目19-1","lat":35.66666142,"lon":139.7758105},{"name":"区立堀留児童公園","province":"東京都","city":"中央区","address":"東京都中央区日本橋堀留町1丁目1-16","lat":35.68635386,"lon":139.77931298},{"name":"佃水門","province":"東京都","city":"中央区","address":"東京都中央区晴海1丁目1-26","lat":35.66197894,"lon":139.7876958},{"name":"朝潮水門（水防倉庫）","province":"東京都","city":"中央区","address":"東京都中央区勝どき6丁目3","lat":35.65549314,"lon":139.77306391},{"name":"築地川水門","province":"東京都","city":"中央区","address":"東京都中央区浜離宮庭園1-1","lat":35.66256987,"lon":139.76322283},{"name":"浜離宮排水機場","province":"東京都","city":"中央区","address":"東京都中央区浜離宮庭園1-1","lat":35.66256987,"lon":139.76322283},{"name":"汐留川水門","province":"東京都","city":"中央区","address":"東京都中央区浜離宮庭園1-1","lat":35.66256987,"lon":139.76322283},{"name":"中央区立月島運動場","province":"東京都","city":"中央区","address":"東京都中央区晴海1丁目3-29","lat":35.65907089,"lon":139.78637652},{"name":"中央区立豊海運動公園","province":"東京都","city":"中央区","address":"東京都中央区豊海町3-19","lat":35.65321559,"lon":139.77225293},{"name":"晴海ふ頭","province":"東京都","city":"中央区","address":"東京都中央区晴海2丁目","lat":35.6549074,"lon":139.78393517},{"name":"晴海給水所","province":"東京都","city":"中央区","address":"東京都中央区晴海1-6-3","lat":35.65832,"lon":139.78408},{"name":"区立あかつき公園","province":"東京都","city":"中央区","address":"東京都中央区築地7-19-1","lat":35.665987,"lon":139.776889},{"name":"区立堀留児童公園","province":"東京都","city":"中央区","address":"東京都中央区日本橋堀留町1-1-16","lat":35.6871001,"lon":139.779214},{"name":"聖路加国際病院","province":"東京都","city":"中央区","address":"東京都中央区明石町9-1","lat":35.66741137,"lon":139.77705481},{"name":"晴海給水所","province":"東京都","city":"中央区","address":"東京都中央区晴海1丁目6-3","lat":35.65852366,"lon":139.78411284},{"name":"区立あかつき公園","province":"東京都","city":"中央区","address":"東京都中央区築地7丁目19-1","lat":35.66666142,"lon":139.7758105},{"name":"区立堀留児童公園","province":"東京都","city":"中央区","address":"東京都中央区日本橋堀留町1丁目1-16","lat":35.68635386,"lon":139.77931298},{"name":"佃水門","province":"東京都","city":"中央区","address":"東京都中央区晴海1丁目1-26","lat":35.66197894,"lon":139.7876958},{"name":"朝潮水門（水防倉庫）","province":"東京都","city":"中央区","address":"東京都中央区勝どき6丁目3","lat":35.65549314,"lon":139.77306391},{"name":"築地川水門","province":"東京都","city":"中央区","address":"東京都中央区浜離宮庭園1-1","lat":35.66256987,"lon":139.76322283},{"name":"浜離宮排水機場","province":"東京都","city":"中央区","address":"東京都中央区浜離宮庭園1-1","lat":35.66256987,"lon":139.76322283},{"name":"汐留川水門","province":"東京都","city":"中央区","address":"東京都中央区浜離宮庭園1-1","lat":35.66256987,"lon":139.76322283},{"name":"中央区立月島運動場","province":"東京都","city":"中央区","address":"東京都中央区晴海1丁目3-29","lat":35.65907089,"lon":139.78637652},{"name":"中央区立豊海運動公園","province":"東京都","city":"中央区","address":"東京都中央区豊海町3-19","lat":35.65321559,"lon":139.77225293},{"name":"晴海給水所","province":"東京都","city":"中央区","address":"東京都中央区晴海1-6-3","lat":35.65832,"lon":139.78408},{"name":"区立あかつき公園","province":"東京都","city":"中央区","address":"東京都中央区築地7-19-1","lat":35.665987,"lon":139.776889},{"name":"区立堀留児童公園","province":"東京都","city":"中央区","address":"東京都中央区日本橋堀留町1-1-16","lat":35.6871001,"lon":139.779214},{"name":"聖路加国際病院","province":"東京都","city":"中央区","address":"東京都中央区明石町9-1","lat":35.66741137,"lon":139.77705481},{"name":"晴海給水所","province":"東京都","city":"中央区","address":"東京都中央区晴海1丁目6-3","lat":35.65852366,"lon":139.78411284},{"name":"区立あかつき公園","province":"東京都","city":"中央区","address":"東京都中央区築地7丁目19-1","lat":35.66666142,"lon":139.7758105},{"name":"区立堀留児童公園","province":"東京都","city":"中央区","address":"東京都中央区日本橋堀留町1丁目1-16","lat":35.68635386,"lon":139.77931298},{"name":"佃水門","province":"東京都","city":"中央区","address":"東京都中央区晴海1丁目1-26","lat":35.66197894,"lon":139.7876958},{"name":"朝潮水門（水防倉庫）","province":"東京都","city":"中央区","address":"東京都中央区勝どき6丁目3","lat":35.65549314,"lon":139.77306391},{"name":"築地川水門","province":"東京都","city":"中央区","address":"東京都中央区浜離宮庭園1-1","lat":35.66256987,"lon":139.76322283},{"name":"浜離宮排水機場","province":"東京都","city":"中央区","address":"東京都中央区浜離宮庭園1-1","lat":35.66256987,"lon":139.76322283},{"name":"汐留川水門","province":"東京都","city":"中央区","address":"東京都中央区浜離宮庭園1-1","lat":35.66256987,"lon":139.76322283},{"name":"中央区立月島運動場","province":"東京都","city":"中央区","address":"東京都中央区晴海1丁目3-29","lat":35.65907089,"lon":139.78637652},{"name":"中央区立豊海運動公園","province":"東京都","city":"中央区","address":"東京都中央区豊海町3-19","lat":35.65321559,"lon":139.77225293},{"name":"晴海給水所","province":"東京都","city":"中央区","address":"東京都中央区晴海1-6-3","lat":35.65832,"lon":139.78408},{"name":"区立あかつき公園","province":"東京都","city":"中央区","address":"東京都中央区築地7-19-1","lat":35.665987,"lon":139.776889},{"name":"区立堀留児童公園","province":"東京都","city":"中央区","address":"東京都中央区日本橋堀留町1-1-16","lat":35.6871001,"lon":139.779214},{"name":"聖路加国際病院","province":"東京都","city":"中央区","address":"東京都中央区明石町9-1","lat":35.66741137,"lon":139.77705481},{"name":"佃水門","province":"東京都","city":"中央区","address":"東京都中央区晴海1丁目1-26","lat":35.66197894,"lon":139.7876958},{"name":"朝潮水門（水防倉庫）","province":"東京都","city":"中央区","address":"東京都中央区勝どき6丁目3","lat":35.65549314,"lon":139.77306391},{"name":"築地川水門","province":"東京都","city":"中央区","address":"東京都中央区浜離宮庭園1-1","lat":35.66256987,"lon":139.76322283},{"name":"浜離宮排水機場","province":"東京都","city":"中央区","address":"東京都中央区浜離宮庭園1-1","lat":35.66256987,"lon":139.76322283},{"name":"汐留川水門","province":"東京都","city":"中央区","address":"東京都中央区浜離宮庭園1-1","lat":35.66256987,"lon":139.76322283},{"name":"中央区立月島運動場","province":"東京都","city":"中央区","address":"東京都中央区晴海1丁目3-29","lat":35.65907089,"lon":139.78637652},{"name":"中央区立豊海運動公園","province":"東京都","city":"中央区","address":"東京都中央区豊海町3-19","lat":35.65321559,"lon":139.77225293},{"name":"晴海給水所","province":"東京都","city":"中央区","address":"東京都中央区晴海1-6-3","lat":35.65832,"lon":139.78408},{"name":"区立あかつき公園","province":"東京都","city":"中央区","address":"東京都中央区築地7-19-1","lat":35.665987,"lon":139.776889},{"name":"区立堀留児童公園","province":"東京都","city":"中央区","address":"東京都中央区日本橋堀留町1-1-16","lat":35.6871001,"lon":139.779214},{"name":"聖路加国際病院","province":"東京都","city":"中央区","address":"東京都中央区明石町9-1","lat":35.66741137,"lon":139.77705481},{"name":"佃水門","province":"東京都","city":"中央区","address":"東京都中央区晴海1丁目1-26","lat":35.66197894,"lon":139.7876958},{"name":"朝潮水門（水防倉庫）","province":"東京都","city":"中央区","address":"東京都中央区勝どき6丁目3","lat":35.65549314,"lon":139.77306391},{"name":"築地川水門","province":"東京都","city":"中央区","address":"東京都中央区浜離宮庭園1-1","lat":35.66256987,"lon":139.76322283},{"name":"浜離宮排水機場","province":"東京都","city":"中央区","address":"東京都中央区浜離宮庭園1-1","lat":35.66256987,"lon":139.76322283},{"name":"汐留川水門","province":"東京都","city":"中央区","address":"東京都中央区浜離宮庭園1-1","lat":35.66256987,"lon":139.76322283},{"name":"晴海給水所","province":"東京都","city":"中央区","address":"東京都中央区晴海1-6-3","lat":35.65832,"lon":139.78408},{"name":"区立あかつき公園","province":"東京都","city":"中央区","address":"東京都中央区築地7-19-1","lat":35.665987,"lon":139.776889},{"name":"区立堀留児童公園","province":"東京都","city":"中央区","address":"東京都中央区日本橋堀留町1-1-16","lat":35.6871001,"lon":139.779214},{"name":"聖路加国際病院","province":"東京都","city":"中央区","address":"東京都中央区明石町9-1","lat":35.66741137,"lon":139.77705481},{"name":"佃水門","province":"東京都","city":"中央区","address":"東京都中央区晴海1丁目1-26","lat":35.66197894,"lon":139.7876958},{"name":"朝潮水門（水防倉庫）","province":"東京都","city":"中央区","address":"東京都中央区勝どき6丁目3","lat":35.65549314,"lon":139.77306391},{"name":"築地川水門","province":"東京都","city":"中央区","address":"東京都中央区浜離宮庭園1-1","lat":35.66256987,"lon":139.76322283},{"name":"浜離宮排水機場","province":"東京都","city":"中央区","address":"東京都中央区浜離宮庭園1-1","lat":35.66256987,"lon":139.76322283},{"name":"汐留川水門","province":"東京都","city":"中央区","address":"東京都中央区浜離宮庭園1-1","lat":35.66256987,"lon":139.76322283},{"name":"晴海給水所","province":"東京都","city":"中央区","address":"東京都中央区晴海1-6-3","lat":35.65832,"lon":139.78408},{"name":"区立あかつき公園","province":"東京都","city":"中央区","address":"東京都中央区築地7-19-1","lat":35.665987,"lon":139.776889},{"name":"区立堀留児童公園","province":"東京都","city":"中央区","address":"東京都中央区日本橋堀留町1-1-16","lat":35.6871001,"lon":139.779214},{"name":"聖路加国際病院","province":"東京都","city":"中央区","address":"東京都中央区明石町9-1","lat":35.66741137,"lon":139.77705481},{"name":"佃水門","province":"東京都","city":"中央区","address":"東京都中央区晴海1丁目1-26","lat":35.66197894,"lon":139.7876958},{"name":"朝潮水門（水防倉庫）","province":"東京都","city":"中央区","address":"東京都中央区勝どき6丁目3","lat":35.65549314,"lon":139.77306391},{"name":"築地川水門","province":"東京都","city":"中央区","address":"東京都中央区浜離宮庭園1-1","lat":35.66256987,"lon":139.76322283},{"name":"浜離宮排水機場","province":"東京都","city":"中央区","address":"東京都中央区浜離宮庭園1-1","lat":35.66256987,"lon":139.76322283},{"name":"汐留川水門","province":"東京都","city":"中央区","address":"東京都中央区浜離宮庭園1-1","lat":35.66256987,"lon":139.76322283},{"name":"晴海給水所","province":"東京都","city":"中央区","address":"東京都中央区晴海1-6-3","lat":35.65832,"lon":139.78408},{"name":"区立あかつき公園","province":"東京都","city":"中央区","address":"東京都中央区築地7-19-1","lat":35.665987,"lon":139.776889},{"name":"区立堀留児童公園","province":"東京都","city":"中央区","address":"東京都中央区日本橋堀留町1-1-16","lat":35.6871001,"lon":139.779214},{"name":"聖路加国際病院","province":"東京都","city":"中央区","address":"東京都中央区明石町9-1","lat":35.66741137,"lon":139.77705481},{"name":"佃水門","province":"東京都","city":"中央区","address":"東京都中央区晴海1丁目1-26","lat":35.66197894,"lon":139.7876958},{"name":"朝潮水門（水防倉庫）","province":"東京都","city":"中央区","address":"東京都中央区勝どき6丁目3","lat":35.65549314,"lon":139.77306391},{"name":"築地川水門","province":"東京都","city":"中央区","address":"東京都中央区浜離宮庭園1-1","lat":35.66256987,"lon":139.76322283},{"name":"浜離宮排水機場","province":"東京都","city":"中央区","address":"東京都中央区浜離宮庭園1-1","lat":35.66256987,"lon":139.76322283},{"name":"汐留川水門","province":"東京都","city":"中央区","address":"東京都中央区浜離宮庭園1-1","lat":35.66256987,"lon":139.76322283},{"name":"晴海給水所","province":"東京都","city":"中央区","address":"東京都中央区晴海1-6-3","lat":35.65832,"lon":139.78408},{"name":"区立あかつき公園","province":"東京都","city":"中央区","address":"東京都中央区築地7-19-1","lat":35.665987,"lon":139.776889},{"name":"区立堀留児童公園","province":"東京都","city":"中央区","address":"東京都中央区日本橋堀留町1-1-16","lat":35.6871001,"lon":139.779214},{"name":"聖路加国際病院","province":"東京都","city":"中央区","address":"東京都中央区明石町9-1","lat":35.66741137,"lon":139.77705481},{"name":"佃水門","province":"東京都","city":"中央区","address":"東京都中央区晴海1丁目1-26","lat":35.66197894,"lon":139.7876958},{"name":"朝潮水門（水防倉庫）","province":"東京都","city":"中央区","address":"東京都中央区勝どき6丁目3","lat":35.65549314,"lon":139.77306391},{"name":"築地川水門","province":"東京都","city":"中央区","address":"東京都中央区浜離宮庭園1-1","lat":35.66256987,"lon":139.76322283},{"name":"浜離宮排水機場","province":"東京都","city":"中央区","address":"東京都中央区浜離宮庭園1-1","lat":35.66256987,"lon":139.76322283},{"name":"汐留川水門","province":"東京都","city":"中央区","address":"東京都中央区浜離宮庭園1-1","lat":35.66256987,"lon":139.76322283},{"name":"晴海給水所","province":"東京都","city":"中央区","address":"東京都中央区晴海1-6-3","lat":35.65832,"lon":139.78408},{"name":"区立あかつき公園","province":"東京都","city":"中央区","address":"東京都中央区築地7-19-1","lat":35.665987,"lon":139.776889},{"name":"区立堀留児童公園","province":"東京都","city":"中央区","address":"東京都中央区日本橋堀留町1-1-16","lat":35.6871001,"lon":139.779214},{"name":"聖路加国際病院","province":"東京都","city":"中央区","address":"東京都中央区明石町9-1","lat":35.66741137,"lon":139.77705481},{"name":"佃水門","province":"東京都","city":"中央区","address":"東京都中央区晴海1丁目1-26","lat":35.66197894,"lon":139.7876958},{"name":"朝潮水門（水防倉庫）","province":"東京都","city":"中央区","address":"東京都中央区勝どき6丁目3","lat":35.65549314,"lon":139.77306391},{"name":"築地川水門","province":"東京都","city":"中央区","address":"東京都中央区浜離宮庭園1-1","lat":35.66256987,"lon":139.76322283},{"name":"浜離宮排水機場","province":"東京都","city":"中央区","address":"東京都中央区浜離宮庭園1-1","lat":35.66256987,"lon":139.76322283},{"name":"汐留川水門","province":"東京都","city":"中央区","address":"東京都中央区浜離宮庭園1-1","lat":35.66256987,"lon":139.76322283},{"name":"晴海給水所","province":"東京都","city":"中央区","address":"東京都中央区晴海1-6-3","lat":35.65832,"lon":139.78408},{"name":"区立あかつき公園","province":"東京都","city":"中央区","address":"東京都中央区築地7-19-1","lat":35.665987,"lon":139.776889},{"name":"区立堀留児童公園","province":"東京都","city":"中央区","address":"東京都中央区日本橋堀留町1-1-16","lat":35.6871001,"lon":139.779214},{"name":"佃水門","province":"東京都","city":"中央区","address":"東京都中央区晴海1丁目1-26","lat":35.66197894,"lon":139.7876958},{"name":"朝潮水門（水防倉庫）","province":"東京都","city":"中央区","address":"東京都中央区勝どき6丁目3","lat":35.65549314,"lon":139.77306391},{"name":"築地川水門","province":"東京都","city":"中央区","address":"東京都中央区浜離宮庭園1-1","lat":35.66256987,"lon":139.76322283},{"name":"浜離宮排水機場","province":"東京都","city":"中央区","address":"東京都中央区浜離宮庭園1-1","lat":35.66256987,"lon":139.76322283},{"name":"汐留川水門","province":"東京都","city":"中央区","address":"東京都中央区浜離宮庭園1-1","lat":35.66256987,"lon":139.76322283},{"name":"晴海給水所","province":"東京都","city":"中央区","address":"東京都中央区晴海1-6-3","lat":35.65832,"lon":139.78408},{"name":"区立あかつき公園","province":"東京都","city":"中央区","address":"東京都中央区築地7-19-1","lat":35.665987,"lon":139.776889},{"name":"区立堀留児童公園","province":"東京都","city":"中央区","address":"東京都中央区日本橋堀留町1-1-16","lat":35.6871001,"lon":139.779214},{"name":"佃水門","province":"東京都","city":"中央区","address":"東京都中央区晴海1丁目1-26","lat":35.66197894,"lon":139.7876958},{"name":"朝潮水門（水防倉庫）","province":"東京都","city":"中央区","address":"東京都中央区勝どき6丁目3","lat":35.65549314,"lon":139.77306391},{"name":"築地川水門","province":"東京都","city":"中央区","address":"東京都中央区浜離宮庭園1-1","lat":35.66256987,"lon":139.76322283},{"name":"浜離宮排水機場","province":"東京都","city":"中央区","address":"東京都中央区浜離宮庭園1-1","lat":35.66256987,"lon":139.76322283},{"name":"汐留川水門","province":"東京都","city":"中央区","address":"東京都中央区浜離宮庭園1-1","lat":35.66256987,"lon":139.76322283},{"name":"晴海給水所","province":"東京都","city":"中央区","address":"東京都中央区晴海1-6-3","lat":35.65832,"lon":139.78408},{"name":"区立あかつき公園","province":"東京都","city":"中央区","address":"東京都中央区築地7-19-1","lat":35.665987,"lon":139.776889},{"name":"区立堀留児童公園","province":"東京都","city":"中央区","address":"東京都中央区日本橋堀留町1-1-16","lat":35.6871001,"lon":139.779214},{"name":"晴海給水所","province":"東京都","city":"中央区","address":"東京都中央区晴海1-6-3","lat":35.65832,"lon":139.78408},{"name":"区立あかつき公園","province":"東京都","city":"中央区","address":"東京都中央区築地7-19-1","lat":35.665987,"lon":139.776889},{"name":"区立堀留児童公園","province":"東京都","city":"中央区","address":"東京都中央区日本橋堀留町1-1-16","lat":35.6871001,"lon":139.779214},{"name":"晴海給水所","province":"東京都","city":"中央区","address":"東京都中央区晴海1-6-3","lat":35.65832,"lon":139.78408},{"name":"区立あかつき公園","province":"東京都","city":"中央区","address":"東京都中央区築地7-19-1","lat":35.665987,"lon":139.776889},{"name":"区立堀留児童公園","province":"東京都","city":"中央区","address":"東京都中央区日本橋堀留町1-1-16","lat":35.6871001,"lon":139.779214},{"name":"晴海給水所","province":"東京都","city":"中央区","address":"東京都中央区晴海1-6-3","lat":35.65832,"lon":139.78408},{"name":"区立あかつき公園","province":"東京都","city":"中央区","address":"東京都中央区築地7-19-1","lat":35.665987,"lon":139.776889},{"name":"区立堀留児童公園","province":"東京都","city":"中央区","address":"東京都中央区日本橋堀留町1-1-16","lat":35.6871001,"lon":139.779214},{"name":"晴海給水所","province":"東京都","city":"中央区","address":"東京都中央区晴海1-6-3","lat":35.65832,"lon":139.78408},{"name":"区立あかつき公園","province":"東京都","city":"中央区","address":"東京都中央区築地7-19-1","lat":35.665987,"lon":139.776889},{"name":"区立堀留児童公園","province":"東京都","city":"中央区","address":"東京都中央区日本橋堀留町1-1-16","lat":35.6871001,"lon":139.779214},{"name":"晴海給水所","province":"東京都","city":"中央区","address":"東京都中央区晴海1-6-3","lat":35.65832,"lon":139.78408},{"name":"区立あかつき公園","province":"東京都","city":"中央区","address":"東京都中央区築地7-19-1","lat":35.665987,"lon":139.776889},{"name":"区立堀留児童公園","province":"東京都","city":"中央区","address":"東京都中央区日本橋堀留町1-1-16","lat":35.6871001,"lon":139.779214},{"name":"晴海給水所","province":"東京都","city":"中央区","address":"東京都中央区晴海1-6-3","lat":35.65832,"lon":139.78408},{"name":"区立あかつき公園","province":"東京都","city":"中央区","address":"東京都中央区築地7-19-1","lat":35.665987,"lon":139.776889},{"name":"区立堀留児童公園","province":"東京都","city":"中央区","address":"東京都中央区日本橋堀留町1-1-16","lat":35.6871001,"lon":139.779214},{"name":"晴海給水所","province":"東京都","city":"中央区","address":"東京都中央区晴海1-6-3","lat":35.65832,"lon":139.78408},{"name":"区立あかつき公園","province":"東京都","city":"中央区","address":"東京都中央区築地7-19-1","lat":35.665987,"lon":139.776889},{"name":"区立堀留児童公園","province":"東京都","city":"中央区","address":"東京都中央区日本橋堀留町1-1-16","lat":35.6871001,"lon":139.779214},{"name":"晴海給水所","province":"東京都","city":"中央区","address":"東京都中央区晴海1-6-3","lat":35.65832,"lon":139.78408},{"name":"区立あかつき公園","province":"東京都","city":"中央区","address":"東京都中央区築地7-19-1","lat":35.665987,"lon":139.776889},{"name":"区立堀留児童公園","province":"東京都","city":"中央区","address":"東京都中央区日本橋堀留町1-1-16","lat":35.6871001,"lon":139.779214},{"name":"晴海給水所","province":"東京都","city":"中央区","address":"東京都中央区晴海1-6-3","lat":35.65832,"lon":139.78408},{"name":"区立あかつき公園","province":"東京都","city":"中央区","address":"東京都中央区築地7-19-1","lat":35.665987,"lon":139.776889},{"name":"区立堀留児童公園","province":"東京都","city":"中央区","address":"東京都中央区日本橋堀留町1-1-16","lat":35.6871001,"lon":139.779214},{"name":"晴海給水所","province":"東京都","city":"中央区","address":"東京都中央区晴海1-6-3","lat":35.65832,"lon":139.78408},{"name":"区立あかつき公園","province":"東京都","city":"中央区","address":"東京都中央区築地7-19-1","lat":35.665987,"lon":139.776889},{"name":"区立堀留児童公園","province":"東京都","city":"中央区","address":"東京都中央区日本橋堀留町1-1-16","lat":35.6871001,"lon":139.779214},{"name":"晴海給水所","province":"東京都","city":"中央区","address":"東京都中央区晴海1-6-3","lat":35.65832,"lon":139.78408},{"name":"区立あかつき公園","province":"東京都","city":"中央区","address":"東京都中央区築地7-19-1","lat":35.665987,"lon":139.776889},{"name":"区立堀留児童公園","province":"東京都","city":"中央区","address":"東京都中央区日本橋堀留町1-1-16","lat":35.6871001,"lon":139.779214},{"name":"晴海給水所","province":"東京都","city":"中央区","address":"東京都中央区晴海1-6-3","lat":35.65832,"lon":139.78408},{"name":"区立あかつき公園","province":"東京都","city":"中央区","address":"東京都中央区築地7-19-1","lat":35.665987,"lon":139.776889},{"name":"区立堀留児童公園","province":"東京都","city":"中央区","address":"東京都中央区日本橋堀留町1-1-16","lat":35.6871001,"lon":139.779214},{"name":"晴海給水所","province":"東京都","city":"中央区","address":"東京都中央区晴海1-6-3","lat":35.65832,"lon":139.78408},{"name":"区立あかつき公園","province":"東京都","city":"中央区","address":"東京都中央区築地7-19-1","lat":35.665987,"lon":139.776889},{"name":"区立堀留児童公園","province":"東京都","city":"中央区","address":"東京都中央区日本橋堀留町1-1-16","lat":35.6871001,"lon":139.779214},{"name":"晴海給水所","province":"東京都","city":"中央区","address":"東京都中央区晴海1-6-3","lat":35.65832,"lon":139.78408},{"name":"区立あかつき公園","province":"東京都","city":"中央区","address":"東京都中央区築地7-19-1","lat":35.665987,"lon":139.776889},{"name":"区立堀留児童公園","province":"東京都","city":"中央区","address":"東京都中央区日本橋堀留町1-1-16","lat":35.6871001,"lon":139.779214},{"name":"晴海給水所","province":"東京都","city":"中央区","address":"東京都中央区晴海1-6-3","lat":35.65832,"lon":139.78408},{"name":"区立あかつき公園","province":"東京都","city":"中央区","address":"東京都中央区築地7-19-1","lat":35.665987,"lon":139.776889},{"name":"区立堀留児童公園","province":"東京都","city":"中央区","address":"東京都中央区日本橋堀留町1-1-16","lat":35.6871001,"lon":139.779214},{"name":"晴海給水所","province":"東京都","city":"中央区","address":"東京都中央区晴海1-6-3","lat":35.65832,"lon":139.78408},{"name":"区立あかつき公園","province":"東京都","city":"中央区","address":"東京都中央区築地7-19-1","lat":35.665987,"lon":139.776889},{"name":"区立堀留児童公園","province":"東京都","city":"中央区","address":"東京都中央区日本橋堀留町1-1-16","lat":35.6871001,"lon":139.779214},{"name":"晴海給水所","province":"東京都","city":"中央区","address":"東京都中央区晴海1-6-3","lat":35.65832,"lon":139.78408},{"name":"区立あかつき公園","province":"東京都","city":"中央区","address":"東京都中央区築地7-19-1","lat":35.665987,"lon":139.776889},{"name":"区立堀留児童公園","province":"東京都","city":"中央区","address":"東京都中央区日本橋堀留町1-1-16","lat":35.6871001,"lon":139.779214},{"name":"晴海給水所","province":"東京都","city":"中央区","address":"東京都中央区晴海1-6-3","lat":35.65832,"lon":139.78408},{"name":"区立あかつき公園","province":"東京都","city":"中央区","address":"東京都中央区築地7-19-1","lat":35.665987,"lon":139.776889},{"name":"区立堀留児童公園","province":"東京都","city":"中央区","address":"東京都中央区日本橋堀留町1-1-16","lat":35.6871001,"lon":139.779214},{"name":"晴海給水所","province":"東京都","city":"中央区","address":"東京都中央区晴海1-6-3","lat":35.65832,"lon":139.78408},{"name":"区立あかつき公園","province":"東京都","city":"中央区","address":"東京都中央区築地7-19-1","lat":35.665987,"lon":139.776889},{"name":"区立堀留児童公園","province":"東京都","city":"中央区","address":"東京都中央区日本橋堀留町1-1-16","lat":35.6871001,"lon":139.779214},{"name":"晴海給水所","province":"東京都","city":"中央区","address":"東京都中央区晴海1-6-3","lat":35.65832,"lon":139.78408},{"name":"区立あかつき公園","province":"東京都","city":"中央区","address":"東京都中央区築地7-19-1","lat":35.665987,"lon":139.776889},{"name":"区立堀留児童公園","province":"東京都","city":"中央区","address":"東京都中央区日本橋堀留町1-1-16","lat":35.6871001,"lon":139.779214},{"name":"晴海給水所","province":"東京都","city":"中央区","address":"東京都中央区晴海1-6-3","lat":35.65832,"lon":139.78408},{"name":"区立あかつき公園","province":"東京都","city":"中央区","address":"東京都中央区築地7-19-1","lat":35.665987,"lon":139.776889},{"name":"区立堀留児童公園","province":"東京都","city":"中央区","address":"東京都中央区日本橋堀留町1-1-16","lat":35.6871001,"lon":139.779214},{"name":"晴海給水所","province":"東京都","city":"中央区","address":"東京都中央区晴海1-6-3","lat":35.65832,"lon":139.78408},{"name":"区立あかつき公園","province":"東京都","city":"中央区","address":"東京都中央区築地7-19-1","lat":35.665987,"lon":139.776889},{"name":"区立堀留児童公園","province":"東京都","city":"中央区","address":"東京都中央区日本橋堀留町1-1-16","lat":35.6871001,"lon":139.779214},{"name":"晴海給水所","province":"東京都","city":"中央区","address":"東京都中央区晴海1-6-3","lat":35.65832,"lon":139.78408},{"name":"区立あかつき公園","province":"東京都","city":"中央区","address":"東京都中央区築地7-19-1","lat":35.665987,"lon":139.776889},{"name":"区立堀留児童公園","province":"東京都","city":"中央区","address":"東京都中央区日本橋堀留町1-1-16","lat":35.6871001,"lon":139.779214},{"name":"晴海給水所","province":"東京都","city":"中央区","address":"東京都中央区晴海1-6-3","lat":35.65832,"lon":139.78408},{"name":"区立あかつき公園","province":"東京都","city":"中央区","address":"東京都中央区築地7-19-1","lat":35.665987,"lon":139.776889},{"name":"区立堀留児童公園","province":"東京都","city":"中央区","address":"東京都中央区日本橋堀留町1-1-16","lat":35.6871001,"lon":139.779214},{"name":"晴海給水所","province":"東京都","city":"中央区","address":"東京都中央区晴海1-6-3","lat":35.65832,"lon":139.78408},{"name":"区立あかつき公園","province":"東京都","city":"中央区","address":"東京都中央区築地7-19-1","lat":35.665987,"lon":139.776889},{"name":"区立堀留児童公園","province":"東京都","city":"中央区","address":"東京都中央区日本橋堀留町1-1-16","lat":35.6871001,"lon":139.779214},{"name":"晴海給水所","province":"東京都","city":"中央区","address":"東京都中央区晴海1-6-3","lat":35.65832,"lon":139.78408},{"name":"区立あかつき公園","province":"東京都","city":"中央区","address":"東京都中央区築地7-19-1","lat":35.665987,"lon":139.776889},{"name":"区立堀留児童公園","province":"東京都","city":"中央区","address":"東京都中央区日本橋堀留町1-1-16","lat":35.6871001,"lon":139.779214},{"name":"晴海給水所","province":"東京都","city":"中央区","address":"東京都中央区晴海1-6-3","lat":35.65832,"lon":139.78408},{"name":"区立あかつき公園","province":"東京都","city":"中央区","address":"東京都中央区築地7-19-1","lat":35.665987,"lon":139.776889},{"name":"区立堀留児童公園","province":"東京都","city":"中央区","address":"東京都中央区日本橋堀留町1-1-16","lat":35.6871001,"lon":139.779214},{"name":"晴海給水所","province":"東京都","city":"中央区","address":"東京都中央区晴海1-6-3","lat":35.65832,"lon":139.78408},{"name":"区立あかつき公園","province":"東京都","city":"中央区","address":"東京都中央区築地7-19-1","lat":35.665987,"lon":139.776889},{"name":"区立堀留児童公園","province":"東京都","city":"中央区","address":"東京都中央区日本橋堀留町1-1-16","lat":35.6871001,"lon":139.779214},{"name":"晴海給水所","province":"東京都","city":"中央区","address":"東京都中央区晴海1-6-3","lat":35.65832,"lon":139.78408},{"name":"区立あかつき公園","province":"東京都","city":"中央区","address":"東京都中央区築地7-19-1","lat":35.665987,"lon":139.776889},{"name":"区立堀留児童公園","province":"東京都","city":"中央区","address":"東京都中央区日本橋堀留町1-1-16","lat":35.6871001,"lon":139.779214},{"name":"晴海給水所","province":"東京都","city":"中央区","address":"東京都中央区晴海1-6-3","lat":35.65832,"lon":139.78408},{"name":"区立あかつき公園","province":"東京都","city":"中央区","address":"東京都中央区築地7-19-1","lat":35.665987,"lon":139.776889},{"name":"区立堀留児童公園","province":"東京都","city":"中央区","address":"東京都中央区日本橋堀留町1-1-16","lat":35.6871001,"lon":139.779214},{"name":"晴海給水所","province":"東京都","city":"中央区","address":"東京都中央区晴海1-6-3","lat":35.65832,"lon":139.78408},{"name":"区立あかつき公園","province":"東京都","city":"中央区","address":"東京都中央区築地7-19-1","lat":35.665987,"lon":139.776889},{"name":"区立堀留児童公園","province":"東京都","city":"中央区","address":"東京都中央区日本橋堀留町1-1-16","lat":35.6871001,"lon":139.779214},{"name":"晴海給水所","province":"東京都","city":"中央区","address":"東京都中央区晴海1-6-3","lat":35.65832,"lon":139.78408},{"name":"区立あかつき公園","province":"東京都","city":"中央区","address":"東京都中央区築地7-19-1","lat":35.665987,"lon":139.776889},{"name":"区立堀留児童公園","province":"東京都","city":"中央区","address":"東京都中央区日本橋堀留町1-1-16","lat":35.6871001,"lon":139.779214}]}