{"keyword":"商品","data":[{"name":"浜町児童館","province":"東京都","city":"中央区","address":"中央区日本橋浜町3-37-1","lat":35.685518,"lon":139.791302},{"name":"堀留町児童館","province":"東京都","city":"中央区","address":"中央区日本橋堀留町1-1-1","lat":35.687412,"lon":139.778963},{"name":"新川児童館","province":"東京都","city":"中央区","address":"中央区新川2-13-4","lat":35.675969,"lon":139.781568},{"name":"築地児童館","province":"東京都","city":"中央区","address":"中央区築地7-9-17","lat":35.666223,"lon":139.775883},{"name":"佃児童館","province":"東京都","city":"中央区","address":"中央区佃1-11-1","lat":35.668925,"lon":139.784726},{"name":"月島児童館","province":"東京都","city":"中央区","address":"中央区月島4-1-1","lat":35.662059,"lon":139.782141},{"name":"晴海児童館","province":"東京都","city":"中央区","address":"中央区晴海2-4-31","lat":35.654907,"lon":139.783935},{"name":"勝どき児童館","province":"東京都","city":"中央区","address":"中央区勝どき1-8-1","lat":35.659665,"lon":139.776583},{"name":"中央区立子ども発達支援センター","province":"東京都","city":"中央区","address":"中央区明石町12-1","lat":35.666506,"lon":139.777035},{"name":"中央区立知的障害者生活支援施設レインボーハウス明石","province":"東京都","city":"中央区","address":"中央区明石町1-6","lat":35.669292,"lon":139.776716},{"name":"中央区社会福祉協議会","province":"東京都","city":"中央区","address":"中央区八丁堀4-1-51~3階","lat":35.674147,"lon":139.773013},{"name":"中央区立子ども家庭支援センター","province":"東京都","city":"中央区","address":"中央区勝どき1-4-13階","lat":35.660368,"lon":139.777208},{"name":"東京都八重洲駐車場","province":"東京都","city":"中央区","address":"東京都中央区日本橋3丁目","lat":35.6798321,"lon":139.77222703},{"name":"東京都日本橋駐車場","province":"東京都","city":"中央区","address":"東京都中央区日本橋1丁目","lat":35.68257362,"lon":139.77708232},{"name":"東京都宝町駐車場","province":"東京都","city":"中央区","address":"東京都中央区日本橋3丁目","lat":35.6798321,"lon":139.77222703},{"name":"東京都新京橋駐車場","province":"東京都","city":"中央区","address":"東京都中央区京橋3丁目","lat":35.67571581,"lon":139.76939125},{"name":"東京都東銀座駐車場","province":"東京都","city":"中央区","address":"東京都中央区銀座5丁目","lat":35.67068289,"lon":139.76467514},{"name":"浜離宮恩賜庭園","province":"東京都","city":"中央区","address":"東京都中央区浜離宮庭園1","lat":35.662301,"lon":139.763075},{"name":"浜離宮恩賜庭園","province":"東京都","city":"中央区","address":"東京都中央区浜離宮庭園1","lat":35.660184,"lon":139.767002},{"name":"浜離宮恩賜庭園","province":"東京都","city":"中央区","address":"東京都中央区浜離宮庭園1","lat":35.659247,"lon":139.763412},{"name":"浜離宮恩賜庭園","province":"東京都","city":"中央区","address":"東京都中央区浜離宮庭園1","lat":35.660405,"lon":139.76227},{"name":"東京都宝町駐車場","province":"東京都","city":"中央区","address":"東京都中央区京橋1丁目14","lat":35.677093,"lon":139.772881},{"name":"東京都八重洲駐車場","province":"東京都","city":"中央区","address":"東京都中央区京橋1丁目7","lat":35.678722,"lon":139.77243},{"name":"東京都八重洲駐車場","province":"東京都","city":"中央区","address":"東京都中央区日本橋3丁目5","lat":35.679061,"lon":139.772611},{"name":"晴海ふ頭公園","province":"東京都","city":"中央区","address":"東京都中央区晴海5丁目8","lat":35.647258,"lon":139.772422},{"name":"晴海ふ頭公園","province":"東京都","city":"中央区","address":"東京都中央区晴海5丁目8","lat":35.648511,"lon":139.770477},{"name":"都営浅草線宝町駅","province":"東京都","city":"中央区","address":"東京都中央区京橋3丁目13","lat":35.674928,"lon":139.771715},{"name":"都営浅草線東銀座駅","province":"東京都","city":"中央区","address":"東京都中央区銀座4丁目10","lat":35.669978,"lon":139.76675},{"name":"都営浅草線日本橋駅","province":"東京都","city":"中央区","address":"東京都中央区日本橋2丁目8","lat":35.68166,"lon":139.775588},{"name":"都営浅草線人形町駅","province":"東京都","city":"中央区","address":"東京都中央区日本橋人形町3丁目7","lat":35.686088,"lon":139.781705},{"name":"都営浅草線東日本橋駅","province":"東京都","city":"中央区","address":"東京都中央区東日本橋3丁目12","lat":35.692491,"lon":139.7848},{"name":"都営新宿線馬喰横山駅","province":"東京都","city":"中央区","address":"東京都中央区東日本橋3丁目9","lat":35.691567,"lon":139.783446},{"name":"都営新宿線浜町駅","province":"東京都","city":"中央区","address":"東京都中央区日本橋浜町2丁目59","lat":35.688452,"lon":139.788266},{"name":"都営大江戸線月島駅","province":"東京都","city":"中央区","address":"東京都中央区月島1丁目5","lat":35.663824,"lon":139.784082},{"name":"都営大江戸線勝どき駅","province":"東京都","city":"中央区","address":"東京都中央区勝どき1丁目7","lat":35.65948,"lon":139.777795},{"name":"都営大江戸線勝どき駅","province":"東京都","city":"中央区","address":"東京都中央区勝どき2丁目10","lat":35.658964,"lon":139.777214},{"name":"都営大江戸線築地市場駅","province":"東京都","city":"中央区","address":"東京都中央区築地5丁目3","lat":35.664875,"lon":139.766858},{"name":"日本橋消防署浜町出張所","province":"東京都","city":"中央区","address":"東京都中央区日本橋浜町3丁目45-12","lat":35.685306,"lon":139.791846},{"name":"臨港消防署","province":"東京都","city":"中央区","address":"東京都中央区晴海5丁目8-20","lat":35.649473,"lon":139.770767},{"name":"臨港消防署月島出張所","province":"東京都","city":"中央区","address":"東京都中央区勝どき4丁目6-3","lat":35.656943,"lon":139.776759},{"name":"中央区役所本庁舎","province":"東京都","city":"中央区","address":"東京都中央区築地1丁目1-1","lat":35.670677,"lon":139.772281},{"name":"中央区役所本庁舎","province":"東京都","city":"中央区","address":"東京都中央区築地1丁目1-1","lat":35.670713,"lon":139.772385},{"name":"中央区役所本庁舎","province":"東京都","city":"中央区","address":"東京都中央区築地1丁目1-1","lat":35.67066,"lon":139.772281},{"name":"中央区役所本庁舎","province":"東京都","city":"中央区","address":"東京都中央区築地1丁目1-1","lat":35.670668,"lon":139.772281},{"name":"日本橋特別出張所","province":"東京都","city":"中央区","address":"東京都中央区日本橋蛎殻町1丁目31-1","lat":35.682522,"lon":139.784288},{"name":"中央区立京橋区民館","province":"東京都","city":"中央区","address":"東京都中央区京橋2丁目6-7","lat":35.676591,"lon":139.771282},{"name":"月島特別出張所","province":"東京都","city":"中央区","address":"東京都中央区月島4丁目1-1","lat":35.662096,"lon":139.782234},{"name":"中央区立男女平等センター「ブーケ２１」","province":"東京都","city":"中央区","address":"東京都中央区湊1丁目1-1","lat":35.67351,"lon":139.778774},{"name":"中央区立京橋プラザ区民館","province":"東京都","city":"中央区","address":"東京都中央区銀座1丁目25-1","lat":35.673246,"lon":139.771653},{"name":"中央区立銀座区民館","province":"東京都","city":"中央区","address":"東京都中央区銀座4丁目13-17","lat":35.669492,"lon":139.768684},{"name":"中央区立新川区民館","province":"東京都","city":"中央区","address":"東京都中央区新川1丁目26-19","lat":35.676475,"lon":139.78358},{"name":"中央区立堀留町区民館","province":"東京都","city":"中央区","address":"東京都中央区日本橋堀留町1丁目1-1","lat":35.687441,"lon":139.778887},{"name":"中央区立人形町区民館","province":"東京都","city":"中央区","address":"東京都中央区日本橋人形町2丁目14-5","lat":35.684595,"lon":139.784823},{"name":"中央区立人形町区民館","province":"東京都","city":"中央区","address":"東京都中央区日本橋人形町2丁目14-5","lat":35.684528,"lon":139.784911},{"name":"中央区立久松町区民館","province":"東京都","city":"中央区","address":"東京都中央区日本橋久松町1","lat":35.688677,"lon":139.783952},{"name":"中央区立新場橋区民館","province":"東京都","city":"中央区","address":"東京都中央区日本橋兜町11-9","lat":35.679999,"lon":139.776322},{"name":"中央区立浜町区民館","province":"東京都","city":"中央区","address":"東京都中央区日本橋浜町3丁目37-1","lat":35.685526,"lon":139.791511},{"name":"中央区立佃区民館","province":"東京都","city":"中央区","address":"東京都中央区佃2丁目17-8","lat":35.664886,"lon":139.784978},{"name":"中央区立月島区民館","province":"東京都","city":"中央区","address":"東京都中央区月島2丁目8","lat":35.663258,"lon":139.784671},{"name":"中央区立勝どき区民館","province":"東京都","city":"中央区","address":"東京都中央区勝どき1丁目5","lat":35.660716,"lon":139.777777},{"name":"中央区立豊海区民館","province":"東京都","city":"中央区","address":"東京都中央区豊海町2-6","lat":35.654215,"lon":139.771932},{"name":"中央区立晴海区民館","province":"東京都","city":"中央区","address":"東京都中央区晴海1丁目8-6","lat":35.657183,"lon":139.783252},{"name":"中央区立セレモニーホール","province":"東京都","city":"中央区","address":"東京都中央区勝どき1丁目13-19","lat":35.66042,"lon":139.774675},{"name":"中央区立浜町集会施設","province":"東京都","city":"中央区","address":"東京都中央区日本橋浜町2丁目59-48","lat":35.687404,"lon":139.790345},{"name":"中央区立浜町集会施設","province":"東京都","city":"中央区","address":"東京都中央区日本橋浜町2丁目59-48","lat":35.687386,"lon":139.790354},{"name":"中央区立浜町集会施設","province":"東京都","city":"中央区","address":"東京都中央区日本橋浜町2丁目59-48","lat":35.68743,"lon":139.790324},{"name":"京華スクエア","province":"東京都","city":"中央区","address":"東京都中央区八丁堀3丁目17-9","lat":35.674975,"lon":139.775902},{"name":"京華スクエア","province":"東京都","city":"中央区","address":"東京都中央区八丁堀3丁目17-9","lat":35.674821,"lon":139.77582},{"name":"中央区保健所等複合施設","province":"東京都","city":"中央区","address":"東京都中央区明石町12","lat":35.666818,"lon":139.776279},{"name":"中央区立産業会館","province":"東京都","city":"中央区","address":"東京都中央区東日本橋2丁目22-4","lat":35.693993,"lon":139.787071},{"name":"中央区立日本橋保健センター","province":"東京都","city":"中央区","address":"東京都中央区日本橋堀留町1丁目1-1","lat":35.687497,"lon":139.778987},{"name":"中央区立月島保健センター","province":"東京都","city":"中央区","address":"東京都中央区月島2丁目10-3","lat":35.663187,"lon":139.783954},{"name":"中央区立京橋図書館","province":"東京都","city":"中央区","address":"東京都中央区新富1丁目13-14","lat":35.673687,"lon":139.775553},{"name":"中央区立日本橋図書館","province":"東京都","city":"中央区","address":"東京都中央区日本橋人形町1丁目1-17","lat":35.684901,"lon":139.781491},{"name":"中央区立月島図書館","province":"東京都","city":"中央区","address":"東京都中央区月島4丁目1-1","lat":35.662138,"lon":139.782263},{"name":"中央区立築地社会教育会館","province":"東京都","city":"中央区","address":"東京都中央区築地4丁目15-1","lat":35.666363,"lon":139.768254},{"name":"中央区立築地社会教育会館","province":"東京都","city":"中央区","address":"東京都中央区築地4丁目15-1","lat":35.666363,"lon":139.768311},{"name":"中央区立日本橋社会教育会館","province":"東京都","city":"中央区","address":"東京都中央区日本橋人形町1丁目1-17","lat":35.684831,"lon":139.781553},{"name":"中央区立日本橋社会教育会館","province":"東京都","city":"中央区","address":"東京都中央区日本橋人形町1丁目1-17","lat":35.684766,"lon":139.781576},{"name":"中央区立月島社会教育会館","province":"東京都","city":"中央区","address":"東京都中央区月島4丁目1-1","lat":35.662143,"lon":139.782298},{"name":"中央区立月島社会教育会館晴海分館アートはるみ","province":"東京都","city":"中央区","address":"東京都中央区晴海1丁目4-1","lat":35.658858,"lon":139.786067},{"name":"中央区立中央会館","province":"東京都","city":"中央区","address":"東京都中央区銀座2丁目15-6","lat":35.67125,"lon":139.771336},{"name":"日本橋公会堂","province":"東京都","city":"中央区","address":"東京都中央区日本橋蛎殻町1丁目31-1","lat":35.682308,"lon":139.784132},{"name":"水谷橋公園内公衆便所","province":"東京都","city":"中央区","address":"東京都中央区銀座1丁目12","lat":35.674325,"lon":139.769838},{"name":"数寄屋橋公園内公衆便所","province":"東京都","city":"中央区","address":"東京都中央区銀座5丁目1","lat":35.672389,"lon":139.762086},{"name":"桜川公園内公衆便所","province":"東京都","city":"中央区","address":"東京都中央区入船1丁目1","lat":35.673583,"lon":139.77699},{"name":"鉄砲洲児童公園内公衆便所","province":"東京都","city":"中央区","address":"東京都中央区湊1丁目5","lat":35.671839,"lon":139.77935},{"name":"元南明橋際公衆便所","province":"東京都","city":"中央区","address":"東京都中央区築地7丁目19","lat":35.66669,"lon":139.775916},{"name":"築地川公園内公衆便所","province":"東京都","city":"中央区","address":"東京都中央区明石町10","lat":35.667853,"lon":139.774547},{"name":"はとば公園内公衆便所","province":"東京都","city":"中央区","address":"東京都中央区築地6丁目19","lat":35.664137,"lon":139.774845},{"name":"越前堀児童公園内公衆便所","province":"東京都","city":"中央区","address":"東京都中央区新川1丁目12","lat":35.676428,"lon":139.782774},{"name":"新川公園内公衆便所","province":"東京都","city":"中央区","address":"東京都中央区新川1丁目31","lat":35.67555,"lon":139.786142},{"name":"高橋際公衆便所","province":"東京都","city":"中央区","address":"東京都中央区新川2丁目9","lat":35.674793,"lon":139.780336},{"name":"市場橋公園内公衆便所","province":"東京都","city":"中央区","address":"東京都中央区築地4丁目15","lat":35.665992,"lon":139.768735},{"name":"常盤公園内公衆便所","province":"東京都","city":"中央区","address":"東京都中央区日本橋本石町4丁目4","lat":35.687969,"lon":139.76988},{"name":"堀留児童公園内公衆便所","province":"東京都","city":"中央区","address":"東京都中央区日本橋堀留町1丁目1","lat":35.686436,"lon":139.779285},{"name":"十思公園内公衆便所","province":"東京都","city":"中央区","address":"東京都中央区日本橋小伝馬町5","lat":35.691114,"lon":139.77782},{"name":"小網町二丁目公衆便所","province":"東京都","city":"中央区","address":"東京都中央区日本橋小網町9","lat":35.68373,"lon":139.78003},{"name":"蛎殻町公園内公衆便所","province":"東京都","city":"中央区","address":"東京都中央区日本橋蛎殻町2丁目10","lat":35.682835,"lon":139.78728},{"name":"箱崎川第二公園内公衆便所","province":"東京都","city":"中央区","address":"東京都中央区日本橋箱崎町3","lat":35.680925,"lon":139.785016},{"name":"箱崎公園内公衆便所","province":"東京都","city":"中央区","address":"東京都中央区日本橋箱崎町18","lat":35.679738,"lon":139.78622},{"name":"千代田公園内公衆便所","province":"東京都","city":"中央区","address":"東京都中央区東日本橋1丁目10","lat":35.692511,"lon":139.787553},{"name":"久松児童公園内公衆便所","province":"東京都","city":"中央区","address":"東京都中央区日本橋久松町1","lat":35.688101,"lon":139.784554},{"name":"浜町公園内西側公衆便所","province":"東京都","city":"中央区","address":"東京都中央区日本橋浜町2丁目59","lat":35.688477,"lon":139.788468},{"name":"浜町公園内南側公衆便所","province":"東京都","city":"中央区","address":"東京都中央区日本橋浜町2丁目59","lat":35.687227,"lon":139.789245},{"name":"あやめ第一公園内公衆便所","province":"東京都","city":"中央区","address":"東京都中央区日本橋中洲14","lat":35.684252,"lon":139.79084},{"name":"茅場橋際公衆便所","province":"東京都","city":"中央区","address":"東京都中央区日本橋茅場町1丁目14","lat":35.68068,"lon":139.780894},{"name":"新亀島橋際公衆便所","province":"東京都","city":"中央区","address":"東京都中央区日本橋茅場町2丁目17","lat":35.677863,"lon":139.779909},{"name":"佃公園内公衆便所","province":"東京都","city":"中央区","address":"東京都中央区佃1丁目11","lat":35.668827,"lon":139.78263},{"name":"月島第一児童公園内公衆便所","province":"東京都","city":"中央区","address":"東京都中央区月島4丁目2","lat":35.661723,"lon":139.783125},{"name":"月島第二児童公園内公衆便所","province":"東京都","city":"中央区","address":"東京都中央区勝どき1丁目9","lat":35.659574,"lon":139.776035},{"name":"豊海児童公園内公衆便所","province":"東京都","city":"中央区","address":"東京都中央区勝どき6丁目6","lat":35.654164,"lon":139.773403},{"name":"新月島公園内公衆便所","province":"東京都","city":"中央区","address":"東京都中央区晴海1丁目3","lat":35.659116,"lon":139.786349},{"name":"黎明橋公園内公衆便所","province":"東京都","city":"中央区","address":"東京都中央区晴海3丁目1","lat":35.656708,"lon":139.77987},{"name":"相生橋際公衆便所","province":"東京都","city":"中央区","address":"東京都中央区佃2丁目2","lat":35.666608,"lon":139.78724},{"name":"石川島公園内公衆便所","province":"東京都","city":"中央区","address":"東京都中央区佃2丁目1","lat":35.671078,"lon":139.78549},{"name":"晴海第一公園内公衆便所","province":"東京都","city":"中央区","address":"東京都中央区晴海1丁目7","lat":35.658579,"lon":139.785052},{"name":"晴海臨海公園内公衆便所","province":"東京都","city":"中央区","address":"東京都中央区晴海2丁目4","lat":35.654218,"lon":139.783377},{"name":"月島三丁目児童遊園内公衆便所","province":"東京都","city":"中央区","address":"東京都中央区月島3丁目1","lat":35.664405,"lon":139.780427},{"name":"佃大橋東公衆便所","province":"東京都","city":"中央区","address":"東京都中央区佃1丁目7","lat":35.66651,"lon":139.782926},{"name":"佃三丁目公園内公衆便所","province":"東京都","city":"中央区","address":"東京都中央区佃3丁目12","lat":35.663531,"lon":139.787134},{"name":"豊海運動公園内公衆便所","province":"東京都","city":"中央区","address":"東京都中央区豊海町3","lat":35.653335,"lon":139.772262},{"name":"坂本町公園内公衆便所","province":"東京都","city":"中央区","address":"東京都中央区日本橋兜町15","lat":35.680017,"lon":139.777432},{"name":"新京橋際公衆便所","province":"東京都","city":"中央区","address":"東京都中央区京橋3丁目11","lat":35.674444,"lon":139.771577},{"name":"京橋際公衆便所","province":"東京都","city":"中央区","address":"東京都中央区銀座1丁目2","lat":35.674971,"lon":139.768659},{"name":"元木挽橋際公衆便所","province":"東京都","city":"中央区","address":"東京都中央区銀座6丁目13","lat":35.669262,"lon":139.765351},{"name":"出雲橋際公衆便所","province":"東京都","city":"中央区","address":"東京都中央区銀座7丁目12-9","lat":35.667909,"lon":139.763646},{"name":"元八通八橋際公衆便所","province":"東京都","city":"中央区","address":"東京都中央区銀座8丁目11","lat":35.667226,"lon":139.762119},{"name":"佃大橋西詰公衆便所","province":"東京都","city":"中央区","address":"東京都中央区明石町6","lat":35.668361,"lon":139.780131},{"name":"築地二丁目公衆便所","province":"東京都","city":"中央区","address":"東京都中央区築地2丁目13","lat":35.667714,"lon":139.771788},{"name":"中央市場脇公衆便所","province":"東京都","city":"中央区","address":"東京都中央区築地5丁目2","lat":35.660745,"lon":139.77063},{"name":"門跡橋東公衆便所","province":"東京都","city":"中央区","address":"東京都中央区築地6丁目1","lat":35.66535,"lon":139.772133},{"name":"霊岸橋際公衆便所","province":"東京都","city":"中央区","address":"東京都中央区新川1丁目3","lat":35.678888,"lon":139.781723},{"name":"東新川橋際公衆便所","province":"東京都","city":"中央区","address":"東京都中央区新川1丁目25-9","lat":35.676405,"lon":139.78471},{"name":"亀島橋際公衆便所","province":"東京都","city":"中央区","address":"東京都中央区新川2丁目9","lat":35.676187,"lon":139.779179},{"name":"江戸桜通り地下公衆便所","province":"東京都","city":"中央区","address":"東京都中央区日本橋室町1丁目5-5","lat":35.686224,"lon":139.774365},{"name":"日本橋際公衆便所","province":"東京都","city":"中央区","address":"東京都中央区日本橋室町1丁目8","lat":35.684413,"lon":139.774883},{"name":"江戸橋際公衆便所","province":"東京都","city":"中央区","address":"東京都中央区日本橋本町1丁目10","lat":35.684719,"lon":139.777275},{"name":"隅田川大橋際公衆便所","province":"東京都","city":"中央区","address":"東京都中央区日本橋箱崎町19-35","lat":35.679333,"lon":139.787828},{"name":"箱崎町公衆便所","province":"東京都","city":"中央区","address":"東京都中央区日本橋箱崎町22","lat":35.68098,"lon":139.78621},{"name":"菖蒲橋際公衆便所","province":"東京都","city":"中央区","address":"東京都中央区日本橋浜町3丁目17","lat":35.683646,"lon":139.789681},{"name":"西河岸橋際公衆便所","province":"東京都","city":"中央区","address":"東京都中央区八重洲1丁目1","lat":35.684048,"lon":139.772871},{"name":"海運橋際公衆便所","province":"東京都","city":"中央区","address":"東京都中央区日本橋1丁目21","lat":35.682224,"lon":139.777136},{"name":"浜町緑道内公衆便所","province":"東京都","city":"中央区","address":"東京都中央区日本橋人形町2丁目36","lat":35.686467,"lon":139.786088},{"name":"西仲橋際公衆便所","province":"東京都","city":"中央区","address":"東京都中央区月島3丁目31","lat":35.661286,"lon":139.77841},{"name":"勝どき見晴らし公園内公衆便所","province":"東京都","city":"中央区","address":"東京都中央区勝どき5丁目7","lat":35.657534,"lon":139.77029},{"name":"久安橋際公衆便所","province":"東京都","city":"中央区","address":"東京都中央区八丁堀2丁目1","lat":35.677715,"lon":139.774953},{"name":"亀井橋際公衆便所","province":"東京都","city":"中央区","address":"東京都中央区築地1丁目6","lat":35.670451,"lon":139.770775},{"name":"新場橋際公衆便所","province":"東京都","city":"中央区","address":"東京都中央区日本橋兜町18","lat":35.679242,"lon":139.775928},{"name":"佃小橋際公衆便所","province":"東京都","city":"中央区","address":"東京都中央区佃1丁目10","lat":35.667347,"lon":139.783498},{"name":"元豊玉橋際公衆便所","province":"東京都","city":"中央区","address":"東京都中央区銀座2丁目9","lat":35.672344,"lon":139.767924},{"name":"豊海橋際公衆便所","province":"東京都","city":"中央区","address":"東京都中央区日本橋箱崎町19","lat":35.677701,"lon":139.786931},{"name":"元備前橋際公衆便所","province":"東京都","city":"中央区","address":"東京都中央区築地7丁目5","lat":35.666309,"lon":139.773442},{"name":"あかつき公園内西側公衆便所","province":"東京都","city":"中央区","address":"東京都中央区築地7丁目19","lat":35.66679,"lon":139.775479},{"name":"子ども家庭支援センター「きらら中央」","province":"東京都","city":"中央区","address":"東京都中央区勝どき1丁目4-2","lat":35.660344,"lon":139.777205},{"name":"元新月橋際公衆便所","province":"東京都","city":"中央区","address":"東京都中央区月島1丁目2-9","lat":35.665218,"lon":139.783343},{"name":"中央区立総合スポーツセンター","province":"東京都","city":"中央区","address":"東京都中央区日本橋浜町2丁目59-1","lat":35.687888,"lon":139.789295},{"name":"中央区立総合スポーツセンター","province":"東京都","city":"中央区","address":"東京都中央区日本橋浜町2丁目59-1","lat":35.687838,"lon":139.789115},{"name":"中央区立総合スポーツセンター","province":"東京都","city":"中央区","address":"東京都中央区日本橋浜町2丁目59-1","lat":35.687886,"lon":139.789066},{"name":"中央区立総合スポーツセンター","province":"東京都","city":"中央区","address":"東京都中央区日本橋浜町2丁目59-1","lat":35.687795,"lon":139.789561},{"name":"中央区立総合スポーツセンター","province":"東京都","city":"中央区","address":"東京都中央区日本橋浜町2丁目59-1","lat":35.687714,"lon":139.789184},{"name":"中央区立総合スポーツセンター","province":"東京都","city":"中央区","address":"東京都中央区日本橋浜町2丁目59-1","lat":35.687776,"lon":139.789333},{"name":"中央区立月島スポーツプラザ","province":"東京都","city":"中央区","address":"東京都中央区月島1丁目9-2","lat":35.665115,"lon":139.783039},{"name":"築地児童館","province":"東京都","city":"中央区","address":"東京都中央区築地7丁目9-17","lat":35.666213,"lon":139.775873},{"name":"新川児童館","province":"東京都","city":"中央区","address":"東京都中央区新川2丁目13-4","lat":35.676103,"lon":139.781689},{"name":"堀留町児童館","province":"東京都","city":"中央区","address":"東京都中央区日本橋堀留町1丁目1-1","lat":35.687426,"lon":139.779001},{"name":"月島児童館","province":"東京都","city":"中央区","address":"東京都中央区月島4丁目1-1","lat":35.662124,"lon":139.782333},{"name":"浜町児童館","province":"東京都","city":"中央区","address":"東京都中央区日本橋浜町3丁目37-1","lat":35.685431,"lon":139.791265},{"name":"勝どき児童館","province":"東京都","city":"中央区","address":"東京都中央区勝どき1丁目8-1","lat":35.65953,"lon":139.776667},{"name":"晴海児童館","province":"東京都","city":"中央区","address":"東京都中央区晴海2丁目4-31","lat":35.655024,"lon":139.783879},{"name":"十思スクエア","province":"東京都","city":"中央区","address":"東京都中央区日本橋小伝馬町5-1","lat":35.690748,"lon":139.777312},{"name":"十思スクエア別館","province":"東京都","city":"中央区","address":"東京都中央区日本橋小伝馬町5-19","lat":35.690827,"lon":139.777451},{"name":"障害者就労促進施設「さわやかワーク中央」","province":"東京都","city":"中央区","address":"東京都中央区東日本橋2丁目27-12","lat":35.695438,"lon":139.785739},{"name":"中央区立シニアセンター","province":"東京都","city":"中央区","address":"東京都中央区佃1丁目11-1","lat":35.66898,"lon":139.784789},{"name":"人形町おとしより相談センター","province":"東京都","city":"中央区","address":"東京都中央区日本橋人形町2丁目32-5","lat":35.68625,"lon":139.78556},{"name":"勝どきおとしより相談センター","province":"東京都","city":"中央区","address":"東京都中央区勝どき5丁目1-17","lat":35.657878,"lon":139.772648},{"name":"リサイクルハウスかざぐるま明石町","province":"東京都","city":"中央区","address":"東京都中央区明石町14-1","lat":35.665853,"lon":139.778002},{"name":"中央区営銀座地下駐車場","province":"東京都","city":"中央区","address":"東京都中央区銀座7丁目16","lat":35.66631,"lon":139.76512},{"name":"中央区営浜町公園地下駐車場","province":"東京都","city":"中央区","address":"東京都中央区日本橋浜町2丁目59","lat":35.688917,"lon":139.787466},{"name":"築地魚河岸","province":"東京都","city":"中央区","address":"東京都中央区築地6丁目26","lat":35.665137,"lon":139.7715},{"name":"築地魚河岸","province":"東京都","city":"中央区","address":"東京都中央区築地4丁目16","lat":35.664331,"lon":139.770274},{"name":"築地場外市場地区まちづくり支援施設（店舗施設）","province":"東京都","city":"中央区","address":"東京都中央区築地4丁目16-2","lat":35.665167,"lon":139.769574},{"name":"中央区保健所","province":"東京都","city":"中央区","address":"東京都中央区明石町12-1","lat":35.66657812,"lon":139.77679376},{"name":"日本橋保健センター","province":"東京都","city":"中央区","address":"東京都中央区日本橋堀留町1丁目1-1","lat":35.68741207,"lon":139.77896299},{"name":"月島保健センター","province":"東京都","city":"中央区","address":"東京都中央区月島2丁目10-3","lat":35.66326202,"lon":139.78397937},{"name":"晴海保健センター","province":"東京都","city":"中央区","address":"東京都中央区晴海4丁目8-1","lat":35.65242978,"lon":139.77998283},{"name":"浜町児童館","province":"東京都","city":"中央区","address":"中央区日本橋浜町3-37-1","lat":35.68542,"lon":139.79137},{"name":"堀留町児童館","province":"東京都","city":"中央区","address":"中央区日本橋堀留町1-1-1","lat":35.68706,"lon":139.77928},{"name":"新川児童館","province":"東京都","city":"中央区","address":"中央区新川2-13-4","lat":35.67582,"lon":139.78195},{"name":"築地児童館","province":"東京都","city":"中央区","address":"中央区築地7-9-17","lat":35.66639,"lon":139.77567},{"name":"佃児童館","province":"東京都","city":"中央区","address":"中央区佃1-11-1","lat":35.66927,"lon":139.7834},{"name":"月島児童館","province":"東京都","city":"中央区","address":"中央区月島4-1-1","lat":35.66207,"lon":139.78218},{"name":"晴海児童館","province":"東京都","city":"中央区","address":"中央区晴海2-4-31","lat":35.65434,"lon":139.784},{"name":"勝どき児童館","province":"東京都","city":"中央区","address":"中央区勝どき1-8-1","lat":35.65958,"lon":139.77692},{"name":"中央区社会福祉協議会","province":"東京都","city":"中央区","address":"中央区八丁堀4-1-5","lat":35.67435,"lon":139.77295},{"name":"中央区","province":"東京都","city":"中央区","address":"中央区築地1-1-1","lat":35.6706,"lon":139.77202},{"name":"中央区保健所","province":"東京都","city":"中央区","address":"中央区明石町12-1","lat":35.66659,"lon":139.77684},{"name":"日本橋保健センター","province":"東京都","city":"中央区","address":"中央区日本橋堀留町1-1-1","lat":35.68706,"lon":139.77928},{"name":"月島保健センター","province":"東京都","city":"中央区","address":"中央区月島2-10-3","lat":35.66351,"lon":139.78418},{"name":"中央区立子ども家庭支援センター","province":"東京都","city":"中央区","address":"中央区勝どき1-4-13階","lat":35.66024,"lon":139.77724},{"name":"聖路加国際病院","province":"東京都","city":"中央区","address":"東京都中央区明石町9-1","lat":35.66741137,"lon":139.77705481},{"name":"東京都味噌工業協同組合","province":"東京都","city":"中央区","address":"東京都中央区日本橋浜町2丁目16-5","lat":35.68747342,"lon":139.78640757},{"name":"全国味噌工業協同組合連合会","province":"東京都","city":"中央区","address":"東京都中央区新川1丁目26-19","lat":35.67648277,"lon":139.78356776},{"name":"日本醤油協会","province":"東京都","city":"中央区","address":"東京都中央区日本橋小網町3-11","lat":35.68117393,"lon":139.7826819},{"name":"東京都味噌工業協同組合","province":"東京都","city":"中央区","address":"東京都中央区日本橋浜町2丁目16-5","lat":35.68747342,"lon":139.78640757},{"name":"全国味噌工業協同組合連合会","province":"東京都","city":"中央区","address":"東京都中央区新川1丁目26-19","lat":35.67648277,"lon":139.78356776},{"name":"一般財団法人青少年国際交流推進センター","province":"東京都","city":"中央区","address":"中央区日本橋人形町2-35-14東京海苔会館6階","lat":35.68178843,"lon":139.7897102},{"name":"＊?女性センター「ブーケ２１」","province":"東京都","city":"中央区","address":"中央区湊1-1-1","lat":35.673627,"lon":139.779352},{"name":"中央区","province":"東京都","city":"中央区","address":"中央区築地1-1-1","lat":35.670586,"lon":139.772002},{"name":"第一方面交通機動隊","province":"東京都","city":"中央区","address":"中央区晴海1-1-24","lat":35.66121,"lon":139.7874},{"name":"中央警察署","province":"東京都","city":"中央区","address":"中央区日本橋兜町14-2","lat":35.68044,"lon":139.7771},{"name":"月島警察署","province":"東京都","city":"中央区","address":"中央区勝どき6-7-19","lat":35.65475,"lon":139.7715},{"name":"築地警察署","province":"東京都","city":"中央区","address":"中央区築地1-6-1","lat":35.67025,"lon":139.7714},{"name":"久松警察署","province":"東京都","city":"中央区","address":"中央区日本橋久松町8-1","lat":35.68836,"lon":139.7847},{"name":"京橋消防署","province":"東京都","city":"中央区","address":"中央区京橋3-14-1","lat":35.67439,"lon":139.7723},{"name":"日本橋消防署","province":"東京都","city":"中央区","address":"中央区日本橋兜町14-12","lat":35.68013,"lon":139.7776},{"name":"臨港消防署","province":"東京都","city":"中央区","address":"中央区晴海5-1-27","lat":35.6519,"lon":139.7736},{"name":"中央清掃工場","province":"東京都","city":"中央区","address":"中央区晴海5-2-1","lat":35.65247,"lon":139.7759},{"name":"中央区立月島運動場","province":"東京都","city":"中央区","address":"中央区晴海1-3-29","lat":35.65917,"lon":139.7863},{"name":"新川","province":"東京都","city":"中央区","address":"中央区新川2丁目地先","lat":35.67488,"lon":139.7825},{"name":"明石町","province":"東京都","city":"中央区","address":"中央区明石町地先","lat":35.66779,"lon":139.7771},{"name":"箱崎町","province":"東京都","city":"中央区","address":"中央区日本橋箱崎町地先","lat":35.68021,"lon":139.7854},{"name":"浜町児童館","province":"東京都","city":"中央区","address":"中央区日本橋浜町3-37-1","lat":35.685518,"lon":139.791302},{"name":"堀留町児童館","province":"東京都","city":"中央区","address":"中央区日本橋堀留町1-1-1","lat":35.687412,"lon":139.778963},{"name":"新川児童館","province":"東京都","city":"中央区","address":"中央区新川2-13-4","lat":35.675969,"lon":139.781568},{"name":"築地児童館","province":"東京都","city":"中央区","address":"中央区築地7-9-17","lat":35.666223,"lon":139.775883},{"name":"佃児童館","province":"東京都","city":"中央区","address":"中央区佃1-11-1","lat":35.668925,"lon":139.784726},{"name":"月島児童館","province":"東京都","city":"中央区","address":"中央区月島4-1-1","lat":35.662059,"lon":139.782141},{"name":"晴海児童館","province":"東京都","city":"中央区","address":"中央区晴海2-4-31","lat":35.654907,"lon":139.783935},{"name":"勝どき児童館","province":"東京都","city":"中央区","address":"中央区勝どき1-8-1","lat":35.659665,"lon":139.776583},{"name":"中央区立子ども発達支援センター","province":"東京都","city":"中央区","address":"中央区明石町12-1","lat":35.666506,"lon":139.777035},{"name":"中央区立知的障害者生活支援施設レインボーハウス明石","province":"東京都","city":"中央区","address":"中央区明石町1-6","lat":35.669292,"lon":139.776716},{"name":"中央区立子ども家庭支援センター","province":"東京都","city":"中央区","address":"中央区勝どき1-4-13階","lat":35.660368,"lon":139.777208},{"name":"東京都八重洲駐車場","province":"東京都","city":"中央区","address":"東京都中央区日本橋3丁目","lat":35.6798321,"lon":139.77222703},{"name":"東京都日本橋駐車場","province":"東京都","city":"中央区","address":"東京都中央区日本橋1丁目","lat":35.68257362,"lon":139.77708232},{"name":"東京都宝町駐車場","province":"東京都","city":"中央区","address":"東京都中央区日本橋3丁目","lat":35.6798321,"lon":139.77222703},{"name":"東京都新京橋駐車場","province":"東京都","city":"中央区","address":"東京都中央区京橋3丁目","lat":35.67571581,"lon":139.76939125},{"name":"東京都東銀座駐車場","province":"東京都","city":"中央区","address":"東京都中央区銀座5丁目","lat":35.67068289,"lon":139.76467514},{"name":"浜離宮恩賜庭園","province":"東京都","city":"中央区","address":"東京都中央区浜離宮庭園1","lat":35.662301,"lon":139.763075},{"name":"浜離宮恩賜庭園","province":"東京都","city":"中央区","address":"東京都中央区浜離宮庭園1","lat":35.660184,"lon":139.767002},{"name":"浜離宮恩賜庭園","province":"東京都","city":"中央区","address":"東京都中央区浜離宮庭園1","lat":35.659247,"lon":139.763412},{"name":"浜離宮恩賜庭園","province":"東京都","city":"中央区","address":"東京都中央区浜離宮庭園1","lat":35.660405,"lon":139.76227},{"name":"東京都宝町駐車場","province":"東京都","city":"中央区","address":"東京都中央区京橋1丁目14","lat":35.677093,"lon":139.772881},{"name":"東京都八重洲駐車場","province":"東京都","city":"中央区","address":"東京都中央区京橋1丁目7","lat":35.678722,"lon":139.77243},{"name":"東京都八重洲駐車場","province":"東京都","city":"中央区","address":"東京都中央区日本橋3丁目5","lat":35.679061,"lon":139.772611},{"name":"晴海ふ頭公園","province":"東京都","city":"中央区","address":"東京都中央区晴海5丁目8","lat":35.647258,"lon":139.772422},{"name":"晴海ふ頭公園","province":"東京都","city":"中央区","address":"東京都中央区晴海5丁目8","lat":35.648511,"lon":139.770477},{"name":"都営浅草線宝町駅","province":"東京都","city":"中央区","address":"東京都中央区京橋3丁目13","lat":35.674928,"lon":139.771715},{"name":"都営浅草線東銀座駅","province":"東京都","city":"中央区","address":"東京都中央区銀座4丁目10","lat":35.669978,"lon":139.76675},{"name":"都営浅草線日本橋駅","province":"東京都","city":"中央区","address":"東京都中央区日本橋2丁目8","lat":35.68166,"lon":139.775588},{"name":"都営浅草線人形町駅","province":"東京都","city":"中央区","address":"東京都中央区日本橋人形町3丁目7","lat":35.686088,"lon":139.781705},{"name":"都営浅草線東日本橋駅","province":"東京都","city":"中央区","address":"東京都中央区東日本橋3丁目12","lat":35.692491,"lon":139.7848},{"name":"都営新宿線馬喰横山駅","province":"東京都","city":"中央区","address":"東京都中央区東日本橋3丁目9","lat":35.691567,"lon":139.783446},{"name":"都営新宿線浜町駅","province":"東京都","city":"中央区","address":"東京都中央区日本橋浜町2丁目59","lat":35.688452,"lon":139.788266},{"name":"都営大江戸線月島駅","province":"東京都","city":"中央区","address":"東京都中央区月島1丁目5","lat":35.663824,"lon":139.784082},{"name":"都営大江戸線勝どき駅","province":"東京都","city":"中央区","address":"東京都中央区勝どき1丁目7","lat":35.65948,"lon":139.777795},{"name":"都営大江戸線勝どき駅","province":"東京都","city":"中央区","address":"東京都中央区勝どき2丁目10","lat":35.658964,"lon":139.777214},{"name":"都営大江戸線築地市場駅","province":"東京都","city":"中央区","address":"東京都中央区築地5丁目3","lat":35.664875,"lon":139.766858},{"name":"日本橋消防署浜町出張所","province":"東京都","city":"中央区","address":"東京都中央区日本橋浜町3丁目45-12","lat":35.685306,"lon":139.791846},{"name":"臨港消防署","province":"東京都","city":"中央区","address":"東京都中央区晴海5丁目8-20","lat":35.649473,"lon":139.770767},{"name":"臨港消防署月島出張所","province":"東京都","city":"中央区","address":"東京都中央区勝どき4丁目6-3","lat":35.656943,"lon":139.776759},{"name":"中央区役所本庁舎","province":"東京都","city":"中央区","address":"東京都中央区築地1丁目1-1","lat":35.670677,"lon":139.772281},{"name":"中央区役所本庁舎","province":"東京都","city":"中央区","address":"東京都中央区築地1丁目1-1","lat":35.670713,"lon":139.772385},{"name":"中央区役所本庁舎","province":"東京都","city":"中央区","address":"東京都中央区築地1丁目1-1","lat":35.67066,"lon":139.772281},{"name":"中央区役所本庁舎","province":"東京都","city":"中央区","address":"東京都中央区築地1丁目1-1","lat":35.670668,"lon":139.772281},{"name":"日本橋特別出張所","province":"東京都","city":"中央区","address":"東京都中央区日本橋蛎殻町1丁目31-1","lat":35.682522,"lon":139.784288},{"name":"中央区立京橋区民館","province":"東京都","city":"中央区","address":"東京都中央区京橋2丁目6-7","lat":35.676591,"lon":139.771282},{"name":"月島特別出張所","province":"東京都","city":"中央区","address":"東京都中央区月島4丁目1-1","lat":35.662096,"lon":139.782234},{"name":"中央区立男女平等センター「ブーケ２１」","province":"東京都","city":"中央区","address":"東京都中央区湊1丁目1-1","lat":35.67351,"lon":139.778774},{"name":"中央区立京橋プラザ区民館","province":"東京都","city":"中央区","address":"東京都中央区銀座1丁目25-1","lat":35.673246,"lon":139.771653},{"name":"中央区立銀座区民館","province":"東京都","city":"中央区","address":"東京都中央区銀座4丁目13-17","lat":35.669492,"lon":139.768684},{"name":"中央区立新川区民館","province":"東京都","city":"中央区","address":"東京都中央区新川1丁目26-19","lat":35.676475,"lon":139.78358},{"name":"中央区立堀留町区民館","province":"東京都","city":"中央区","address":"東京都中央区日本橋堀留町1丁目1-1","lat":35.687441,"lon":139.778887},{"name":"中央区立人形町区民館","province":"東京都","city":"中央区","address":"東京都中央区日本橋人形町2丁目14-5","lat":35.684595,"lon":139.784823},{"name":"中央区立人形町区民館","province":"東京都","city":"中央区","address":"東京都中央区日本橋人形町2丁目14-5","lat":35.684528,"lon":139.784911},{"name":"中央区立久松町区民館","province":"東京都","city":"中央区","address":"東京都中央区日本橋久松町1","lat":35.688677,"lon":139.783952},{"name":"中央区立新場橋区民館","province":"東京都","city":"中央区","address":"東京都中央区日本橋兜町11-9","lat":35.679999,"lon":139.776322},{"name":"中央区立浜町区民館","province":"東京都","city":"中央区","address":"東京都中央区日本橋浜町3丁目37-1","lat":35.685526,"lon":139.791511},{"name":"中央区立佃区民館","province":"東京都","city":"中央区","address":"東京都中央区佃2丁目17-8","lat":35.664886,"lon":139.784978},{"name":"中央区立月島区民館","province":"東京都","city":"中央区","address":"東京都中央区月島2丁目8","lat":35.663258,"lon":139.784671},{"name":"中央区立勝どき区民館","province":"東京都","city":"中央区","address":"東京都中央区勝どき1丁目5","lat":35.660716,"lon":139.777777},{"name":"中央区立豊海区民館","province":"東京都","city":"中央区","address":"東京都中央区豊海町2-6","lat":35.654215,"lon":139.771932},{"name":"中央区立晴海区民館","province":"東京都","city":"中央区","address":"東京都中央区晴海1丁目8-6","lat":35.657183,"lon":139.783252},{"name":"中央区立セレモニーホール","province":"東京都","city":"中央区","address":"東京都中央区勝どき1丁目13-19","lat":35.66042,"lon":139.774675},{"name":"中央区立浜町集会施設","province":"東京都","city":"中央区","address":"東京都中央区日本橋浜町2丁目59-48","lat":35.687404,"lon":139.790345},{"name":"中央区立浜町集会施設","province":"東京都","city":"中央区","address":"東京都中央区日本橋浜町2丁目59-48","lat":35.687386,"lon":139.790354},{"name":"中央区立浜町集会施設","province":"東京都","city":"中央区","address":"東京都中央区日本橋浜町2丁目59-48","lat":35.68743,"lon":139.790324},{"name":"京華スクエア","province":"東京都","city":"中央区","address":"東京都中央区八丁堀3丁目17-9","lat":35.674975,"lon":139.775902},{"name":"京華スクエア","province":"東京都","city":"中央区","address":"東京都中央区八丁堀3丁目17-9","lat":35.674821,"lon":139.77582},{"name":"中央区保健所等複合施設","province":"東京都","city":"中央区","address":"東京都中央区明石町12","lat":35.666818,"lon":139.776279},{"name":"中央区立産業会館","province":"東京都","city":"中央区","address":"東京都中央区東日本橋2丁目22-4","lat":35.693993,"lon":139.787071},{"name":"中央区立日本橋保健センター","province":"東京都","city":"中央区","address":"東京都中央区日本橋堀留町1丁目1-1","lat":35.687497,"lon":139.778987},{"name":"中央区立月島保健センター","province":"東京都","city":"中央区","address":"東京都中央区月島2丁目10-3","lat":35.663187,"lon":139.783954},{"name":"中央区立京橋図書館","province":"東京都","city":"中央区","address":"東京都中央区新富1丁目13-14","lat":35.673687,"lon":139.775553},{"name":"中央区立日本橋図書館","province":"東京都","city":"中央区","address":"東京都中央区日本橋人形町1丁目1-17","lat":35.684901,"lon":139.781491},{"name":"中央区立月島図書館","province":"東京都","city":"中央区","address":"東京都中央区月島4丁目1-1","lat":35.662138,"lon":139.782263},{"name":"中央区立築地社会教育会館","province":"東京都","city":"中央区","address":"東京都中央区築地4丁目15-1","lat":35.666363,"lon":139.768254},{"name":"中央区立築地社会教育会館","province":"東京都","city":"中央区","address":"東京都中央区築地4丁目15-1","lat":35.666363,"lon":139.768311},{"name":"中央区立日本橋社会教育会館","province":"東京都","city":"中央区","address":"東京都中央区日本橋人形町1丁目1-17","lat":35.684831,"lon":139.781553},{"name":"中央区立日本橋社会教育会館","province":"東京都","city":"中央区","address":"東京都中央区日本橋人形町1丁目1-17","lat":35.684766,"lon":139.781576},{"name":"中央区立月島社会教育会館","province":"東京都","city":"中央区","address":"東京都中央区月島4丁目1-1","lat":35.662143,"lon":139.782298},{"name":"中央区立月島社会教育会館晴海分館アートはるみ","province":"東京都","city":"中央区","address":"東京都中央区晴海1丁目4-1","lat":35.658858,"lon":139.786067},{"name":"中央区立中央会館","province":"東京都","city":"中央区","address":"東京都中央区銀座2丁目15-6","lat":35.67125,"lon":139.771336},{"name":"日本橋公会堂","province":"東京都","city":"中央区","address":"東京都中央区日本橋蛎殻町1丁目31-1","lat":35.682308,"lon":139.784132},{"name":"水谷橋公園内公衆便所","province":"東京都","city":"中央区","address":"東京都中央区銀座1丁目12","lat":35.674325,"lon":139.769838},{"name":"数寄屋橋公園内公衆便所","province":"東京都","city":"中央区","address":"東京都中央区銀座5丁目1","lat":35.672389,"lon":139.762086},{"name":"桜川公園内公衆便所","province":"東京都","city":"中央区","address":"東京都中央区入船1丁目1","lat":35.673583,"lon":139.77699},{"name":"鉄砲洲児童公園内公衆便所","province":"東京都","city":"中央区","address":"東京都中央区湊1丁目5","lat":35.671839,"lon":139.77935},{"name":"元南明橋際公衆便所","province":"東京都","city":"中央区","address":"東京都中央区築地7丁目19","lat":35.66669,"lon":139.775916},{"name":"築地川公園内公衆便所","province":"東京都","city":"中央区","address":"東京都中央区明石町10","lat":35.667853,"lon":139.774547},{"name":"はとば公園内公衆便所","province":"東京都","city":"中央区","address":"東京都中央区築地6丁目19","lat":35.664137,"lon":139.774845},{"name":"越前堀児童公園内公衆便所","province":"東京都","city":"中央区","address":"東京都中央区新川1丁目12","lat":35.676428,"lon":139.782774},{"name":"新川公園内公衆便所","province":"東京都","city":"中央区","address":"東京都中央区新川1丁目31","lat":35.67555,"lon":139.786142},{"name":"高橋際公衆便所","province":"東京都","city":"中央区","address":"東京都中央区新川2丁目9","lat":35.674793,"lon":139.780336},{"name":"市場橋公園内公衆便所","province":"東京都","city":"中央区","address":"東京都中央区築地4丁目15","lat":35.665992,"lon":139.768735},{"name":"常盤公園内公衆便所","province":"東京都","city":"中央区","address":"東京都中央区日本橋本石町4丁目4","lat":35.687969,"lon":139.76988},{"name":"堀留児童公園内公衆便所","province":"東京都","city":"中央区","address":"東京都中央区日本橋堀留町1丁目1","lat":35.686436,"lon":139.779285},{"name":"十思公園内公衆便所","province":"東京都","city":"中央区","address":"東京都中央区日本橋小伝馬町5","lat":35.691114,"lon":139.77782},{"name":"小網町二丁目公衆便所","province":"東京都","city":"中央区","address":"東京都中央区日本橋小網町9","lat":35.68373,"lon":139.78003},{"name":"蛎殻町公園内公衆便所","province":"東京都","city":"中央区","address":"東京都中央区日本橋蛎殻町2丁目10","lat":35.682835,"lon":139.78728},{"name":"箱崎川第二公園内公衆便所","province":"東京都","city":"中央区","address":"東京都中央区日本橋箱崎町3","lat":35.680925,"lon":139.785016},{"name":"箱崎公園内公衆便所","province":"東京都","city":"中央区","address":"東京都中央区日本橋箱崎町18","lat":35.679738,"lon":139.78622},{"name":"千代田公園内公衆便所","province":"東京都","city":"中央区","address":"東京都中央区東日本橋1丁目10","lat":35.692511,"lon":139.787553},{"name":"久松児童公園内公衆便所","province":"東京都","city":"中央区","address":"東京都中央区日本橋久松町1","lat":35.688101,"lon":139.784554},{"name":"浜町公園内西側公衆便所","province":"東京都","city":"中央区","address":"東京都中央区日本橋浜町2丁目59","lat":35.688477,"lon":139.788468},{"name":"浜町公園内南側公衆便所","province":"東京都","city":"中央区","address":"東京都中央区日本橋浜町2丁目59","lat":35.687227,"lon":139.789245},{"name":"あやめ第一公園内公衆便所","province":"東京都","city":"中央区","address":"東京都中央区日本橋中洲14","lat":35.684252,"lon":139.79084},{"name":"茅場橋際公衆便所","province":"東京都","city":"中央区","address":"東京都中央区日本橋茅場町1丁目14","lat":35.68068,"lon":139.780894},{"name":"新亀島橋際公衆便所","province":"東京都","city":"中央区","address":"東京都中央区日本橋茅場町2丁目17","lat":35.677863,"lon":139.779909},{"name":"佃公園内公衆便所","province":"東京都","city":"中央区","address":"東京都中央区佃1丁目11","lat":35.668827,"lon":139.78263},{"name":"月島第一児童公園内公衆便所","province":"東京都","city":"中央区","address":"東京都中央区月島4丁目2","lat":35.661723,"lon":139.783125},{"name":"月島第二児童公園内公衆便所","province":"東京都","city":"中央区","address":"東京都中央区勝どき1丁目9","lat":35.659574,"lon":139.776035},{"name":"豊海児童公園内公衆便所","province":"東京都","city":"中央区","address":"東京都中央区勝どき6丁目6","lat":35.654164,"lon":139.773403},{"name":"新月島公園内公衆便所","province":"東京都","city":"中央区","address":"東京都中央区晴海1丁目3","lat":35.659116,"lon":139.786349},{"name":"黎明橋公園内公衆便所","province":"東京都","city":"中央区","address":"東京都中央区晴海3丁目1","lat":35.656708,"lon":139.77987},{"name":"相生橋際公衆便所","province":"東京都","city":"中央区","address":"東京都中央区佃2丁目2","lat":35.666608,"lon":139.78724},{"name":"石川島公園内公衆便所","province":"東京都","city":"中央区","address":"東京都中央区佃2丁目1","lat":35.671078,"lon":139.78549},{"name":"晴海第一公園内公衆便所","province":"東京都","city":"中央区","address":"東京都中央区晴海1丁目7","lat":35.658579,"lon":139.785052},{"name":"晴海臨海公園内公衆便所","province":"東京都","city":"中央区","address":"東京都中央区晴海2丁目4","lat":35.654218,"lon":139.783377},{"name":"月島三丁目児童遊園内公衆便所","province":"東京都","city":"中央区","address":"東京都中央区月島3丁目1","lat":35.664405,"lon":139.780427},{"name":"佃大橋東公衆便所","province":"東京都","city":"中央区","address":"東京都中央区佃1丁目7","lat":35.66651,"lon":139.782926},{"name":"佃三丁目公園内公衆便所","province":"東京都","city":"中央区","address":"東京都中央区佃3丁目12","lat":35.663531,"lon":139.787134},{"name":"豊海運動公園内公衆便所","province":"東京都","city":"中央区","address":"東京都中央区豊海町3","lat":35.653335,"lon":139.772262},{"name":"坂本町公園内公衆便所","province":"東京都","city":"中央区","address":"東京都中央区日本橋兜町15","lat":35.680017,"lon":139.777432},{"name":"新京橋際公衆便所","province":"東京都","city":"中央区","address":"東京都中央区京橋3丁目11","lat":35.674444,"lon":139.771577},{"name":"京橋際公衆便所","province":"東京都","city":"中央区","address":"東京都中央区銀座1丁目2","lat":35.674971,"lon":139.768659},{"name":"元木挽橋際公衆便所","province":"東京都","city":"中央区","address":"東京都中央区銀座6丁目13","lat":35.669262,"lon":139.765351},{"name":"出雲橋際公衆便所","province":"東京都","city":"中央区","address":"東京都中央区銀座7丁目12-9","lat":35.667909,"lon":139.763646},{"name":"元八通八橋際公衆便所","province":"東京都","city":"中央区","address":"東京都中央区銀座8丁目11","lat":35.667226,"lon":139.762119},{"name":"佃大橋西詰公衆便所","province":"東京都","city":"中央区","address":"東京都中央区明石町6","lat":35.668361,"lon":139.780131},{"name":"築地二丁目公衆便所","province":"東京都","city":"中央区","address":"東京都中央区築地2丁目13","lat":35.667714,"lon":139.771788},{"name":"中央市場脇公衆便所","province":"東京都","city":"中央区","address":"東京都中央区築地5丁目2","lat":35.660745,"lon":139.77063},{"name":"門跡橋東公衆便所","province":"東京都","city":"中央区","address":"東京都中央区築地6丁目1","lat":35.66535,"lon":139.772133},{"name":"霊岸橋際公衆便所","province":"東京都","city":"中央区","address":"東京都中央区新川1丁目3","lat":35.678888,"lon":139.781723},{"name":"東新川橋際公衆便所","province":"東京都","city":"中央区","address":"東京都中央区新川1丁目25-9","lat":35.676405,"lon":139.78471},{"name":"亀島橋際公衆便所","province":"東京都","city":"中央区","address":"東京都中央区新川2丁目9","lat":35.676187,"lon":139.779179},{"name":"江戸桜通り地下公衆便所","province":"東京都","city":"中央区","address":"東京都中央区日本橋室町1丁目5-5","lat":35.686224,"lon":139.774365},{"name":"日本橋際公衆便所","province":"東京都","city":"中央区","address":"東京都中央区日本橋室町1丁目8","lat":35.684413,"lon":139.774883},{"name":"江戸橋際公衆便所","province":"東京都","city":"中央区","address":"東京都中央区日本橋本町1丁目10","lat":35.684719,"lon":139.777275},{"name":"隅田川大橋際公衆便所","province":"東京都","city":"中央区","address":"東京都中央区日本橋箱崎町19-35","lat":35.679333,"lon":139.787828},{"name":"箱崎町公衆便所","province":"東京都","city":"中央区","address":"東京都中央区日本橋箱崎町22","lat":35.68098,"lon":139.78621},{"name":"菖蒲橋際公衆便所","province":"東京都","city":"中央区","address":"東京都中央区日本橋浜町3丁目17","lat":35.683646,"lon":139.789681},{"name":"西河岸橋際公衆便所","province":"東京都","city":"中央区","address":"東京都中央区八重洲1丁目1","lat":35.684048,"lon":139.772871},{"name":"海運橋際公衆便所","province":"東京都","city":"中央区","address":"東京都中央区日本橋1丁目21","lat":35.682224,"lon":139.777136},{"name":"浜町緑道内公衆便所","province":"東京都","city":"中央区","address":"東京都中央区日本橋人形町2丁目36","lat":35.686467,"lon":139.786088},{"name":"西仲橋際公衆便所","province":"東京都","city":"中央区","address":"東京都中央区月島3丁目31","lat":35.661286,"lon":139.77841},{"name":"勝どき見晴らし公園内公衆便所","province":"東京都","city":"中央区","address":"東京都中央区勝どき5丁目7","lat":35.657534,"lon":139.77029},{"name":"久安橋際公衆便所","province":"東京都","city":"中央区","address":"東京都中央区八丁堀2丁目1","lat":35.677715,"lon":139.774953},{"name":"亀井橋際公衆便所","province":"東京都","city":"中央区","address":"東京都中央区築地1丁目6","lat":35.670451,"lon":139.770775},{"name":"新場橋際公衆便所","province":"東京都","city":"中央区","address":"東京都中央区日本橋兜町18","lat":35.679242,"lon":139.775928},{"name":"佃小橋際公衆便所","province":"東京都","city":"中央区","address":"東京都中央区佃1丁目10","lat":35.667347,"lon":139.783498},{"name":"元豊玉橋際公衆便所","province":"東京都","city":"中央区","address":"東京都中央区銀座2丁目9","lat":35.672344,"lon":139.767924},{"name":"豊海橋際公衆便所","province":"東京都","city":"中央区","address":"東京都中央区日本橋箱崎町19","lat":35.677701,"lon":139.786931},{"name":"元備前橋際公衆便所","province":"東京都","city":"中央区","address":"東京都中央区築地7丁目5","lat":35.666309,"lon":139.773442},{"name":"あかつき公園内西側公衆便所","province":"東京都","city":"中央区","address":"東京都中央区築地7丁目19","lat":35.66679,"lon":139.775479},{"name":"子ども家庭支援センター「きらら中央」","province":"東京都","city":"中央区","address":"東京都中央区勝どき1丁目4-2","lat":35.660344,"lon":139.777205},{"name":"元新月橋際公衆便所","province":"東京都","city":"中央区","address":"東京都中央区月島1丁目2-9","lat":35.665218,"lon":139.783343},{"name":"中央区立総合スポーツセンター","province":"東京都","city":"中央区","address":"東京都中央区日本橋浜町2丁目59-1","lat":35.687888,"lon":139.789295},{"name":"中央区立総合スポーツセンター","province":"東京都","city":"中央区","address":"東京都中央区日本橋浜町2丁目59-1","lat":35.687838,"lon":139.789115},{"name":"中央区立総合スポーツセンター","province":"東京都","city":"中央区","address":"東京都中央区日本橋浜町2丁目59-1","lat":35.687886,"lon":139.789066},{"name":"中央区立総合スポーツセンター","province":"東京都","city":"中央区","address":"東京都中央区日本橋浜町2丁目59-1","lat":35.687795,"lon":139.789561},{"name":"中央区立総合スポーツセンター","province":"東京都","city":"中央区","address":"東京都中央区日本橋浜町2丁目59-1","lat":35.687714,"lon":139.789184},{"name":"中央区立総合スポーツセンター","province":"東京都","city":"中央区","address":"東京都中央区日本橋浜町2丁目59-1","lat":35.687776,"lon":139.789333},{"name":"中央区立月島スポーツプラザ","province":"東京都","city":"中央区","address":"東京都中央区月島1丁目9-2","lat":35.665115,"lon":139.783039},{"name":"築地児童館","province":"東京都","city":"中央区","address":"東京都中央区築地7丁目9-17","lat":35.666213,"lon":139.775873},{"name":"新川児童館","province":"東京都","city":"中央区","address":"東京都中央区新川2丁目13-4","lat":35.676103,"lon":139.781689},{"name":"堀留町児童館","province":"東京都","city":"中央区","address":"東京都中央区日本橋堀留町1丁目1-1","lat":35.687426,"lon":139.779001},{"name":"月島児童館","province":"東京都","city":"中央区","address":"東京都中央区月島4丁目1-1","lat":35.662124,"lon":139.782333},{"name":"浜町児童館","province":"東京都","city":"中央区","address":"東京都中央区日本橋浜町3丁目37-1","lat":35.685431,"lon":139.791265},{"name":"勝どき児童館","province":"東京都","city":"中央区","address":"東京都中央区勝どき1丁目8-1","lat":35.65953,"lon":139.776667},{"name":"晴海児童館","province":"東京都","city":"中央区","address":"東京都中央区晴海2丁目4-31","lat":35.655024,"lon":139.783879},{"name":"十思スクエア","province":"東京都","city":"中央区","address":"東京都中央区日本橋小伝馬町5-1","lat":35.690748,"lon":139.777312},{"name":"十思スクエア別館","province":"東京都","city":"中央区","address":"東京都中央区日本橋小伝馬町5-19","lat":35.690827,"lon":139.777451},{"name":"障害者就労促進施設「さわやかワーク中央」","province":"東京都","city":"中央区","address":"東京都中央区東日本橋2丁目27-12","lat":35.695438,"lon":139.785739},{"name":"中央区立シニアセンター","province":"東京都","city":"中央区","address":"東京都中央区佃1丁目11-1","lat":35.66898,"lon":139.784789},{"name":"人形町おとしより相談センター","province":"東京都","city":"中央区","address":"東京都中央区日本橋人形町2丁目32-5","lat":35.68625,"lon":139.78556},{"name":"勝どきおとしより相談センター","province":"東京都","city":"中央区","address":"東京都中央区勝どき5丁目1-17","lat":35.657878,"lon":139.772648},{"name":"リサイクルハウスかざぐるま明石町","province":"東京都","city":"中央区","address":"東京都中央区明石町14-1","lat":35.665853,"lon":139.778002},{"name":"中央区営銀座地下駐車場","province":"東京都","city":"中央区","address":"東京都中央区銀座7丁目16","lat":35.66631,"lon":139.76512},{"name":"中央区営浜町公園地下駐車場","province":"東京都","city":"中央区","address":"東京都中央区日本橋浜町2丁目59","lat":35.688917,"lon":139.787466},{"name":"築地魚河岸","province":"東京都","city":"中央区","address":"東京都中央区築地6丁目26","lat":35.665137,"lon":139.7715},{"name":"築地魚河岸","province":"東京都","city":"中央区","address":"東京都中央区築地4丁目16","lat":35.664331,"lon":139.770274},{"name":"築地場外市場地区まちづくり支援施設（店舗施設）","province":"東京都","city":"中央区","address":"東京都中央区築地4丁目16-2","lat":35.665167,"lon":139.769574},{"name":"中央区保健所","province":"東京都","city":"中央区","address":"東京都中央区明石町12-1","lat":35.66657812,"lon":139.77679376},{"name":"日本橋保健センター","province":"東京都","city":"中央区","address":"東京都中央区日本橋堀留町1丁目1-1","lat":35.68741207,"lon":139.77896299},{"name":"月島保健センター","province":"東京都","city":"中央区","address":"東京都中央区月島2丁目10-3","lat":35.66326202,"lon":139.78397937},{"name":"晴海保健センター","province":"東京都","city":"中央区","address":"東京都中央区晴海4丁目8-1","lat":35.65242978,"lon":139.77998283},{"name":"浜町児童館","province":"東京都","city":"中央区","address":"中央区日本橋浜町3-37-1","lat":35.68542,"lon":139.79137},{"name":"堀留町児童館","province":"東京都","city":"中央区","address":"中央区日本橋堀留町1-1-1","lat":35.68706,"lon":139.77928},{"name":"新川児童館","province":"東京都","city":"中央区","address":"中央区新川2-13-4","lat":35.67582,"lon":139.78195},{"name":"築地児童館","province":"東京都","city":"中央区","address":"中央区築地7-9-17","lat":35.66639,"lon":139.77567},{"name":"佃児童館","province":"東京都","city":"中央区","address":"中央区佃1-11-1","lat":35.66927,"lon":139.7834},{"name":"月島児童館","province":"東京都","city":"中央区","address":"中央区月島4-1-1","lat":35.66207,"lon":139.78218},{"name":"晴海児童館","province":"東京都","city":"中央区","address":"中央区晴海2-4-31","lat":35.65434,"lon":139.784},{"name":"勝どき児童館","province":"東京都","city":"中央区","address":"中央区勝どき1-8-1","lat":35.65958,"lon":139.77692},{"name":"中央区","province":"東京都","city":"中央区","address":"中央区築地1-1-1","lat":35.6706,"lon":139.77202},{"name":"中央区保健所","province":"東京都","city":"中央区","address":"中央区明石町12-1","lat":35.66659,"lon":139.77684},{"name":"日本橋保健センター","province":"東京都","city":"中央区","address":"中央区日本橋堀留町1-1-1","lat":35.68706,"lon":139.77928},{"name":"月島保健センター","province":"東京都","city":"中央区","address":"中央区月島2-10-3","lat":35.66351,"lon":139.78418},{"name":"中央区立子ども家庭支援センター","province":"東京都","city":"中央区","address":"中央区勝どき1-4-13階","lat":35.66024,"lon":139.77724},{"name":"一般財団法人青少年国際交流推進センター","province":"東京都","city":"中央区","address":"中央区日本橋人形町2-35-14東京海苔会館6階","lat":35.68178843,"lon":139.7897102},{"name":"＊?女性センター「ブーケ２１」","province":"東京都","city":"中央区","address":"中央区湊1-1-1","lat":35.673627,"lon":139.779352},{"name":"中央区","province":"東京都","city":"中央区","address":"中央区築地1-1-1","lat":35.670586,"lon":139.772002},{"name":"第一方面交通機動隊","province":"東京都","city":"中央区","address":"中央区晴海1-1-24","lat":35.66121,"lon":139.7874},{"name":"中央警察署","province":"東京都","city":"中央区","address":"中央区日本橋兜町14-2","lat":35.68044,"lon":139.7771},{"name":"月島警察署","province":"東京都","city":"中央区","address":"中央区勝どき6-7-19","lat":35.65475,"lon":139.7715},{"name":"築地警察署","province":"東京都","city":"中央区","address":"中央区築地1-6-1","lat":35.67025,"lon":139.7714},{"name":"久松警察署","province":"東京都","city":"中央区","address":"中央区日本橋久松町8-1","lat":35.68836,"lon":139.7847},{"name":"京橋消防署","province":"東京都","city":"中央区","address":"中央区京橋3-14-1","lat":35.67439,"lon":139.7723},{"name":"日本橋消防署","province":"東京都","city":"中央区","address":"中央区日本橋兜町14-12","lat":35.68013,"lon":139.7776},{"name":"臨港消防署","province":"東京都","city":"中央区","address":"中央区晴海5-1-27","lat":35.6519,"lon":139.7736},{"name":"中央清掃工場","province":"東京都","city":"中央区","address":"中央区晴海5-2-1","lat":35.65247,"lon":139.7759},{"name":"中央区立月島運動場","province":"東京都","city":"中央区","address":"中央区晴海1-3-29","lat":35.65917,"lon":139.7863},{"name":"新川","province":"東京都","city":"中央区","address":"中央区新川2丁目地先","lat":35.67488,"lon":139.7825},{"name":"明石町","province":"東京都","city":"中央区","address":"中央区明石町地先","lat":35.66779,"lon":139.7771},{"name":"箱崎町","province":"東京都","city":"中央区","address":"中央区日本橋箱崎町地先","lat":35.68021,"lon":139.7854},{"name":"浜町児童館","province":"東京都","city":"中央区","address":"中央区日本橋浜町3-37-1","lat":35.685518,"lon":139.791302},{"name":"堀留町児童館","province":"東京都","city":"中央区","address":"中央区日本橋堀留町1-1-1","lat":35.687412,"lon":139.778963},{"name":"新川児童館","province":"東京都","city":"中央区","address":"中央区新川2-13-4","lat":35.675969,"lon":139.781568},{"name":"築地児童館","province":"東京都","city":"中央区","address":"中央区築地7-9-17","lat":35.666223,"lon":139.775883},{"name":"佃児童館","province":"東京都","city":"中央区","address":"中央区佃1-11-1","lat":35.668925,"lon":139.784726},{"name":"月島児童館","province":"東京都","city":"中央区","address":"中央区月島4-1-1","lat":35.662059,"lon":139.782141},{"name":"晴海児童館","province":"東京都","city":"中央区","address":"中央区晴海2-4-31","lat":35.654907,"lon":139.783935},{"name":"勝どき児童館","province":"東京都","city":"中央区","address":"中央区勝どき1-8-1","lat":35.659665,"lon":139.776583},{"name":"中央区立子ども発達支援センター","province":"東京都","city":"中央区","address":"中央区明石町12-1","lat":35.666506,"lon":139.777035},{"name":"中央区立知的障害者生活支援施設レインボーハウス明石","province":"東京都","city":"中央区","address":"中央区明石町1-6","lat":35.669292,"lon":139.776716},{"name":"東京都八重洲駐車場","province":"東京都","city":"中央区","address":"東京都中央区日本橋3丁目","lat":35.6798321,"lon":139.77222703},{"name":"東京都日本橋駐車場","province":"東京都","city":"中央区","address":"東京都中央区日本橋1丁目","lat":35.68257362,"lon":139.77708232},{"name":"東京都宝町駐車場","province":"東京都","city":"中央区","address":"東京都中央区日本橋3丁目","lat":35.6798321,"lon":139.77222703},{"name":"東京都新京橋駐車場","province":"東京都","city":"中央区","address":"東京都中央区京橋3丁目","lat":35.67571581,"lon":139.76939125},{"name":"東京都東銀座駐車場","province":"東京都","city":"中央区","address":"東京都中央区銀座5丁目","lat":35.67068289,"lon":139.76467514},{"name":"浜町児童館","province":"東京都","city":"中央区","address":"中央区日本橋浜町3-37-1","lat":35.68542,"lon":139.79137},{"name":"堀留町児童館","province":"東京都","city":"中央区","address":"中央区日本橋堀留町1-1-1","lat":35.68706,"lon":139.77928},{"name":"新川児童館","province":"東京都","city":"中央区","address":"中央区新川2-13-4","lat":35.67582,"lon":139.78195},{"name":"築地児童館","province":"東京都","city":"中央区","address":"中央区築地7-9-17","lat":35.66639,"lon":139.77567},{"name":"佃児童館","province":"東京都","city":"中央区","address":"中央区佃1-11-1","lat":35.66927,"lon":139.7834},{"name":"月島児童館","province":"東京都","city":"中央区","address":"中央区月島4-1-1","lat":35.66207,"lon":139.78218},{"name":"晴海児童館","province":"東京都","city":"中央区","address":"中央区晴海2-4-31","lat":35.65434,"lon":139.784},{"name":"勝どき児童館","province":"東京都","city":"中央区","address":"中央区勝どき1-8-1","lat":35.65958,"lon":139.77692},{"name":"中央区","province":"東京都","city":"中央区","address":"中央区築地1-1-1","lat":35.6706,"lon":139.77202},{"name":"一般財団法人青少年国際交流推進センター","province":"東京都","city":"中央区","address":"中央区日本橋人形町2-35-14東京海苔会館6階","lat":35.68178843,"lon":139.7897102},{"name":"＊?女性センター「ブーケ２１」","province":"東京都","city":"中央区","address":"中央区湊1-1-1","lat":35.673627,"lon":139.779352},{"name":"中央区","province":"東京都","city":"中央区","address":"中央区築地1-1-1","lat":35.670586,"lon":139.772002},{"name":"中央区立子ども発達支援センター","province":"東京都","city":"中央区","address":"中央区明石町12-1","lat":35.666506,"lon":139.777035},{"name":"中央区立知的障害者生活支援施設レインボーハウス明石","province":"東京都","city":"中央区","address":"中央区明石町1-6","lat":35.669292,"lon":139.776716},{"name":"中央区","province":"東京都","city":"中央区","address":"中央区築地1-1-1","lat":35.6706,"lon":139.77202},{"name":"＊?女性センター「ブーケ２１」","province":"東京都","city":"中央区","address":"中央区湊1-1-1","lat":35.673627,"lon":139.779352},{"name":"中央区","province":"東京都","city":"中央区","address":"中央区築地1-1-1","lat":35.670586,"lon":139.772002},{"name":"中央区立子ども発達支援センター","province":"東京都","city":"中央区","address":"中央区明石町12-1","lat":35.666506,"lon":139.777035},{"name":"中央区立知的障害者生活支援施設レインボーハウス明石","province":"東京都","city":"中央区","address":"中央区明石町1-6","lat":35.669292,"lon":139.776716},{"name":"中央区","province":"東京都","city":"中央区","address":"中央区築地1-1-1","lat":35.6706,"lon":139.77202},{"name":"＊?女性センター「ブーケ２１」","province":"東京都","city":"中央区","address":"中央区湊1-1-1","lat":35.673627,"lon":139.779352},{"name":"中央区","province":"東京都","city":"中央区","address":"中央区築地1-1-1","lat":35.670586,"lon":139.772002},{"name":"中央区立子ども発達支援センター","province":"東京都","city":"中央区","address":"中央区明石町12-1","lat":35.666506,"lon":139.777035},{"name":"中央区立知的障害者生活支援施設レインボーハウス明石","province":"東京都","city":"中央区","address":"中央区明石町1-6","lat":35.669292,"lon":139.776716},{"name":"中央区","province":"東京都","city":"中央区","address":"中央区築地1-1-1","lat":35.6706,"lon":139.77202},{"name":"中央区","province":"東京都","city":"中央区","address":"中央区築地1-1-1","lat":35.670586,"lon":139.772002},{"name":"中央区立子ども発達支援センター","province":"東京都","city":"中央区","address":"中央区明石町12-1","lat":35.666506,"lon":139.777035},{"name":"中央区立知的障害者生活支援施設レインボーハウス明石","province":"東京都","city":"中央区","address":"中央区明石町1-6","lat":35.669292,"lon":139.776716},{"name":"中央区","province":"東京都","city":"中央区","address":"中央区築地1-1-1","lat":35.6706,"lon":139.77202},{"name":"中央区","province":"東京都","city":"中央区","address":"中央区築地1-1-1","lat":35.670586,"lon":139.772002},{"name":"中央区立知的障害者生活支援施設レインボーハウス明石","province":"東京都","city":"中央区","address":"中央区明石町1-6","lat":35.669292,"lon":139.776716},{"name":"中央区","province":"東京都","city":"中央区","address":"中央区築地1-1-1","lat":35.6706,"lon":139.77202},{"name":"中央区","province":"東京都","city":"中央区","address":"中央区築地1-1-1","lat":35.670586,"lon":139.772002},{"name":"中央区立知的障害者生活支援施設レインボーハウス明石","province":"東京都","city":"中央区","address":"中央区明石町1-6","lat":35.669292,"lon":139.776716},{"name":"中央区","province":"東京都","city":"中央区","address":"中央区築地1-1-1","lat":35.6706,"lon":139.77202},{"name":"中央区","province":"東京都","city":"中央区","address":"中央区築地1-1-1","lat":35.670586,"lon":139.772002},{"name":"中央区立知的障害者生活支援施設レインボーハウス明石","province":"東京都","city":"中央区","address":"中央区明石町1-6","lat":35.669292,"lon":139.776716},{"name":"中央区","province":"東京都","city":"中央区","address":"中央区築地1-1-1","lat":35.6706,"lon":139.77202},{"name":"中央区","province":"東京都","city":"中央区","address":"中央区築地1-1-1","lat":35.670586,"lon":139.772002},{"name":"中央区立知的障害者生活支援施設レインボーハウス明石","province":"東京都","city":"中央区","address":"中央区明石町1-6","lat":35.669292,"lon":139.776716},{"name":"中央区","province":"東京都","city":"中央区","address":"中央区築地1-1-1","lat":35.6706,"lon":139.77202},{"name":"中央区","province":"東京都","city":"中央区","address":"中央区築地1-1-1","lat":35.670586,"lon":139.772002},{"name":"中央区立知的障害者生活支援施設レインボーハウス明石","province":"東京都","city":"中央区","address":"中央区明石町1-6","lat":35.669292,"lon":139.776716},{"name":"中央区","province":"東京都","city":"中央区","address":"中央区築地1-1-1","lat":35.6706,"lon":139.77202},{"name":"中央区","province":"東京都","city":"中央区","address":"中央区築地1-1-1","lat":35.670586,"lon":139.772002},{"name":"中央区立知的障害者生活支援施設レインボーハウス明石","province":"東京都","city":"中央区","address":"中央区明石町1-6","lat":35.669292,"lon":139.776716},{"name":"中央区","province":"東京都","city":"中央区","address":"中央区築地1-1-1","lat":35.6706,"lon":139.77202},{"name":"中央区","province":"東京都","city":"中央区","address":"中央区築地1-1-1","lat":35.670586,"lon":139.772002},{"name":"中央区立知的障害者生活支援施設レインボーハウス明石","province":"東京都","city":"中央区","address":"中央区明石町1-6","lat":35.669292,"lon":139.776716},{"name":"中央区","province":"東京都","city":"中央区","address":"中央区築地1-1-1","lat":35.6706,"lon":139.77202},{"name":"中央区","province":"東京都","city":"中央区","address":"中央区築地1-1-1","lat":35.670586,"lon":139.772002},{"name":"中央区立知的障害者生活支援施設レインボーハウス明石","province":"東京都","city":"中央区","address":"中央区明石町1-6","lat":35.669292,"lon":139.776716},{"name":"中央区","province":"東京都","city":"中央区","address":"中央区築地1-1-1","lat":35.6706,"lon":139.77202},{"name":"中央区","province":"東京都","city":"中央区","address":"中央区築地1-1-1","lat":35.670586,"lon":139.772002},{"name":"中央区立知的障害者生活支援施設レインボーハウス明石","province":"東京都","city":"中央区","address":"中央区明石町1-6","lat":35.669292,"lon":139.776716},{"name":"中央区","province":"東京都","city":"中央区","address":"中央区築地1-1-1","lat":35.6706,"lon":139.77202},{"name":"中央区","province":"東京都","city":"中央区","address":"中央区築地1-1-1","lat":35.670586,"lon":139.772002},{"name":"中央区立知的障害者生活支援施設レインボーハウス明石","province":"東京都","city":"中央区","address":"中央区明石町1-6","lat":35.669292,"lon":139.776716},{"name":"中央区","province":"東京都","city":"中央区","address":"中央区築地1-1-1","lat":35.6706,"lon":139.77202},{"name":"中央区","province":"東京都","city":"中央区","address":"中央区築地1-1-1","lat":35.670586,"lon":139.772002},{"name":"中央区立知的障害者生活支援施設レインボーハウス明石","province":"東京都","city":"中央区","address":"中央区明石町1-6","lat":35.669292,"lon":139.776716},{"name":"中央区","province":"東京都","city":"中央区","address":"中央区築地1-1-1","lat":35.6706,"lon":139.77202},{"name":"中央区","province":"東京都","city":"中央区","address":"中央区築地1-1-1","lat":35.670586,"lon":139.772002},{"name":"中央区立知的障害者生活支援施設レインボーハウス明石","province":"東京都","city":"中央区","address":"中央区明石町1-6","lat":35.669292,"lon":139.776716},{"name":"中央区","province":"東京都","city":"中央区","address":"中央区築地1-1-1","lat":35.6706,"lon":139.77202},{"name":"中央区","province":"東京都","city":"中央区","address":"中央区築地1-1-1","lat":35.670586,"lon":139.772002},{"name":"中央区立知的障害者生活支援施設レインボーハウス明石","province":"東京都","city":"中央区","address":"中央区明石町1-6","lat":35.669292,"lon":139.776716},{"name":"中央区","province":"東京都","city":"中央区","address":"中央区築地1-1-1","lat":35.6706,"lon":139.77202},{"name":"中央区","province":"東京都","city":"中央区","address":"中央区築地1-1-1","lat":35.670586,"lon":139.772002},{"name":"中央区立知的障害者生活支援施設レインボーハウス明石","province":"東京都","city":"中央区","address":"中央区明石町1-6","lat":35.669292,"lon":139.776716},{"name":"中央区","province":"東京都","city":"中央区","address":"中央区築地1-1-1","lat":35.6706,"lon":139.77202},{"name":"中央区","province":"東京都","city":"中央区","address":"中央区築地1-1-1","lat":35.670586,"lon":139.772002},{"name":"中央区立知的障害者生活支援施設レインボーハウス明石","province":"東京都","city":"中央区","address":"中央区明石町1-6","lat":35.669292,"lon":139.776716},{"name":"中央区","province":"東京都","city":"中央区","address":"中央区築地1-1-1","lat":35.6706,"lon":139.77202},{"name":"中央区","province":"東京都","city":"中央区","address":"中央区築地1-1-1","lat":35.670586,"lon":139.772002},{"name":"中央区立知的障害者生活支援施設レインボーハウス明石","province":"東京都","city":"中央区","address":"中央区明石町1-6","lat":35.669292,"lon":139.776716},{"name":"中央区","province":"東京都","city":"中央区","address":"中央区築地1-1-1","lat":35.6706,"lon":139.77202},{"name":"中央区","province":"東京都","city":"中央区","address":"中央区築地1-1-1","lat":35.670586,"lon":139.772002},{"name":"中央区立知的障害者生活支援施設レインボーハウス明石","province":"東京都","city":"中央区","address":"中央区明石町1-6","lat":35.669292,"lon":139.776716},{"name":"中央区","province":"東京都","city":"中央区","address":"中央区築地1-1-1","lat":35.6706,"lon":139.77202},{"name":"中央区","province":"東京都","city":"中央区","address":"中央区築地1-1-1","lat":35.670586,"lon":139.772002},{"name":"中央区立知的障害者生活支援施設レインボーハウス明石","province":"東京都","city":"中央区","address":"中央区明石町1-6","lat":35.669292,"lon":139.776716},{"name":"中央区","province":"東京都","city":"中央区","address":"中央区築地1-1-1","lat":35.6706,"lon":139.77202},{"name":"中央区","province":"東京都","city":"中央区","address":"中央区築地1-1-1","lat":35.670586,"lon":139.772002},{"name":"中央区立知的障害者生活支援施設レインボーハウス明石","province":"東京都","city":"中央区","address":"中央区明石町1-6","lat":35.669292,"lon":139.776716},{"name":"中央区","province":"東京都","city":"中央区","address":"中央区築地1-1-1","lat":35.6706,"lon":139.77202},{"name":"中央区","province":"東京都","city":"中央区","address":"中央区築地1-1-1","lat":35.670586,"lon":139.772002},{"name":"中央区立知的障害者生活支援施設レインボーハウス明石","province":"東京都","city":"中央区","address":"中央区明石町1-6","lat":35.669292,"lon":139.776716},{"name":"中央区","province":"東京都","city":"中央区","address":"中央区築地1-1-1","lat":35.6706,"lon":139.77202},{"name":"中央区","province":"東京都","city":"中央区","address":"中央区築地1-1-1","lat":35.670586,"lon":139.772002},{"name":"中央区立知的障害者生活支援施設レインボーハウス明石","province":"東京都","city":"中央区","address":"中央区明石町1-6","lat":35.669292,"lon":139.776716},{"name":"中央区","province":"東京都","city":"中央区","address":"中央区築地1-1-1","lat":35.6706,"lon":139.77202},{"name":"中央区","province":"東京都","city":"中央区","address":"中央区築地1-1-1","lat":35.670586,"lon":139.772002},{"name":"中央区立知的障害者生活支援施設レインボーハウス明石","province":"東京都","city":"中央区","address":"中央区明石町1-6","lat":35.669292,"lon":139.776716},{"name":"中央区","province":"東京都","city":"中央区","address":"中央区築地1-1-1","lat":35.6706,"lon":139.77202},{"name":"中央区","province":"東京都","city":"中央区","address":"中央区築地1-1-1","lat":35.670586,"lon":139.772002},{"name":"中央区立知的障害者生活支援施設レインボーハウス明石","province":"東京都","city":"中央区","address":"中央区明石町1-6","lat":35.669292,"lon":139.776716},{"name":"中央区","province":"東京都","city":"中央区","address":"中央区築地1-1-1","lat":35.6706,"lon":139.77202},{"name":"中央区","province":"東京都","city":"中央区","address":"中央区築地1-1-1","lat":35.670586,"lon":139.772002},{"name":"中央区立知的障害者生活支援施設レインボーハウス明石","province":"東京都","city":"中央区","address":"中央区明石町1-6","lat":35.669292,"lon":139.776716},{"name":"中央区","province":"東京都","city":"中央区","address":"中央区築地1-1-1","lat":35.6706,"lon":139.77202},{"name":"中央区","province":"東京都","city":"中央区","address":"中央区築地1-1-1","lat":35.670586,"lon":139.772002},{"name":"中央区立知的障害者生活支援施設レインボーハウス明石","province":"東京都","city":"中央区","address":"中央区明石町1-6","lat":35.669292,"lon":139.776716},{"name":"中央区","province":"東京都","city":"中央区","address":"中央区築地1-1-1","lat":35.6706,"lon":139.77202},{"name":"中央区","province":"東京都","city":"中央区","address":"中央区築地1-1-1","lat":35.670586,"lon":139.772002},{"name":"中央区立知的障害者生活支援施設レインボーハウス明石","province":"東京都","city":"中央区","address":"中央区明石町1-6","lat":35.669292,"lon":139.776716},{"name":"中央区","province":"東京都","city":"中央区","address":"中央区築地1-1-1","lat":35.6706,"lon":139.77202},{"name":"中央区","province":"東京都","city":"中央区","address":"中央区築地1-1-1","lat":35.670586,"lon":139.772002},{"name":"中央区立知的障害者生活支援施設レインボーハウス明石","province":"東京都","city":"中央区","address":"中央区明石町1-6","lat":35.669292,"lon":139.776716},{"name":"中央区","province":"東京都","city":"中央区","address":"中央区築地1-1-1","lat":35.6706,"lon":139.77202},{"name":"中央区","province":"東京都","city":"中央区","address":"中央区築地1-1-1","lat":35.670586,"lon":139.772002},{"name":"中央区立知的障害者生活支援施設レインボーハウス明石","province":"東京都","city":"中央区","address":"中央区明石町1-6","lat":35.669292,"lon":139.776716},{"name":"中央区","province":"東京都","city":"中央区","address":"中央区築地1-1-1","lat":35.6706,"lon":139.77202},{"name":"中央区","province":"東京都","city":"中央区","address":"中央区築地1-1-1","lat":35.670586,"lon":139.772002},{"name":"中央区立知的障害者生活支援施設レインボーハウス明石","province":"東京都","city":"中央区","address":"中央区明石町1-6","lat":35.669292,"lon":139.776716},{"name":"中央区","province":"東京都","city":"中央区","address":"中央区築地1-1-1","lat":35.6706,"lon":139.77202},{"name":"中央区","province":"東京都","city":"中央区","address":"中央区築地1-1-1","lat":35.670586,"lon":139.772002},{"name":"中央区立知的障害者生活支援施設レインボーハウス明石","province":"東京都","city":"中央区","address":"中央区明石町1-6","lat":35.669292,"lon":139.776716},{"name":"中央区","province":"東京都","city":"中央区","address":"中央区築地1-1-1","lat":35.6706,"lon":139.77202},{"name":"中央区","province":"東京都","city":"中央区","address":"中央区築地1-1-1","lat":35.670586,"lon":139.772002},{"name":"中央区立知的障害者生活支援施設レインボーハウス明石","province":"東京都","city":"中央区","address":"中央区明石町1-6","lat":35.669292,"lon":139.776716},{"name":"中央区","province":"東京都","city":"中央区","address":"中央区築地1-1-1","lat":35.6706,"lon":139.77202},{"name":"中央区","province":"東京都","city":"中央区","address":"中央区築地1-1-1","lat":35.670586,"lon":139.772002},{"name":"中央区立知的障害者生活支援施設レインボーハウス明石","province":"東京都","city":"中央区","address":"中央区明石町1-6","lat":35.669292,"lon":139.776716},{"name":"中央区","province":"東京都","city":"中央区","address":"中央区築地1-1-1","lat":35.6706,"lon":139.77202},{"name":"中央区","province":"東京都","city":"中央区","address":"中央区築地1-1-1","lat":35.670586,"lon":139.772002},{"name":"中央区立知的障害者生活支援施設レインボーハウス明石","province":"東京都","city":"中央区","address":"中央区明石町1-6","lat":35.669292,"lon":139.776716},{"name":"中央区","province":"東京都","city":"中央区","address":"中央区築地1-1-1","lat":35.6706,"lon":139.77202},{"name":"中央区","province":"東京都","city":"中央区","address":"中央区築地1-1-1","lat":35.670586,"lon":139.772002},{"name":"中央区立知的障害者生活支援施設レインボーハウス明石","province":"東京都","city":"中央区","address":"中央区明石町1-6","lat":35.669292,"lon":139.776716},{"name":"中央区","province":"東京都","city":"中央区","address":"中央区築地1-1-1","lat":35.6706,"lon":139.77202},{"name":"中央区","province":"東京都","city":"中央区","address":"中央区築地1-1-1","lat":35.670586,"lon":139.772002},{"name":"中央区立知的障害者生活支援施設レインボーハウス明石","province":"東京都","city":"中央区","address":"中央区明石町1-6","lat":35.669292,"lon":139.776716},{"name":"中央区","province":"東京都","city":"中央区","address":"中央区築地1-1-1","lat":35.6706,"lon":139.77202},{"name":"中央区","province":"東京都","city":"中央区","address":"中央区築地1-1-1","lat":35.670586,"lon":139.772002},{"name":"中央区立知的障害者生活支援施設レインボーハウス明石","province":"東京都","city":"中央区","address":"中央区明石町1-6","lat":35.669292,"lon":139.776716},{"name":"中央区","province":"東京都","city":"中央区","address":"中央区築地1-1-1","lat":35.6706,"lon":139.77202},{"name":"中央区","province":"東京都","city":"中央区","address":"中央区築地1-1-1","lat":35.670586,"lon":139.772002},{"name":"中央区立知的障害者生活支援施設レインボーハウス明石","province":"東京都","city":"中央区","address":"中央区明石町1-6","lat":35.669292,"lon":139.776716},{"name":"中央区","province":"東京都","city":"中央区","address":"中央区築地1-1-1","lat":35.6706,"lon":139.77202},{"name":"中央区","province":"東京都","city":"中央区","address":"中央区築地1-1-1","lat":35.670586,"lon":139.772002},{"name":"中央区立知的障害者生活支援施設レインボーハウス明石","province":"東京都","city":"中央区","address":"中央区明石町1-6","lat":35.669292,"lon":139.776716},{"name":"中央区","province":"東京都","city":"中央区","address":"中央区築地1-1-1","lat":35.6706,"lon":139.77202},{"name":"中央区","province":"東京都","city":"中央区","address":"中央区築地1-1-1","lat":35.670586,"lon":139.772002},{"name":"中央区立知的障害者生活支援施設レインボーハウス明石","province":"東京都","city":"中央区","address":"中央区明石町1-6","lat":35.669292,"lon":139.776716},{"name":"中央区","province":"東京都","city":"中央区","address":"中央区築地1-1-1","lat":35.6706,"lon":139.77202},{"name":"中央区","province":"東京都","city":"中央区","address":"中央区築地1-1-1","lat":35.670586,"lon":139.772002},{"name":"中央区立知的障害者生活支援施設レインボーハウス明石","province":"東京都","city":"中央区","address":"中央区明石町1-6","lat":35.669292,"lon":139.776716},{"name":"中央区","province":"東京都","city":"中央区","address":"中央区築地1-1-1","lat":35.6706,"lon":139.77202},{"name":"中央区","province":"東京都","city":"中央区","address":"中央区築地1-1-1","lat":35.670586,"lon":139.772002},{"name":"中央区立知的障害者生活支援施設レインボーハウス明石","province":"東京都","city":"中央区","address":"中央区明石町1-6","lat":35.669292,"lon":139.776716},{"name":"中央区","province":"東京都","city":"中央区","address":"中央区築地1-1-1","lat":35.6706,"lon":139.77202},{"name":"中央区","province":"東京都","city":"中央区","address":"中央区築地1-1-1","lat":35.670586,"lon":139.772002},{"name":"中央区立知的障害者生活支援施設レインボーハウス明石","province":"東京都","city":"中央区","address":"中央区明石町1-6","lat":35.669292,"lon":139.776716},{"name":"中央区","province":"東京都","city":"中央区","address":"中央区築地1-1-1","lat":35.6706,"lon":139.77202},{"name":"中央区","province":"東京都","city":"中央区","address":"中央区築地1-1-1","lat":35.670586,"lon":139.772002},{"name":"中央区立知的障害者生活支援施設レインボーハウス明石","province":"東京都","city":"中央区","address":"中央区明石町1-6","lat":35.669292,"lon":139.776716},{"name":"中央区","province":"東京都","city":"中央区","address":"中央区築地1-1-1","lat":35.6706,"lon":139.77202},{"name":"中央区","province":"東京都","city":"中央区","address":"中央区築地1-1-1","lat":35.670586,"lon":139.772002},{"name":"中央区立知的障害者生活支援施設レインボーハウス明石","province":"東京都","city":"中央区","address":"中央区明石町1-6","lat":35.669292,"lon":139.776716},{"name":"中央区","province":"東京都","city":"中央区","address":"中央区築地1-1-1","lat":35.6706,"lon":139.77202},{"name":"中央区","province":"東京都","city":"中央区","address":"中央区築地1-1-1","lat":35.670586,"lon":139.772002},{"name":"中央区立知的障害者生活支援施設レインボーハウス明石","province":"東京都","city":"中央区","address":"中央区明石町1-6","lat":35.669292,"lon":139.776716},{"name":"中央区","province":"東京都","city":"中央区","address":"中央区築地1-1-1","lat":35.6706,"lon":139.77202},{"name":"中央区","province":"東京都","city":"中央区","address":"中央区築地1-1-1","lat":35.670586,"lon":139.772002},{"name":"中央区立知的障害者生活支援施設レインボーハウス明石","province":"東京都","city":"中央区","address":"中央区明石町1-6","lat":35.669292,"lon":139.776716},{"name":"中央区","province":"東京都","city":"中央区","address":"中央区築地1-1-1","lat":35.6706,"lon":139.77202},{"name":"中央区","province":"東京都","city":"中央区","address":"中央区築地1-1-1","lat":35.670586,"lon":139.772002},{"name":"中央区立知的障害者生活支援施設レインボーハウス明石","province":"東京都","city":"中央区","address":"中央区明石町1-6","lat":35.669292,"lon":139.776716},{"name":"中央区","province":"東京都","city":"中央区","address":"中央区築地1-1-1","lat":35.6706,"lon":139.77202},{"name":"中央区","province":"東京都","city":"中央区","address":"中央区築地1-1-1","lat":35.670586,"lon":139.772002},{"name":"中央区立知的障害者生活支援施設レインボーハウス明石","province":"東京都","city":"中央区","address":"中央区明石町1-6","lat":35.669292,"lon":139.776716},{"name":"中央区","province":"東京都","city":"中央区","address":"中央区築地1-1-1","lat":35.6706,"lon":139.77202},{"name":"中央区","province":"東京都","city":"中央区","address":"中央区築地1-1-1","lat":35.670586,"lon":139.772002}]}