{"keyword":"戸数","data":[{"name":"中央区社会福祉協議会","province":"東京都","city":"中央区","address":"中央区八丁堀4-1-51~3階","lat":35.674147,"lon":139.773013},{"name":"中央区","province":"東京都","city":"中央区","address":"中央区築地1-1-1","lat":35.6706506,"lon":139.7718614},{"name":"日本橋式典","province":"東京都","city":"中央区","address":"東京都中央区東日本橋一丁目4番3号","lat":35.690796,"lon":139.786057},{"name":"株式会社三特興業社","province":"東京都","city":"中央区","address":"東京都中央区日本橋茅場町二丁目17番3号","lat":35.678013,"lon":139.779968},{"name":"株式会社グローバルケア","province":"東京都","city":"中央区","address":"東京都中央区佃三丁目3番3号","lat":35.66507,"lon":139.786682},{"name":"有限会社三谷葬儀社","province":"東京都","city":"中央区","address":"東京都中央区月島三丁目7番7号","lat":35.66256,"lon":139.780869},{"name":"中央区社会福祉協議会","province":"東京都","city":"中央区","address":"中央区八丁堀4-1-5","lat":35.67435,"lon":139.77295},{"name":"中央区地域包括支援センター","province":"東京都","city":"中央区","address":"中央区築地1-1-1区役所4階","lat":35.670841,"lon":139.771927},{"name":"京橋おとしより相談センター","province":"東京都","city":"中央区","address":"中央区明石町1-6リハポート明石等複合施設1階","lat":35.669617,"lon":139.776657},{"name":"日本橋おとしより相談センター","province":"東京都","city":"中央区","address":"中央区日本橋小伝馬町5-1十思スクエア1階","lat":35.691414,"lon":139.777466},{"name":"人形町おとしより相談センター（日本橋おとしより相談センターの分室）","province":"東京都","city":"中央区","address":"中央区日本橋人形町2-32-4日本橋医師会人形町ビル1階","lat":35.682903,"lon":139.775345},{"name":"月島おとしより相談センター","province":"東京都","city":"中央区","address":"中央区月島4-1-1月島区民センター1階","lat":43.062607,"lon":141.655518},{"name":"勝どきおとしより相談センター（月島おとしより相談センター分室）","province":"東京都","city":"中央区","address":"中央区勝どき5-1-17勝どきザ・リバーフロント1階","lat":35.661423,"lon":139.776581},{"name":"聖路加国際病院","province":"東京都","city":"中央区","address":"東京都中央区明石町9-1","lat":35.66741137,"lon":139.77705481},{"name":"東京都味噌工業協同組合","province":"東京都","city":"中央区","address":"東京都中央区日本橋浜町2丁目16-5","lat":35.68747342,"lon":139.78640757},{"name":"全国味噌工業協同組合連合会","province":"東京都","city":"中央区","address":"東京都中央区新川1丁目26-19","lat":35.67648277,"lon":139.78356776},{"name":"日本醤油協会","province":"東京都","city":"中央区","address":"東京都中央区日本橋小網町3-11","lat":35.68117393,"lon":139.7826819},{"name":"晴海給水所","province":"東京都","city":"中央区","address":"東京都中央区晴海1丁目6-3","lat":35.65852366,"lon":139.78411284},{"name":"区立あかつき公園","province":"東京都","city":"中央区","address":"東京都中央区築地7丁目19-1","lat":35.66666142,"lon":139.7758105},{"name":"区立堀留児童公園","province":"東京都","city":"中央区","address":"東京都中央区日本橋堀留町1丁目1-16","lat":35.68635386,"lon":139.77931298},{"name":"佃水門","province":"東京都","city":"中央区","address":"東京都中央区晴海1丁目1-26","lat":35.66197894,"lon":139.7876958},{"name":"朝潮水門（水防倉庫）","province":"東京都","city":"中央区","address":"東京都中央区勝どき6丁目3","lat":35.65549314,"lon":139.77306391},{"name":"築地川水門","province":"東京都","city":"中央区","address":"東京都中央区浜離宮庭園1-1","lat":35.66256987,"lon":139.76322283},{"name":"浜離宮排水機場","province":"東京都","city":"中央区","address":"東京都中央区浜離宮庭園1-1","lat":35.66256987,"lon":139.76322283},{"name":"汐留川水門","province":"東京都","city":"中央区","address":"東京都中央区浜離宮庭園1-1","lat":35.66256987,"lon":139.76322283},{"name":"東京都味噌工業協同組合","province":"東京都","city":"中央区","address":"東京都中央区日本橋浜町2丁目16-5","lat":35.68747342,"lon":139.78640757},{"name":"全国味噌工業協同組合連合会","province":"東京都","city":"中央区","address":"東京都中央区新川1丁目26-19","lat":35.67648277,"lon":139.78356776},{"name":"中央区立月島運動場","province":"東京都","city":"中央区","address":"東京都中央区晴海1丁目3-29","lat":35.65907089,"lon":139.78637652},{"name":"中央区立豊海運動公園","province":"東京都","city":"中央区","address":"東京都中央区豊海町3-19","lat":35.65321559,"lon":139.77225293},{"name":"中央区選挙管理委員会","province":"東京都","city":"中央区","address":"中央区築地1-1-1","lat":35.67063,"lon":139.772},{"name":"東京舞台芸術活動支援センター","province":"東京都","city":"中央区","address":"東京都中央区日本橋箱崎町18-14","lat":35.68017135,"lon":139.78563735},{"name":"築地市場","province":"東京都","city":"中央区","address":"東京都中央区築地5丁目2-1","lat":35.66515585,"lon":139.76925834},{"name":"晴海総合高等学校","province":"東京都","city":"中央区","address":"東京都中央区晴海1丁目2-1","lat":35.65991522,"lon":139.78568212},{"name":"第一建設事務所","province":"東京都","city":"中央区","address":"中央区明石町2-4","lat":35.66915,"lon":139.7777},{"name":"西東京管理局新富分室","province":"東京都","city":"中央区","address":"中央区新富1-1-3","lat":35.67387,"lon":139.7729},{"name":"東東京管理局","province":"東京都","city":"中央区","address":"中央区日本橋箱崎町43-5","lat":35.68227,"lon":139.7891},{"name":"中央区社会福祉協議会","province":"東京都","city":"中央区","address":"中央区八丁堀4-1-51~3階","lat":35.674147,"lon":139.773013},{"name":"中央区社会福祉協議会","province":"東京都","city":"中央区","address":"中央区八丁堀4-1-5","lat":35.67435,"lon":139.77295},{"name":"中央区地域包括支援センター","province":"東京都","city":"中央区","address":"中央区築地1-1-1区役所4階","lat":35.670841,"lon":139.771927},{"name":"京橋おとしより相談センター","province":"東京都","city":"中央区","address":"中央区明石町1-6リハポート明石等複合施設1階","lat":35.669617,"lon":139.776657},{"name":"日本橋おとしより相談センター","province":"東京都","city":"中央区","address":"中央区日本橋小伝馬町5-1十思スクエア1階","lat":35.691414,"lon":139.777466},{"name":"人形町おとしより相談センター（日本橋おとしより相談センターの分室）","province":"東京都","city":"中央区","address":"中央区日本橋人形町2-32-4日本橋医師会人形町ビル1階","lat":35.682903,"lon":139.775345},{"name":"月島おとしより相談センター","province":"東京都","city":"中央区","address":"中央区月島4-1-1月島区民センター1階","lat":43.062607,"lon":141.655518},{"name":"勝どきおとしより相談センター（月島おとしより相談センター分室）","province":"東京都","city":"中央区","address":"中央区勝どき5-1-17勝どきザ・リバーフロント1階","lat":35.661423,"lon":139.776581},{"name":"聖路加国際病院","province":"東京都","city":"中央区","address":"東京都中央区明石町9-1","lat":35.66741137,"lon":139.77705481},{"name":"東京都味噌工業協同組合","province":"東京都","city":"中央区","address":"東京都中央区日本橋浜町2丁目16-5","lat":35.68747342,"lon":139.78640757},{"name":"全国味噌工業協同組合連合会","province":"東京都","city":"中央区","address":"東京都中央区新川1丁目26-19","lat":35.67648277,"lon":139.78356776},{"name":"日本醤油協会","province":"東京都","city":"中央区","address":"東京都中央区日本橋小網町3-11","lat":35.68117393,"lon":139.7826819},{"name":"晴海給水所","province":"東京都","city":"中央区","address":"東京都中央区晴海1丁目6-3","lat":35.65852366,"lon":139.78411284},{"name":"区立あかつき公園","province":"東京都","city":"中央区","address":"東京都中央区築地7丁目19-1","lat":35.66666142,"lon":139.7758105},{"name":"区立堀留児童公園","province":"東京都","city":"中央区","address":"東京都中央区日本橋堀留町1丁目1-16","lat":35.68635386,"lon":139.77931298},{"name":"佃水門","province":"東京都","city":"中央区","address":"東京都中央区晴海1丁目1-26","lat":35.66197894,"lon":139.7876958},{"name":"朝潮水門（水防倉庫）","province":"東京都","city":"中央区","address":"東京都中央区勝どき6丁目3","lat":35.65549314,"lon":139.77306391},{"name":"築地川水門","province":"東京都","city":"中央区","address":"東京都中央区浜離宮庭園1-1","lat":35.66256987,"lon":139.76322283},{"name":"浜離宮排水機場","province":"東京都","city":"中央区","address":"東京都中央区浜離宮庭園1-1","lat":35.66256987,"lon":139.76322283},{"name":"汐留川水門","province":"東京都","city":"中央区","address":"東京都中央区浜離宮庭園1-1","lat":35.66256987,"lon":139.76322283},{"name":"東京都味噌工業協同組合","province":"東京都","city":"中央区","address":"東京都中央区日本橋浜町2丁目16-5","lat":35.68747342,"lon":139.78640757},{"name":"全国味噌工業協同組合連合会","province":"東京都","city":"中央区","address":"東京都中央区新川1丁目26-19","lat":35.67648277,"lon":139.78356776},{"name":"中央区立月島運動場","province":"東京都","city":"中央区","address":"東京都中央区晴海1丁目3-29","lat":35.65907089,"lon":139.78637652},{"name":"中央区立豊海運動公園","province":"東京都","city":"中央区","address":"東京都中央区豊海町3-19","lat":35.65321559,"lon":139.77225293},{"name":"東京舞台芸術活動支援センター","province":"東京都","city":"中央区","address":"東京都中央区日本橋箱崎町18-14","lat":35.68017135,"lon":139.78563735},{"name":"築地市場","province":"東京都","city":"中央区","address":"東京都中央区築地5丁目2-1","lat":35.66515585,"lon":139.76925834},{"name":"晴海総合高等学校","province":"東京都","city":"中央区","address":"東京都中央区晴海1丁目2-1","lat":35.65991522,"lon":139.78568212},{"name":"第一建設事務所","province":"東京都","city":"中央区","address":"中央区明石町2-4","lat":35.66915,"lon":139.7777},{"name":"西東京管理局新富分室","province":"東京都","city":"中央区","address":"中央区新富1-1-3","lat":35.67387,"lon":139.7729},{"name":"東東京管理局","province":"東京都","city":"中央区","address":"中央区日本橋箱崎町43-5","lat":35.68227,"lon":139.7891},{"name":"中央区地域包括支援センター","province":"東京都","city":"中央区","address":"中央区築地1-1-1区役所4階","lat":35.670841,"lon":139.771927},{"name":"京橋おとしより相談センター","province":"東京都","city":"中央区","address":"中央区明石町1-6リハポート明石等複合施設1階","lat":35.669617,"lon":139.776657},{"name":"日本橋おとしより相談センター","province":"東京都","city":"中央区","address":"中央区日本橋小伝馬町5-1十思スクエア1階","lat":35.691414,"lon":139.777466},{"name":"人形町おとしより相談センター（日本橋おとしより相談センターの分室）","province":"東京都","city":"中央区","address":"中央区日本橋人形町2-32-4日本橋医師会人形町ビル1階","lat":35.682903,"lon":139.775345},{"name":"月島おとしより相談センター","province":"東京都","city":"中央区","address":"中央区月島4-1-1月島区民センター1階","lat":43.062607,"lon":141.655518},{"name":"勝どきおとしより相談センター（月島おとしより相談センター分室）","province":"東京都","city":"中央区","address":"中央区勝どき5-1-17勝どきザ・リバーフロント1階","lat":35.661423,"lon":139.776581},{"name":"聖路加国際病院","province":"東京都","city":"中央区","address":"東京都中央区明石町9-1","lat":35.66741137,"lon":139.77705481},{"name":"東京都味噌工業協同組合","province":"東京都","city":"中央区","address":"東京都中央区日本橋浜町2丁目16-5","lat":35.68747342,"lon":139.78640757},{"name":"全国味噌工業協同組合連合会","province":"東京都","city":"中央区","address":"東京都中央区新川1丁目26-19","lat":35.67648277,"lon":139.78356776},{"name":"日本醤油協会","province":"東京都","city":"中央区","address":"東京都中央区日本橋小網町3-11","lat":35.68117393,"lon":139.7826819},{"name":"佃水門","province":"東京都","city":"中央区","address":"東京都中央区晴海1丁目1-26","lat":35.66197894,"lon":139.7876958},{"name":"朝潮水門（水防倉庫）","province":"東京都","city":"中央区","address":"東京都中央区勝どき6丁目3","lat":35.65549314,"lon":139.77306391},{"name":"築地川水門","province":"東京都","city":"中央区","address":"東京都中央区浜離宮庭園1-1","lat":35.66256987,"lon":139.76322283},{"name":"浜離宮排水機場","province":"東京都","city":"中央区","address":"東京都中央区浜離宮庭園1-1","lat":35.66256987,"lon":139.76322283},{"name":"汐留川水門","province":"東京都","city":"中央区","address":"東京都中央区浜離宮庭園1-1","lat":35.66256987,"lon":139.76322283},{"name":"東京都味噌工業協同組合","province":"東京都","city":"中央区","address":"東京都中央区日本橋浜町2丁目16-5","lat":35.68747342,"lon":139.78640757},{"name":"全国味噌工業協同組合連合会","province":"東京都","city":"中央区","address":"東京都中央区新川1丁目26-19","lat":35.67648277,"lon":139.78356776},{"name":"東京舞台芸術活動支援センター","province":"東京都","city":"中央区","address":"東京都中央区日本橋箱崎町18-14","lat":35.68017135,"lon":139.78563735},{"name":"築地市場","province":"東京都","city":"中央区","address":"東京都中央区築地5丁目2-1","lat":35.66515585,"lon":139.76925834},{"name":"晴海総合高等学校","province":"東京都","city":"中央区","address":"東京都中央区晴海1丁目2-1","lat":35.65991522,"lon":139.78568212},{"name":"中央区地域包括支援センター","province":"東京都","city":"中央区","address":"中央区築地1-1-1区役所4階","lat":35.670841,"lon":139.771927},{"name":"京橋おとしより相談センター","province":"東京都","city":"中央区","address":"中央区明石町1-6リハポート明石等複合施設1階","lat":35.669617,"lon":139.776657},{"name":"日本橋おとしより相談センター","province":"東京都","city":"中央区","address":"中央区日本橋小伝馬町5-1十思スクエア1階","lat":35.691414,"lon":139.777466},{"name":"人形町おとしより相談センター（日本橋おとしより相談センターの分室）","province":"東京都","city":"中央区","address":"中央区日本橋人形町2-32-4日本橋医師会人形町ビル1階","lat":35.682903,"lon":139.775345},{"name":"月島おとしより相談センター","province":"東京都","city":"中央区","address":"中央区月島4-1-1月島区民センター1階","lat":43.062607,"lon":141.655518},{"name":"勝どきおとしより相談センター（月島おとしより相談センター分室）","province":"東京都","city":"中央区","address":"中央区勝どき5-1-17勝どきザ・リバーフロント1階","lat":35.661423,"lon":139.776581},{"name":"聖路加国際病院","province":"東京都","city":"中央区","address":"東京都中央区明石町9-1","lat":35.66741137,"lon":139.77705481},{"name":"東京都味噌工業協同組合","province":"東京都","city":"中央区","address":"東京都中央区日本橋浜町2丁目16-5","lat":35.68747342,"lon":139.78640757},{"name":"全国味噌工業協同組合連合会","province":"東京都","city":"中央区","address":"東京都中央区新川1丁目26-19","lat":35.67648277,"lon":139.78356776},{"name":"日本醤油協会","province":"東京都","city":"中央区","address":"東京都中央区日本橋小網町3-11","lat":35.68117393,"lon":139.7826819},{"name":"佃水門","province":"東京都","city":"中央区","address":"東京都中央区晴海1丁目1-26","lat":35.66197894,"lon":139.7876958},{"name":"朝潮水門（水防倉庫）","province":"東京都","city":"中央区","address":"東京都中央区勝どき6丁目3","lat":35.65549314,"lon":139.77306391},{"name":"築地川水門","province":"東京都","city":"中央区","address":"東京都中央区浜離宮庭園1-1","lat":35.66256987,"lon":139.76322283},{"name":"浜離宮排水機場","province":"東京都","city":"中央区","address":"東京都中央区浜離宮庭園1-1","lat":35.66256987,"lon":139.76322283},{"name":"汐留川水門","province":"東京都","city":"中央区","address":"東京都中央区浜離宮庭園1-1","lat":35.66256987,"lon":139.76322283},{"name":"東京都味噌工業協同組合","province":"東京都","city":"中央区","address":"東京都中央区日本橋浜町2丁目16-5","lat":35.68747342,"lon":139.78640757},{"name":"全国味噌工業協同組合連合会","province":"東京都","city":"中央区","address":"東京都中央区新川1丁目26-19","lat":35.67648277,"lon":139.78356776},{"name":"東京舞台芸術活動支援センター","province":"東京都","city":"中央区","address":"東京都中央区日本橋箱崎町18-14","lat":35.68017135,"lon":139.78563735},{"name":"築地市場","province":"東京都","city":"中央区","address":"東京都中央区築地5丁目2-1","lat":35.66515585,"lon":139.76925834},{"name":"晴海総合高等学校","province":"東京都","city":"中央区","address":"東京都中央区晴海1丁目2-1","lat":35.65991522,"lon":139.78568212},{"name":"中央区地域包括支援センター","province":"東京都","city":"中央区","address":"中央区築地1-1-1区役所4階","lat":35.670841,"lon":139.771927},{"name":"京橋おとしより相談センター","province":"東京都","city":"中央区","address":"中央区明石町1-6リハポート明石等複合施設1階","lat":35.669617,"lon":139.776657},{"name":"日本橋おとしより相談センター","province":"東京都","city":"中央区","address":"中央区日本橋小伝馬町5-1十思スクエア1階","lat":35.691414,"lon":139.777466},{"name":"人形町おとしより相談センター（日本橋おとしより相談センターの分室）","province":"東京都","city":"中央区","address":"中央区日本橋人形町2-32-4日本橋医師会人形町ビル1階","lat":35.682903,"lon":139.775345},{"name":"月島おとしより相談センター","province":"東京都","city":"中央区","address":"中央区月島4-1-1月島区民センター1階","lat":43.062607,"lon":141.655518},{"name":"勝どきおとしより相談センター（月島おとしより相談センター分室）","province":"東京都","city":"中央区","address":"中央区勝どき5-1-17勝どきザ・リバーフロント1階","lat":35.661423,"lon":139.776581},{"name":"中央区地域包括支援センター","province":"東京都","city":"中央区","address":"中央区築地1-1-1区役所4階","lat":35.670841,"lon":139.771927},{"name":"京橋おとしより相談センター","province":"東京都","city":"中央区","address":"中央区明石町1-6リハポート明石等複合施設1階","lat":35.669617,"lon":139.776657},{"name":"日本橋おとしより相談センター","province":"東京都","city":"中央区","address":"中央区日本橋小伝馬町5-1十思スクエア1階","lat":35.691414,"lon":139.777466},{"name":"人形町おとしより相談センター（日本橋おとしより相談センターの分室）","province":"東京都","city":"中央区","address":"中央区日本橋人形町2-32-4日本橋医師会人形町ビル1階","lat":35.682903,"lon":139.775345},{"name":"月島おとしより相談センター","province":"東京都","city":"中央区","address":"中央区月島4-1-1月島区民センター1階","lat":43.062607,"lon":141.655518},{"name":"勝どきおとしより相談センター（月島おとしより相談センター分室）","province":"東京都","city":"中央区","address":"中央区勝どき5-1-17勝どきザ・リバーフロント1階","lat":35.661423,"lon":139.776581},{"name":"中央区地域包括支援センター","province":"東京都","city":"中央区","address":"中央区築地1-1-1区役所4階","lat":35.670841,"lon":139.771927},{"name":"京橋おとしより相談センター","province":"東京都","city":"中央区","address":"中央区明石町1-6リハポート明石等複合施設1階","lat":35.669617,"lon":139.776657},{"name":"日本橋おとしより相談センター","province":"東京都","city":"中央区","address":"中央区日本橋小伝馬町5-1十思スクエア1階","lat":35.691414,"lon":139.777466},{"name":"人形町おとしより相談センター（日本橋おとしより相談センターの分室）","province":"東京都","city":"中央区","address":"中央区日本橋人形町2-32-4日本橋医師会人形町ビル1階","lat":35.682903,"lon":139.775345},{"name":"月島おとしより相談センター","province":"東京都","city":"中央区","address":"中央区月島4-1-1月島区民センター1階","lat":43.062607,"lon":141.655518},{"name":"勝どきおとしより相談センター（月島おとしより相談センター分室）","province":"東京都","city":"中央区","address":"中央区勝どき5-1-17勝どきザ・リバーフロント1階","lat":35.661423,"lon":139.776581},{"name":"中央区地域包括支援センター","province":"東京都","city":"中央区","address":"中央区築地1-1-1区役所4階","lat":35.670841,"lon":139.771927},{"name":"京橋おとしより相談センター","province":"東京都","city":"中央区","address":"中央区明石町1-6リハポート明石等複合施設1階","lat":35.669617,"lon":139.776657},{"name":"日本橋おとしより相談センター","province":"東京都","city":"中央区","address":"中央区日本橋小伝馬町5-1十思スクエア1階","lat":35.691414,"lon":139.777466},{"name":"人形町おとしより相談センター（日本橋おとしより相談センターの分室）","province":"東京都","city":"中央区","address":"中央区日本橋人形町2-32-4日本橋医師会人形町ビル1階","lat":35.682903,"lon":139.775345},{"name":"月島おとしより相談センター","province":"東京都","city":"中央区","address":"中央区月島4-1-1月島区民センター1階","lat":43.062607,"lon":141.655518},{"name":"勝どきおとしより相談センター（月島おとしより相談センター分室）","province":"東京都","city":"中央区","address":"中央区勝どき5-1-17勝どきザ・リバーフロント1階","lat":35.661423,"lon":139.776581},{"name":"中央区地域包括支援センター","province":"東京都","city":"中央区","address":"中央区築地1-1-1区役所4階","lat":35.670841,"lon":139.771927},{"name":"京橋おとしより相談センター","province":"東京都","city":"中央区","address":"中央区明石町1-6リハポート明石等複合施設1階","lat":35.669617,"lon":139.776657},{"name":"日本橋おとしより相談センター","province":"東京都","city":"中央区","address":"中央区日本橋小伝馬町5-1十思スクエア1階","lat":35.691414,"lon":139.777466},{"name":"人形町おとしより相談センター（日本橋おとしより相談センターの分室）","province":"東京都","city":"中央区","address":"中央区日本橋人形町2-32-4日本橋医師会人形町ビル1階","lat":35.682903,"lon":139.775345},{"name":"月島おとしより相談センター","province":"東京都","city":"中央区","address":"中央区月島4-1-1月島区民センター1階","lat":43.062607,"lon":141.655518},{"name":"勝どきおとしより相談センター（月島おとしより相談センター分室）","province":"東京都","city":"中央区","address":"中央区勝どき5-1-17勝どきザ・リバーフロント1階","lat":35.661423,"lon":139.776581},{"name":"中央区地域包括支援センター","province":"東京都","city":"中央区","address":"中央区築地1-1-1区役所4階","lat":35.670841,"lon":139.771927},{"name":"京橋おとしより相談センター","province":"東京都","city":"中央区","address":"中央区明石町1-6リハポート明石等複合施設1階","lat":35.669617,"lon":139.776657},{"name":"日本橋おとしより相談センター","province":"東京都","city":"中央区","address":"中央区日本橋小伝馬町5-1十思スクエア1階","lat":35.691414,"lon":139.777466},{"name":"人形町おとしより相談センター（日本橋おとしより相談センターの分室）","province":"東京都","city":"中央区","address":"中央区日本橋人形町2-32-4日本橋医師会人形町ビル1階","lat":35.682903,"lon":139.775345},{"name":"月島おとしより相談センター","province":"東京都","city":"中央区","address":"中央区月島4-1-1月島区民センター1階","lat":43.062607,"lon":141.655518},{"name":"勝どきおとしより相談センター（月島おとしより相談センター分室）","province":"東京都","city":"中央区","address":"中央区勝どき5-1-17勝どきザ・リバーフロント1階","lat":35.661423,"lon":139.776581},{"name":"中央区地域包括支援センター","province":"東京都","city":"中央区","address":"中央区築地1-1-1区役所4階","lat":35.670841,"lon":139.771927},{"name":"京橋おとしより相談センター","province":"東京都","city":"中央区","address":"中央区明石町1-6リハポート明石等複合施設1階","lat":35.669617,"lon":139.776657},{"name":"日本橋おとしより相談センター","province":"東京都","city":"中央区","address":"中央区日本橋小伝馬町5-1十思スクエア1階","lat":35.691414,"lon":139.777466},{"name":"人形町おとしより相談センター（日本橋おとしより相談センターの分室）","province":"東京都","city":"中央区","address":"中央区日本橋人形町2-32-4日本橋医師会人形町ビル1階","lat":35.682903,"lon":139.775345},{"name":"月島おとしより相談センター","province":"東京都","city":"中央区","address":"中央区月島4-1-1月島区民センター1階","lat":43.062607,"lon":141.655518},{"name":"勝どきおとしより相談センター（月島おとしより相談センター分室）","province":"東京都","city":"中央区","address":"中央区勝どき5-1-17勝どきザ・リバーフロント1階","lat":35.661423,"lon":139.776581},{"name":"中央区地域包括支援センター","province":"東京都","city":"中央区","address":"中央区築地1-1-1区役所4階","lat":35.670841,"lon":139.771927},{"name":"京橋おとしより相談センター","province":"東京都","city":"中央区","address":"中央区明石町1-6リハポート明石等複合施設1階","lat":35.669617,"lon":139.776657},{"name":"日本橋おとしより相談センター","province":"東京都","city":"中央区","address":"中央区日本橋小伝馬町5-1十思スクエア1階","lat":35.691414,"lon":139.777466},{"name":"人形町おとしより相談センター（日本橋おとしより相談センターの分室）","province":"東京都","city":"中央区","address":"中央区日本橋人形町2-32-4日本橋医師会人形町ビル1階","lat":35.682903,"lon":139.775345},{"name":"月島おとしより相談センター","province":"東京都","city":"中央区","address":"中央区月島4-1-1月島区民センター1階","lat":43.062607,"lon":141.655518},{"name":"勝どきおとしより相談センター（月島おとしより相談センター分室）","province":"東京都","city":"中央区","address":"中央区勝どき5-1-17勝どきザ・リバーフロント1階","lat":35.661423,"lon":139.776581},{"name":"中央区地域包括支援センター","province":"東京都","city":"中央区","address":"中央区築地1-1-1区役所4階","lat":35.670841,"lon":139.771927},{"name":"京橋おとしより相談センター","province":"東京都","city":"中央区","address":"中央区明石町1-6リハポート明石等複合施設1階","lat":35.669617,"lon":139.776657},{"name":"日本橋おとしより相談センター","province":"東京都","city":"中央区","address":"中央区日本橋小伝馬町5-1十思スクエア1階","lat":35.691414,"lon":139.777466},{"name":"人形町おとしより相談センター（日本橋おとしより相談センターの分室）","province":"東京都","city":"中央区","address":"中央区日本橋人形町2-32-4日本橋医師会人形町ビル1階","lat":35.682903,"lon":139.775345},{"name":"月島おとしより相談センター","province":"東京都","city":"中央区","address":"中央区月島4-1-1月島区民センター1階","lat":43.062607,"lon":141.655518},{"name":"勝どきおとしより相談センター（月島おとしより相談センター分室）","province":"東京都","city":"中央区","address":"中央区勝どき5-1-17勝どきザ・リバーフロント1階","lat":35.661423,"lon":139.776581},{"name":"中央区地域包括支援センター","province":"東京都","city":"中央区","address":"中央区築地1-1-1区役所4階","lat":35.670841,"lon":139.771927},{"name":"京橋おとしより相談センター","province":"東京都","city":"中央区","address":"中央区明石町1-6リハポート明石等複合施設1階","lat":35.669617,"lon":139.776657},{"name":"日本橋おとしより相談センター","province":"東京都","city":"中央区","address":"中央区日本橋小伝馬町5-1十思スクエア1階","lat":35.691414,"lon":139.777466},{"name":"人形町おとしより相談センター（日本橋おとしより相談センターの分室）","province":"東京都","city":"中央区","address":"中央区日本橋人形町2-32-4日本橋医師会人形町ビル1階","lat":35.682903,"lon":139.775345},{"name":"月島おとしより相談センター","province":"東京都","city":"中央区","address":"中央区月島4-1-1月島区民センター1階","lat":43.062607,"lon":141.655518},{"name":"勝どきおとしより相談センター（月島おとしより相談センター分室）","province":"東京都","city":"中央区","address":"中央区勝どき5-1-17勝どきザ・リバーフロント1階","lat":35.661423,"lon":139.776581},{"name":"中央区地域包括支援センター","province":"東京都","city":"中央区","address":"中央区築地1-1-1区役所4階","lat":35.670841,"lon":139.771927},{"name":"京橋おとしより相談センター","province":"東京都","city":"中央区","address":"中央区明石町1-6リハポート明石等複合施設1階","lat":35.669617,"lon":139.776657},{"name":"日本橋おとしより相談センター","province":"東京都","city":"中央区","address":"中央区日本橋小伝馬町5-1十思スクエア1階","lat":35.691414,"lon":139.777466},{"name":"人形町おとしより相談センター（日本橋おとしより相談センターの分室）","province":"東京都","city":"中央区","address":"中央区日本橋人形町2-32-4日本橋医師会人形町ビル1階","lat":35.682903,"lon":139.775345},{"name":"月島おとしより相談センター","province":"東京都","city":"中央区","address":"中央区月島4-1-1月島区民センター1階","lat":43.062607,"lon":141.655518},{"name":"勝どきおとしより相談センター（月島おとしより相談センター分室）","province":"東京都","city":"中央区","address":"中央区勝どき5-1-17勝どきザ・リバーフロント1階","lat":35.661423,"lon":139.776581},{"name":"中央区地域包括支援センター","province":"東京都","city":"中央区","address":"中央区築地1-1-1区役所4階","lat":35.670841,"lon":139.771927},{"name":"京橋おとしより相談センター","province":"東京都","city":"中央区","address":"中央区明石町1-6リハポート明石等複合施設1階","lat":35.669617,"lon":139.776657},{"name":"日本橋おとしより相談センター","province":"東京都","city":"中央区","address":"中央区日本橋小伝馬町5-1十思スクエア1階","lat":35.691414,"lon":139.777466},{"name":"人形町おとしより相談センター（日本橋おとしより相談センターの分室）","province":"東京都","city":"中央区","address":"中央区日本橋人形町2-32-4日本橋医師会人形町ビル1階","lat":35.682903,"lon":139.775345},{"name":"月島おとしより相談センター","province":"東京都","city":"中央区","address":"中央区月島4-1-1月島区民センター1階","lat":43.062607,"lon":141.655518},{"name":"勝どきおとしより相談センター（月島おとしより相談センター分室）","province":"東京都","city":"中央区","address":"中央区勝どき5-1-17勝どきザ・リバーフロント1階","lat":35.661423,"lon":139.776581},{"name":"中央区地域包括支援センター","province":"東京都","city":"中央区","address":"中央区築地1-1-1区役所4階","lat":35.670841,"lon":139.771927},{"name":"京橋おとしより相談センター","province":"東京都","city":"中央区","address":"中央区明石町1-6リハポート明石等複合施設1階","lat":35.669617,"lon":139.776657},{"name":"日本橋おとしより相談センター","province":"東京都","city":"中央区","address":"中央区日本橋小伝馬町5-1十思スクエア1階","lat":35.691414,"lon":139.777466},{"name":"人形町おとしより相談センター（日本橋おとしより相談センターの分室）","province":"東京都","city":"中央区","address":"中央区日本橋人形町2-32-4日本橋医師会人形町ビル1階","lat":35.682903,"lon":139.775345},{"name":"月島おとしより相談センター","province":"東京都","city":"中央区","address":"中央区月島4-1-1月島区民センター1階","lat":43.062607,"lon":141.655518},{"name":"勝どきおとしより相談センター（月島おとしより相談センター分室）","province":"東京都","city":"中央区","address":"中央区勝どき5-1-17勝どきザ・リバーフロント1階","lat":35.661423,"lon":139.776581},{"name":"中央区地域包括支援センター","province":"東京都","city":"中央区","address":"中央区築地1-1-1区役所4階","lat":35.670841,"lon":139.771927},{"name":"京橋おとしより相談センター","province":"東京都","city":"中央区","address":"中央区明石町1-6リハポート明石等複合施設1階","lat":35.669617,"lon":139.776657},{"name":"日本橋おとしより相談センター","province":"東京都","city":"中央区","address":"中央区日本橋小伝馬町5-1十思スクエア1階","lat":35.691414,"lon":139.777466},{"name":"人形町おとしより相談センター（日本橋おとしより相談センターの分室）","province":"東京都","city":"中央区","address":"中央区日本橋人形町2-32-4日本橋医師会人形町ビル1階","lat":35.682903,"lon":139.775345},{"name":"月島おとしより相談センター","province":"東京都","city":"中央区","address":"中央区月島4-1-1月島区民センター1階","lat":43.062607,"lon":141.655518},{"name":"勝どきおとしより相談センター（月島おとしより相談センター分室）","province":"東京都","city":"中央区","address":"中央区勝どき5-1-17勝どきザ・リバーフロント1階","lat":35.661423,"lon":139.776581},{"name":"中央区地域包括支援センター","province":"東京都","city":"中央区","address":"中央区築地1-1-1区役所4階","lat":35.670841,"lon":139.771927},{"name":"京橋おとしより相談センター","province":"東京都","city":"中央区","address":"中央区明石町1-6リハポート明石等複合施設1階","lat":35.669617,"lon":139.776657},{"name":"日本橋おとしより相談センター","province":"東京都","city":"中央区","address":"中央区日本橋小伝馬町5-1十思スクエア1階","lat":35.691414,"lon":139.777466},{"name":"人形町おとしより相談センター（日本橋おとしより相談センターの分室）","province":"東京都","city":"中央区","address":"中央区日本橋人形町2-32-4日本橋医師会人形町ビル1階","lat":35.682903,"lon":139.775345},{"name":"月島おとしより相談センター","province":"東京都","city":"中央区","address":"中央区月島4-1-1月島区民センター1階","lat":43.062607,"lon":141.655518},{"name":"勝どきおとしより相談センター（月島おとしより相談センター分室）","province":"東京都","city":"中央区","address":"中央区勝どき5-1-17勝どきザ・リバーフロント1階","lat":35.661423,"lon":139.776581},{"name":"中央区地域包括支援センター","province":"東京都","city":"中央区","address":"中央区築地1-1-1区役所4階","lat":35.670841,"lon":139.771927},{"name":"京橋おとしより相談センター","province":"東京都","city":"中央区","address":"中央区明石町1-6リハポート明石等複合施設1階","lat":35.669617,"lon":139.776657},{"name":"日本橋おとしより相談センター","province":"東京都","city":"中央区","address":"中央区日本橋小伝馬町5-1十思スクエア1階","lat":35.691414,"lon":139.777466},{"name":"人形町おとしより相談センター（日本橋おとしより相談センターの分室）","province":"東京都","city":"中央区","address":"中央区日本橋人形町2-32-4日本橋医師会人形町ビル1階","lat":35.682903,"lon":139.775345},{"name":"月島おとしより相談センター","province":"東京都","city":"中央区","address":"中央区月島4-1-1月島区民センター1階","lat":43.062607,"lon":141.655518},{"name":"勝どきおとしより相談センター（月島おとしより相談センター分室）","province":"東京都","city":"中央区","address":"中央区勝どき5-1-17勝どきザ・リバーフロント1階","lat":35.661423,"lon":139.776581},{"name":"中央区地域包括支援センター","province":"東京都","city":"中央区","address":"中央区築地1-1-1区役所4階","lat":35.670841,"lon":139.771927},{"name":"京橋おとしより相談センター","province":"東京都","city":"中央区","address":"中央区明石町1-6リハポート明石等複合施設1階","lat":35.669617,"lon":139.776657},{"name":"日本橋おとしより相談センター","province":"東京都","city":"中央区","address":"中央区日本橋小伝馬町5-1十思スクエア1階","lat":35.691414,"lon":139.777466},{"name":"人形町おとしより相談センター（日本橋おとしより相談センターの分室）","province":"東京都","city":"中央区","address":"中央区日本橋人形町2-32-4日本橋医師会人形町ビル1階","lat":35.682903,"lon":139.775345},{"name":"月島おとしより相談センター","province":"東京都","city":"中央区","address":"中央区月島4-1-1月島区民センター1階","lat":43.062607,"lon":141.655518},{"name":"勝どきおとしより相談センター（月島おとしより相談センター分室）","province":"東京都","city":"中央区","address":"中央区勝どき5-1-17勝どきザ・リバーフロント1階","lat":35.661423,"lon":139.776581}]}