{"keyword":"放課後","data":[{"name":"放課後等デイサービス　ポジリブ","province":"東京都","city":"中央区","address":"中央区日本橋久松町6-9ASONE日本橋East2階","lat":35.689481,"lon":139.784357},{"name":"放課後等デイサービス　ミライエ日本橋","province":"東京都","city":"中央区","address":"中央区日本橋蛎殻町2-5-3","lat":35.683924,"lon":139.785185},{"name":"児童デイサービス　スマイル日本橋","province":"東京都","city":"中央区","address":"中央区日本橋茅場町2-17-9長尾ビル201号室","lat":35.678607,"lon":139.780696},{"name":"ゆうゆうらいふアカデミー中央","province":"東京都","city":"中央区","address":"中央区新川2-18-5ASビル2階","lat":35.674519,"lon":139.781649},{"name":"トリプル・ハート","province":"東京都","city":"中央区","address":"中央区新富2-2-142階","lat":35.671872,"lon":139.772563},{"name":"中央区立福祉センター","province":"東京都","city":"中央区","address":"中央区明石町12-1","lat":35.666506,"lon":139.777035}]}