{"keyword":"朝","data":[{"name":"日本橋式典","province":"東京都","city":"中央区","address":"東京都中央区東日本橋一丁目4番3号","lat":35.690796,"lon":139.786057},{"name":"株式会社三特興業社","province":"東京都","city":"中央区","address":"東京都中央区日本橋茅場町二丁目17番3号","lat":35.678013,"lon":139.779968},{"name":"株式会社グローバルケア","province":"東京都","city":"中央区","address":"東京都中央区佃三丁目3番3号","lat":35.66507,"lon":139.786682},{"name":"有限会社三谷葬儀社","province":"東京都","city":"中央区","address":"東京都中央区月島三丁目7番7号","lat":35.66256,"lon":139.780869},{"name":"室町二丁目","province":"東京都","city":"中央区","address":"東京都中央区日本橋室町1丁目5-5","lat":35.68619816,"lon":139.77438807},{"name":"本町二丁目","province":"東京都","city":"中央区","address":"東京都中央区日本橋本町2丁目5-1","lat":35.68734532,"lon":139.7762047},{"name":"京橋一丁目","province":"東京都","city":"中央区","address":"東京都中央区日本橋3丁目12-2","lat":35.67858507,"lon":139.7743713},{"name":"鍛冶橋","province":"東京都","city":"中央区","address":"東京都中央区八重洲2丁目8-21","lat":35.67695173,"lon":139.7671775},{"name":"室町二丁目第二","province":"東京都","city":"中央区","address":"東京都中央区日本橋室町2丁目4-3","lat":35.68745634,"lon":139.77387974},{"name":"浜町中の橋","province":"東京都","city":"中央区","address":"東京都中央区日本橋浜町2丁目23-7","lat":35.68567645,"lon":139.78778543},{"name":"人形町","province":"東京都","city":"中央区","address":"東京都中央区日本橋人形町3丁目7-13","lat":35.68632617,"lon":139.78191571},{"name":"日本橋支所前","province":"東京都","city":"中央区","address":"東京都中央区日本橋蛎殻町2丁目2-4","lat":35.68279609,"lon":139.78566821},{"name":"東日本橋三丁目","province":"東京都","city":"中央区","address":"東京都中央区東日本橋3丁目8-2","lat":35.69135901,"lon":139.78379343},{"name":"箱崎町","province":"東京都","city":"中央区","address":"東京都中央区日本橋箱崎町41-13","lat":35.68119908,"lon":139.78695424},{"name":"ターミナルビル前","province":"東京都","city":"中央区","address":"東京都中央区日本橋蛎殻町1丁目35-5","lat":35.68174621,"lon":139.78603201},{"name":"隅田川大橋北詰","province":"東京都","city":"中央区","address":"東京都中央区日本橋箱崎町25-9","lat":35.68040193,"lon":139.78695136},{"name":"鎧橋東詰","province":"東京都","city":"中央区","address":"東京都中央区日本橋小網町7-2","lat":35.68210712,"lon":139.78100152},{"name":"築地四丁目","province":"東京都","city":"中央区","address":"東京都中央区築地3丁目16-12","lat":35.66649186,"lon":139.7709998},{"name":"数寄屋橋","province":"東京都","city":"中央区","address":"東京都中央区銀座4丁目1-2","lat":35.67281041,"lon":139.76328075},{"name":"入船橋","province":"東京都","city":"中央区","address":"東京都中央区新富2丁目14-6","lat":35.67041376,"lon":139.77486875},{"name":"土橋","province":"東京都","city":"中央区","address":"東京都中央区銀座8丁目3-7","lat":35.66870796,"lon":139.75892294},{"name":"聖路加病院前","province":"東京都","city":"中央区","address":"東京都中央区明石町12-1","lat":35.66657812,"lon":139.77679376},{"name":"築地警察署前","province":"東京都","city":"中央区","address":"東京都中央区築地1丁目6","lat":35.67027478,"lon":139.77131348},{"name":"築地暁橋","province":"東京都","city":"中央区","address":"東京都中央区明石町11-15","lat":35.66711412,"lon":139.77481056},{"name":"聖路加ガーデン前","province":"東京都","city":"中央区","address":"東京都中央区明石町13-1","lat":35.66615041,"lon":139.77768536},{"name":"明石小学校前","province":"東京都","city":"中央区","address":"東京都中央区明石町9-1","lat":35.66741137,"lon":139.77705481},{"name":"月島三丁目","province":"東京都","city":"中央区","address":"東京都中央区月島1丁目27-9","lat":35.66316198,"lon":139.78207955},{"name":"勝どき駅前","province":"東京都","city":"中央区","address":"東京都中央区勝どき1丁目7-1","lat":35.65987332,"lon":139.77761338},{"name":"初見橋","province":"東京都","city":"中央区","address":"東京都中央区佃2丁目17-8","lat":35.664723,"lon":139.7848487},{"name":"新月橋","province":"東京都","city":"中央区","address":"東京都中央区月島1丁目2-9","lat":35.66522013,"lon":139.78346268},{"name":"月島出張所前","province":"東京都","city":"中央区","address":"東京都中央区月島3丁目12-5","lat":35.66231205,"lon":139.78151296},{"name":"晴海二丁目","province":"東京都","city":"中央区","address":"東京都中央区晴海1丁目8-10","lat":35.65637941,"lon":139.78234084},{"name":"晴月橋南","province":"東京都","city":"中央区","address":"東京都中央区晴海1丁目6","lat":35.65872641,"lon":139.78401006},{"name":"佃二丁目北","province":"東京都","city":"中央区","address":"東京都中央区佃2丁目11","lat":35.66661448,"lon":139.78540973},{"name":"晴海給水所","province":"東京都","city":"中央区","address":"東京都中央区晴海1丁目6-3","lat":35.65852366,"lon":139.78411284},{"name":"区立あかつき公園","province":"東京都","city":"中央区","address":"東京都中央区築地7丁目19-1","lat":35.66666142,"lon":139.7758105},{"name":"区立堀留児童公園","province":"東京都","city":"中央区","address":"東京都中央区日本橋堀留町1丁目1-16","lat":35.68635386,"lon":139.77931298},{"name":"日本橋式典","province":"東京都","city":"中央区","address":"東京都中央区東日本橋一丁目4番3号","lat":35.690796,"lon":139.786057},{"name":"株式会社三特興業社","province":"東京都","city":"中央区","address":"東京都中央区日本橋茅場町二丁目17番3号","lat":35.678013,"lon":139.779968},{"name":"株式会社グローバルケア","province":"東京都","city":"中央区","address":"東京都中央区佃三丁目3番3号","lat":35.66507,"lon":139.786682},{"name":"有限会社三谷葬儀社","province":"東京都","city":"中央区","address":"東京都中央区月島三丁目7番7号","lat":35.66256,"lon":139.780869},{"name":"室町二丁目","province":"東京都","city":"中央区","address":"東京都中央区日本橋室町1丁目5-5","lat":35.68619816,"lon":139.77438807},{"name":"本町二丁目","province":"東京都","city":"中央区","address":"東京都中央区日本橋本町2丁目5-1","lat":35.68734532,"lon":139.7762047},{"name":"京橋一丁目","province":"東京都","city":"中央区","address":"東京都中央区日本橋3丁目12-2","lat":35.67858507,"lon":139.7743713},{"name":"鍛冶橋","province":"東京都","city":"中央区","address":"東京都中央区八重洲2丁目8-21","lat":35.67695173,"lon":139.7671775},{"name":"室町二丁目第二","province":"東京都","city":"中央区","address":"東京都中央区日本橋室町2丁目4-3","lat":35.68745634,"lon":139.77387974},{"name":"浜町中の橋","province":"東京都","city":"中央区","address":"東京都中央区日本橋浜町2丁目23-7","lat":35.68567645,"lon":139.78778543},{"name":"人形町","province":"東京都","city":"中央区","address":"東京都中央区日本橋人形町3丁目7-13","lat":35.68632617,"lon":139.78191571},{"name":"日本橋支所前","province":"東京都","city":"中央区","address":"東京都中央区日本橋蛎殻町2丁目2-4","lat":35.68279609,"lon":139.78566821},{"name":"東日本橋三丁目","province":"東京都","city":"中央区","address":"東京都中央区東日本橋3丁目8-2","lat":35.69135901,"lon":139.78379343},{"name":"箱崎町","province":"東京都","city":"中央区","address":"東京都中央区日本橋箱崎町41-13","lat":35.68119908,"lon":139.78695424},{"name":"ターミナルビル前","province":"東京都","city":"中央区","address":"東京都中央区日本橋蛎殻町1丁目35-5","lat":35.68174621,"lon":139.78603201},{"name":"隅田川大橋北詰","province":"東京都","city":"中央区","address":"東京都中央区日本橋箱崎町25-9","lat":35.68040193,"lon":139.78695136},{"name":"鎧橋東詰","province":"東京都","city":"中央区","address":"東京都中央区日本橋小網町7-2","lat":35.68210712,"lon":139.78100152},{"name":"築地四丁目","province":"東京都","city":"中央区","address":"東京都中央区築地3丁目16-12","lat":35.66649186,"lon":139.7709998},{"name":"数寄屋橋","province":"東京都","city":"中央区","address":"東京都中央区銀座4丁目1-2","lat":35.67281041,"lon":139.76328075},{"name":"入船橋","province":"東京都","city":"中央区","address":"東京都中央区新富2丁目14-6","lat":35.67041376,"lon":139.77486875},{"name":"土橋","province":"東京都","city":"中央区","address":"東京都中央区銀座8丁目3-7","lat":35.66870796,"lon":139.75892294},{"name":"聖路加病院前","province":"東京都","city":"中央区","address":"東京都中央区明石町12-1","lat":35.66657812,"lon":139.77679376},{"name":"築地警察署前","province":"東京都","city":"中央区","address":"東京都中央区築地1丁目6","lat":35.67027478,"lon":139.77131348},{"name":"築地暁橋","province":"東京都","city":"中央区","address":"東京都中央区明石町11-15","lat":35.66711412,"lon":139.77481056},{"name":"聖路加ガーデン前","province":"東京都","city":"中央区","address":"東京都中央区明石町13-1","lat":35.66615041,"lon":139.77768536},{"name":"明石小学校前","province":"東京都","city":"中央区","address":"東京都中央区明石町9-1","lat":35.66741137,"lon":139.77705481},{"name":"月島三丁目","province":"東京都","city":"中央区","address":"東京都中央区月島1丁目27-9","lat":35.66316198,"lon":139.78207955},{"name":"勝どき駅前","province":"東京都","city":"中央区","address":"東京都中央区勝どき1丁目7-1","lat":35.65987332,"lon":139.77761338},{"name":"初見橋","province":"東京都","city":"中央区","address":"東京都中央区佃2丁目17-8","lat":35.664723,"lon":139.7848487},{"name":"新月橋","province":"東京都","city":"中央区","address":"東京都中央区月島1丁目2-9","lat":35.66522013,"lon":139.78346268},{"name":"月島出張所前","province":"東京都","city":"中央区","address":"東京都中央区月島3丁目12-5","lat":35.66231205,"lon":139.78151296},{"name":"晴海二丁目","province":"東京都","city":"中央区","address":"東京都中央区晴海1丁目8-10","lat":35.65637941,"lon":139.78234084},{"name":"晴月橋南","province":"東京都","city":"中央区","address":"東京都中央区晴海1丁目6","lat":35.65872641,"lon":139.78401006},{"name":"佃二丁目北","province":"東京都","city":"中央区","address":"東京都中央区佃2丁目11","lat":35.66661448,"lon":139.78540973},{"name":"晴海給水所","province":"東京都","city":"中央区","address":"東京都中央区晴海1丁目6-3","lat":35.65852366,"lon":139.78411284},{"name":"区立あかつき公園","province":"東京都","city":"中央区","address":"東京都中央区築地7丁目19-1","lat":35.66666142,"lon":139.7758105},{"name":"区立堀留児童公園","province":"東京都","city":"中央区","address":"東京都中央区日本橋堀留町1丁目1-16","lat":35.68635386,"lon":139.77931298},{"name":"日本橋式典","province":"東京都","city":"中央区","address":"東京都中央区東日本橋一丁目4番3号","lat":35.690796,"lon":139.786057},{"name":"株式会社三特興業社","province":"東京都","city":"中央区","address":"東京都中央区日本橋茅場町二丁目17番3号","lat":35.678013,"lon":139.779968},{"name":"株式会社グローバルケア","province":"東京都","city":"中央区","address":"東京都中央区佃三丁目3番3号","lat":35.66507,"lon":139.786682},{"name":"有限会社三谷葬儀社","province":"東京都","city":"中央区","address":"東京都中央区月島三丁目7番7号","lat":35.66256,"lon":139.780869},{"name":"室町二丁目","province":"東京都","city":"中央区","address":"東京都中央区日本橋室町1丁目5-5","lat":35.68619816,"lon":139.77438807},{"name":"本町二丁目","province":"東京都","city":"中央区","address":"東京都中央区日本橋本町2丁目5-1","lat":35.68734532,"lon":139.7762047},{"name":"京橋一丁目","province":"東京都","city":"中央区","address":"東京都中央区日本橋3丁目12-2","lat":35.67858507,"lon":139.7743713},{"name":"鍛冶橋","province":"東京都","city":"中央区","address":"東京都中央区八重洲2丁目8-21","lat":35.67695173,"lon":139.7671775},{"name":"室町二丁目第二","province":"東京都","city":"中央区","address":"東京都中央区日本橋室町2丁目4-3","lat":35.68745634,"lon":139.77387974},{"name":"浜町中の橋","province":"東京都","city":"中央区","address":"東京都中央区日本橋浜町2丁目23-7","lat":35.68567645,"lon":139.78778543},{"name":"人形町","province":"東京都","city":"中央区","address":"東京都中央区日本橋人形町3丁目7-13","lat":35.68632617,"lon":139.78191571},{"name":"日本橋支所前","province":"東京都","city":"中央区","address":"東京都中央区日本橋蛎殻町2丁目2-4","lat":35.68279609,"lon":139.78566821},{"name":"東日本橋三丁目","province":"東京都","city":"中央区","address":"東京都中央区東日本橋3丁目8-2","lat":35.69135901,"lon":139.78379343},{"name":"箱崎町","province":"東京都","city":"中央区","address":"東京都中央区日本橋箱崎町41-13","lat":35.68119908,"lon":139.78695424},{"name":"ターミナルビル前","province":"東京都","city":"中央区","address":"東京都中央区日本橋蛎殻町1丁目35-5","lat":35.68174621,"lon":139.78603201},{"name":"隅田川大橋北詰","province":"東京都","city":"中央区","address":"東京都中央区日本橋箱崎町25-9","lat":35.68040193,"lon":139.78695136},{"name":"鎧橋東詰","province":"東京都","city":"中央区","address":"東京都中央区日本橋小網町7-2","lat":35.68210712,"lon":139.78100152},{"name":"築地四丁目","province":"東京都","city":"中央区","address":"東京都中央区築地3丁目16-12","lat":35.66649186,"lon":139.7709998},{"name":"数寄屋橋","province":"東京都","city":"中央区","address":"東京都中央区銀座4丁目1-2","lat":35.67281041,"lon":139.76328075},{"name":"入船橋","province":"東京都","city":"中央区","address":"東京都中央区新富2丁目14-6","lat":35.67041376,"lon":139.77486875},{"name":"土橋","province":"東京都","city":"中央区","address":"東京都中央区銀座8丁目3-7","lat":35.66870796,"lon":139.75892294},{"name":"聖路加病院前","province":"東京都","city":"中央区","address":"東京都中央区明石町12-1","lat":35.66657812,"lon":139.77679376},{"name":"築地警察署前","province":"東京都","city":"中央区","address":"東京都中央区築地1丁目6","lat":35.67027478,"lon":139.77131348},{"name":"築地暁橋","province":"東京都","city":"中央区","address":"東京都中央区明石町11-15","lat":35.66711412,"lon":139.77481056},{"name":"聖路加ガーデン前","province":"東京都","city":"中央区","address":"東京都中央区明石町13-1","lat":35.66615041,"lon":139.77768536},{"name":"明石小学校前","province":"東京都","city":"中央区","address":"東京都中央区明石町9-1","lat":35.66741137,"lon":139.77705481},{"name":"月島三丁目","province":"東京都","city":"中央区","address":"東京都中央区月島1丁目27-9","lat":35.66316198,"lon":139.78207955},{"name":"勝どき駅前","province":"東京都","city":"中央区","address":"東京都中央区勝どき1丁目7-1","lat":35.65987332,"lon":139.77761338},{"name":"初見橋","province":"東京都","city":"中央区","address":"東京都中央区佃2丁目17-8","lat":35.664723,"lon":139.7848487},{"name":"新月橋","province":"東京都","city":"中央区","address":"東京都中央区月島1丁目2-9","lat":35.66522013,"lon":139.78346268},{"name":"月島出張所前","province":"東京都","city":"中央区","address":"東京都中央区月島3丁目12-5","lat":35.66231205,"lon":139.78151296},{"name":"晴海二丁目","province":"東京都","city":"中央区","address":"東京都中央区晴海1丁目8-10","lat":35.65637941,"lon":139.78234084},{"name":"晴月橋南","province":"東京都","city":"中央区","address":"東京都中央区晴海1丁目6","lat":35.65872641,"lon":139.78401006},{"name":"佃二丁目北","province":"東京都","city":"中央区","address":"東京都中央区佃2丁目11","lat":35.66661448,"lon":139.78540973},{"name":"晴海給水所","province":"東京都","city":"中央区","address":"東京都中央区晴海1丁目6-3","lat":35.65852366,"lon":139.78411284},{"name":"区立あかつき公園","province":"東京都","city":"中央区","address":"東京都中央区築地7丁目19-1","lat":35.66666142,"lon":139.7758105},{"name":"区立堀留児童公園","province":"東京都","city":"中央区","address":"東京都中央区日本橋堀留町1丁目1-16","lat":35.68635386,"lon":139.77931298},{"name":"日本橋式典","province":"東京都","city":"中央区","address":"東京都中央区東日本橋一丁目4番3号","lat":35.690796,"lon":139.786057},{"name":"株式会社三特興業社","province":"東京都","city":"中央区","address":"東京都中央区日本橋茅場町二丁目17番3号","lat":35.678013,"lon":139.779968},{"name":"株式会社グローバルケア","province":"東京都","city":"中央区","address":"東京都中央区佃三丁目3番3号","lat":35.66507,"lon":139.786682},{"name":"有限会社三谷葬儀社","province":"東京都","city":"中央区","address":"東京都中央区月島三丁目7番7号","lat":35.66256,"lon":139.780869},{"name":"室町二丁目","province":"東京都","city":"中央区","address":"東京都中央区日本橋室町1丁目5-5","lat":35.68619816,"lon":139.77438807},{"name":"本町二丁目","province":"東京都","city":"中央区","address":"東京都中央区日本橋本町2丁目5-1","lat":35.68734532,"lon":139.7762047},{"name":"京橋一丁目","province":"東京都","city":"中央区","address":"東京都中央区日本橋3丁目12-2","lat":35.67858507,"lon":139.7743713},{"name":"鍛冶橋","province":"東京都","city":"中央区","address":"東京都中央区八重洲2丁目8-21","lat":35.67695173,"lon":139.7671775},{"name":"室町二丁目第二","province":"東京都","city":"中央区","address":"東京都中央区日本橋室町2丁目4-3","lat":35.68745634,"lon":139.77387974},{"name":"浜町中の橋","province":"東京都","city":"中央区","address":"東京都中央区日本橋浜町2丁目23-7","lat":35.68567645,"lon":139.78778543},{"name":"人形町","province":"東京都","city":"中央区","address":"東京都中央区日本橋人形町3丁目7-13","lat":35.68632617,"lon":139.78191571},{"name":"日本橋支所前","province":"東京都","city":"中央区","address":"東京都中央区日本橋蛎殻町2丁目2-4","lat":35.68279609,"lon":139.78566821},{"name":"東日本橋三丁目","province":"東京都","city":"中央区","address":"東京都中央区東日本橋3丁目8-2","lat":35.69135901,"lon":139.78379343},{"name":"箱崎町","province":"東京都","city":"中央区","address":"東京都中央区日本橋箱崎町41-13","lat":35.68119908,"lon":139.78695424},{"name":"ターミナルビル前","province":"東京都","city":"中央区","address":"東京都中央区日本橋蛎殻町1丁目35-5","lat":35.68174621,"lon":139.78603201},{"name":"隅田川大橋北詰","province":"東京都","city":"中央区","address":"東京都中央区日本橋箱崎町25-9","lat":35.68040193,"lon":139.78695136},{"name":"鎧橋東詰","province":"東京都","city":"中央区","address":"東京都中央区日本橋小網町7-2","lat":35.68210712,"lon":139.78100152},{"name":"築地四丁目","province":"東京都","city":"中央区","address":"東京都中央区築地3丁目16-12","lat":35.66649186,"lon":139.7709998},{"name":"数寄屋橋","province":"東京都","city":"中央区","address":"東京都中央区銀座4丁目1-2","lat":35.67281041,"lon":139.76328075},{"name":"入船橋","province":"東京都","city":"中央区","address":"東京都中央区新富2丁目14-6","lat":35.67041376,"lon":139.77486875},{"name":"土橋","province":"東京都","city":"中央区","address":"東京都中央区銀座8丁目3-7","lat":35.66870796,"lon":139.75892294},{"name":"聖路加病院前","province":"東京都","city":"中央区","address":"東京都中央区明石町12-1","lat":35.66657812,"lon":139.77679376},{"name":"築地警察署前","province":"東京都","city":"中央区","address":"東京都中央区築地1丁目6","lat":35.67027478,"lon":139.77131348},{"name":"築地暁橋","province":"東京都","city":"中央区","address":"東京都中央区明石町11-15","lat":35.66711412,"lon":139.77481056},{"name":"聖路加ガーデン前","province":"東京都","city":"中央区","address":"東京都中央区明石町13-1","lat":35.66615041,"lon":139.77768536},{"name":"明石小学校前","province":"東京都","city":"中央区","address":"東京都中央区明石町9-1","lat":35.66741137,"lon":139.77705481},{"name":"月島三丁目","province":"東京都","city":"中央区","address":"東京都中央区月島1丁目27-9","lat":35.66316198,"lon":139.78207955},{"name":"勝どき駅前","province":"東京都","city":"中央区","address":"東京都中央区勝どき1丁目7-1","lat":35.65987332,"lon":139.77761338},{"name":"初見橋","province":"東京都","city":"中央区","address":"東京都中央区佃2丁目17-8","lat":35.664723,"lon":139.7848487},{"name":"新月橋","province":"東京都","city":"中央区","address":"東京都中央区月島1丁目2-9","lat":35.66522013,"lon":139.78346268},{"name":"月島出張所前","province":"東京都","city":"中央区","address":"東京都中央区月島3丁目12-5","lat":35.66231205,"lon":139.78151296},{"name":"晴海二丁目","province":"東京都","city":"中央区","address":"東京都中央区晴海1丁目8-10","lat":35.65637941,"lon":139.78234084},{"name":"晴月橋南","province":"東京都","city":"中央区","address":"東京都中央区晴海1丁目6","lat":35.65872641,"lon":139.78401006},{"name":"佃二丁目北","province":"東京都","city":"中央区","address":"東京都中央区佃2丁目11","lat":35.66661448,"lon":139.78540973},{"name":"晴海給水所","province":"東京都","city":"中央区","address":"東京都中央区晴海1丁目6-3","lat":35.65852366,"lon":139.78411284},{"name":"区立あかつき公園","province":"東京都","city":"中央区","address":"東京都中央区築地7丁目19-1","lat":35.66666142,"lon":139.7758105},{"name":"区立堀留児童公園","province":"東京都","city":"中央区","address":"東京都中央区日本橋堀留町1丁目1-16","lat":35.68635386,"lon":139.77931298},{"name":"日本橋式典","province":"東京都","city":"中央区","address":"東京都中央区東日本橋一丁目4番3号","lat":35.690796,"lon":139.786057},{"name":"株式会社三特興業社","province":"東京都","city":"中央区","address":"東京都中央区日本橋茅場町二丁目17番3号","lat":35.678013,"lon":139.779968},{"name":"株式会社グローバルケア","province":"東京都","city":"中央区","address":"東京都中央区佃三丁目3番3号","lat":35.66507,"lon":139.786682},{"name":"有限会社三谷葬儀社","province":"東京都","city":"中央区","address":"東京都中央区月島三丁目7番7号","lat":35.66256,"lon":139.780869},{"name":"室町二丁目","province":"東京都","city":"中央区","address":"東京都中央区日本橋室町1丁目5-5","lat":35.68619816,"lon":139.77438807},{"name":"本町二丁目","province":"東京都","city":"中央区","address":"東京都中央区日本橋本町2丁目5-1","lat":35.68734532,"lon":139.7762047},{"name":"京橋一丁目","province":"東京都","city":"中央区","address":"東京都中央区日本橋3丁目12-2","lat":35.67858507,"lon":139.7743713},{"name":"鍛冶橋","province":"東京都","city":"中央区","address":"東京都中央区八重洲2丁目8-21","lat":35.67695173,"lon":139.7671775},{"name":"室町二丁目第二","province":"東京都","city":"中央区","address":"東京都中央区日本橋室町2丁目4-3","lat":35.68745634,"lon":139.77387974},{"name":"浜町中の橋","province":"東京都","city":"中央区","address":"東京都中央区日本橋浜町2丁目23-7","lat":35.68567645,"lon":139.78778543},{"name":"人形町","province":"東京都","city":"中央区","address":"東京都中央区日本橋人形町3丁目7-13","lat":35.68632617,"lon":139.78191571},{"name":"日本橋支所前","province":"東京都","city":"中央区","address":"東京都中央区日本橋蛎殻町2丁目2-4","lat":35.68279609,"lon":139.78566821},{"name":"東日本橋三丁目","province":"東京都","city":"中央区","address":"東京都中央区東日本橋3丁目8-2","lat":35.69135901,"lon":139.78379343},{"name":"箱崎町","province":"東京都","city":"中央区","address":"東京都中央区日本橋箱崎町41-13","lat":35.68119908,"lon":139.78695424},{"name":"ターミナルビル前","province":"東京都","city":"中央区","address":"東京都中央区日本橋蛎殻町1丁目35-5","lat":35.68174621,"lon":139.78603201},{"name":"隅田川大橋北詰","province":"東京都","city":"中央区","address":"東京都中央区日本橋箱崎町25-9","lat":35.68040193,"lon":139.78695136},{"name":"鎧橋東詰","province":"東京都","city":"中央区","address":"東京都中央区日本橋小網町7-2","lat":35.68210712,"lon":139.78100152},{"name":"築地四丁目","province":"東京都","city":"中央区","address":"東京都中央区築地3丁目16-12","lat":35.66649186,"lon":139.7709998},{"name":"数寄屋橋","province":"東京都","city":"中央区","address":"東京都中央区銀座4丁目1-2","lat":35.67281041,"lon":139.76328075},{"name":"入船橋","province":"東京都","city":"中央区","address":"東京都中央区新富2丁目14-6","lat":35.67041376,"lon":139.77486875},{"name":"土橋","province":"東京都","city":"中央区","address":"東京都中央区銀座8丁目3-7","lat":35.66870796,"lon":139.75892294},{"name":"聖路加病院前","province":"東京都","city":"中央区","address":"東京都中央区明石町12-1","lat":35.66657812,"lon":139.77679376},{"name":"築地警察署前","province":"東京都","city":"中央区","address":"東京都中央区築地1丁目6","lat":35.67027478,"lon":139.77131348},{"name":"築地暁橋","province":"東京都","city":"中央区","address":"東京都中央区明石町11-15","lat":35.66711412,"lon":139.77481056},{"name":"聖路加ガーデン前","province":"東京都","city":"中央区","address":"東京都中央区明石町13-1","lat":35.66615041,"lon":139.77768536},{"name":"明石小学校前","province":"東京都","city":"中央区","address":"東京都中央区明石町9-1","lat":35.66741137,"lon":139.77705481},{"name":"月島三丁目","province":"東京都","city":"中央区","address":"東京都中央区月島1丁目27-9","lat":35.66316198,"lon":139.78207955},{"name":"勝どき駅前","province":"東京都","city":"中央区","address":"東京都中央区勝どき1丁目7-1","lat":35.65987332,"lon":139.77761338},{"name":"初見橋","province":"東京都","city":"中央区","address":"東京都中央区佃2丁目17-8","lat":35.664723,"lon":139.7848487},{"name":"新月橋","province":"東京都","city":"中央区","address":"東京都中央区月島1丁目2-9","lat":35.66522013,"lon":139.78346268},{"name":"月島出張所前","province":"東京都","city":"中央区","address":"東京都中央区月島3丁目12-5","lat":35.66231205,"lon":139.78151296},{"name":"晴海二丁目","province":"東京都","city":"中央区","address":"東京都中央区晴海1丁目8-10","lat":35.65637941,"lon":139.78234084},{"name":"晴月橋南","province":"東京都","city":"中央区","address":"東京都中央区晴海1丁目6","lat":35.65872641,"lon":139.78401006},{"name":"佃二丁目北","province":"東京都","city":"中央区","address":"東京都中央区佃2丁目11","lat":35.66661448,"lon":139.78540973},{"name":"晴海給水所","province":"東京都","city":"中央区","address":"東京都中央区晴海1丁目6-3","lat":35.65852366,"lon":139.78411284},{"name":"区立あかつき公園","province":"東京都","city":"中央区","address":"東京都中央区築地7丁目19-1","lat":35.66666142,"lon":139.7758105},{"name":"区立堀留児童公園","province":"東京都","city":"中央区","address":"東京都中央区日本橋堀留町1丁目1-16","lat":35.68635386,"lon":139.77931298},{"name":"日本橋式典","province":"東京都","city":"中央区","address":"東京都中央区東日本橋一丁目4番3号","lat":35.690796,"lon":139.786057},{"name":"株式会社三特興業社","province":"東京都","city":"中央区","address":"東京都中央区日本橋茅場町二丁目17番3号","lat":35.678013,"lon":139.779968},{"name":"株式会社グローバルケア","province":"東京都","city":"中央区","address":"東京都中央区佃三丁目3番3号","lat":35.66507,"lon":139.786682},{"name":"有限会社三谷葬儀社","province":"東京都","city":"中央区","address":"東京都中央区月島三丁目7番7号","lat":35.66256,"lon":139.780869},{"name":"室町二丁目","province":"東京都","city":"中央区","address":"東京都中央区日本橋室町1丁目5-5","lat":35.68619816,"lon":139.77438807},{"name":"本町二丁目","province":"東京都","city":"中央区","address":"東京都中央区日本橋本町2丁目5-1","lat":35.68734532,"lon":139.7762047},{"name":"京橋一丁目","province":"東京都","city":"中央区","address":"東京都中央区日本橋3丁目12-2","lat":35.67858507,"lon":139.7743713},{"name":"鍛冶橋","province":"東京都","city":"中央区","address":"東京都中央区八重洲2丁目8-21","lat":35.67695173,"lon":139.7671775},{"name":"室町二丁目第二","province":"東京都","city":"中央区","address":"東京都中央区日本橋室町2丁目4-3","lat":35.68745634,"lon":139.77387974},{"name":"浜町中の橋","province":"東京都","city":"中央区","address":"東京都中央区日本橋浜町2丁目23-7","lat":35.68567645,"lon":139.78778543},{"name":"人形町","province":"東京都","city":"中央区","address":"東京都中央区日本橋人形町3丁目7-13","lat":35.68632617,"lon":139.78191571},{"name":"日本橋支所前","province":"東京都","city":"中央区","address":"東京都中央区日本橋蛎殻町2丁目2-4","lat":35.68279609,"lon":139.78566821},{"name":"東日本橋三丁目","province":"東京都","city":"中央区","address":"東京都中央区東日本橋3丁目8-2","lat":35.69135901,"lon":139.78379343},{"name":"箱崎町","province":"東京都","city":"中央区","address":"東京都中央区日本橋箱崎町41-13","lat":35.68119908,"lon":139.78695424},{"name":"ターミナルビル前","province":"東京都","city":"中央区","address":"東京都中央区日本橋蛎殻町1丁目35-5","lat":35.68174621,"lon":139.78603201},{"name":"隅田川大橋北詰","province":"東京都","city":"中央区","address":"東京都中央区日本橋箱崎町25-9","lat":35.68040193,"lon":139.78695136},{"name":"鎧橋東詰","province":"東京都","city":"中央区","address":"東京都中央区日本橋小網町7-2","lat":35.68210712,"lon":139.78100152},{"name":"築地四丁目","province":"東京都","city":"中央区","address":"東京都中央区築地3丁目16-12","lat":35.66649186,"lon":139.7709998},{"name":"数寄屋橋","province":"東京都","city":"中央区","address":"東京都中央区銀座4丁目1-2","lat":35.67281041,"lon":139.76328075},{"name":"入船橋","province":"東京都","city":"中央区","address":"東京都中央区新富2丁目14-6","lat":35.67041376,"lon":139.77486875},{"name":"土橋","province":"東京都","city":"中央区","address":"東京都中央区銀座8丁目3-7","lat":35.66870796,"lon":139.75892294},{"name":"聖路加病院前","province":"東京都","city":"中央区","address":"東京都中央区明石町12-1","lat":35.66657812,"lon":139.77679376},{"name":"築地警察署前","province":"東京都","city":"中央区","address":"東京都中央区築地1丁目6","lat":35.67027478,"lon":139.77131348},{"name":"築地暁橋","province":"東京都","city":"中央区","address":"東京都中央区明石町11-15","lat":35.66711412,"lon":139.77481056},{"name":"聖路加ガーデン前","province":"東京都","city":"中央区","address":"東京都中央区明石町13-1","lat":35.66615041,"lon":139.77768536},{"name":"明石小学校前","province":"東京都","city":"中央区","address":"東京都中央区明石町9-1","lat":35.66741137,"lon":139.77705481},{"name":"月島三丁目","province":"東京都","city":"中央区","address":"東京都中央区月島1丁目27-9","lat":35.66316198,"lon":139.78207955},{"name":"勝どき駅前","province":"東京都","city":"中央区","address":"東京都中央区勝どき1丁目7-1","lat":35.65987332,"lon":139.77761338},{"name":"初見橋","province":"東京都","city":"中央区","address":"東京都中央区佃2丁目17-8","lat":35.664723,"lon":139.7848487},{"name":"新月橋","province":"東京都","city":"中央区","address":"東京都中央区月島1丁目2-9","lat":35.66522013,"lon":139.78346268},{"name":"月島出張所前","province":"東京都","city":"中央区","address":"東京都中央区月島3丁目12-5","lat":35.66231205,"lon":139.78151296},{"name":"晴海二丁目","province":"東京都","city":"中央区","address":"東京都中央区晴海1丁目8-10","lat":35.65637941,"lon":139.78234084},{"name":"晴月橋南","province":"東京都","city":"中央区","address":"東京都中央区晴海1丁目6","lat":35.65872641,"lon":139.78401006},{"name":"佃二丁目北","province":"東京都","city":"中央区","address":"東京都中央区佃2丁目11","lat":35.66661448,"lon":139.78540973},{"name":"晴海給水所","province":"東京都","city":"中央区","address":"東京都中央区晴海1丁目6-3","lat":35.65852366,"lon":139.78411284},{"name":"区立あかつき公園","province":"東京都","city":"中央区","address":"東京都中央区築地7丁目19-1","lat":35.66666142,"lon":139.7758105},{"name":"区立堀留児童公園","province":"東京都","city":"中央区","address":"東京都中央区日本橋堀留町1丁目1-16","lat":35.68635386,"lon":139.77931298},{"name":"日本橋式典","province":"東京都","city":"中央区","address":"東京都中央区東日本橋一丁目4番3号","lat":35.690796,"lon":139.786057},{"name":"株式会社三特興業社","province":"東京都","city":"中央区","address":"東京都中央区日本橋茅場町二丁目17番3号","lat":35.678013,"lon":139.779968},{"name":"株式会社グローバルケア","province":"東京都","city":"中央区","address":"東京都中央区佃三丁目3番3号","lat":35.66507,"lon":139.786682},{"name":"有限会社三谷葬儀社","province":"東京都","city":"中央区","address":"東京都中央区月島三丁目7番7号","lat":35.66256,"lon":139.780869},{"name":"室町二丁目","province":"東京都","city":"中央区","address":"東京都中央区日本橋室町1丁目5-5","lat":35.68619816,"lon":139.77438807},{"name":"本町二丁目","province":"東京都","city":"中央区","address":"東京都中央区日本橋本町2丁目5-1","lat":35.68734532,"lon":139.7762047},{"name":"京橋一丁目","province":"東京都","city":"中央区","address":"東京都中央区日本橋3丁目12-2","lat":35.67858507,"lon":139.7743713},{"name":"鍛冶橋","province":"東京都","city":"中央区","address":"東京都中央区八重洲2丁目8-21","lat":35.67695173,"lon":139.7671775},{"name":"室町二丁目第二","province":"東京都","city":"中央区","address":"東京都中央区日本橋室町2丁目4-3","lat":35.68745634,"lon":139.77387974},{"name":"浜町中の橋","province":"東京都","city":"中央区","address":"東京都中央区日本橋浜町2丁目23-7","lat":35.68567645,"lon":139.78778543},{"name":"人形町","province":"東京都","city":"中央区","address":"東京都中央区日本橋人形町3丁目7-13","lat":35.68632617,"lon":139.78191571},{"name":"日本橋支所前","province":"東京都","city":"中央区","address":"東京都中央区日本橋蛎殻町2丁目2-4","lat":35.68279609,"lon":139.78566821},{"name":"東日本橋三丁目","province":"東京都","city":"中央区","address":"東京都中央区東日本橋3丁目8-2","lat":35.69135901,"lon":139.78379343},{"name":"箱崎町","province":"東京都","city":"中央区","address":"東京都中央区日本橋箱崎町41-13","lat":35.68119908,"lon":139.78695424},{"name":"ターミナルビル前","province":"東京都","city":"中央区","address":"東京都中央区日本橋蛎殻町1丁目35-5","lat":35.68174621,"lon":139.78603201},{"name":"隅田川大橋北詰","province":"東京都","city":"中央区","address":"東京都中央区日本橋箱崎町25-9","lat":35.68040193,"lon":139.78695136},{"name":"鎧橋東詰","province":"東京都","city":"中央区","address":"東京都中央区日本橋小網町7-2","lat":35.68210712,"lon":139.78100152},{"name":"築地四丁目","province":"東京都","city":"中央区","address":"東京都中央区築地3丁目16-12","lat":35.66649186,"lon":139.7709998},{"name":"数寄屋橋","province":"東京都","city":"中央区","address":"東京都中央区銀座4丁目1-2","lat":35.67281041,"lon":139.76328075},{"name":"入船橋","province":"東京都","city":"中央区","address":"東京都中央区新富2丁目14-6","lat":35.67041376,"lon":139.77486875},{"name":"土橋","province":"東京都","city":"中央区","address":"東京都中央区銀座8丁目3-7","lat":35.66870796,"lon":139.75892294},{"name":"聖路加病院前","province":"東京都","city":"中央区","address":"東京都中央区明石町12-1","lat":35.66657812,"lon":139.77679376},{"name":"築地警察署前","province":"東京都","city":"中央区","address":"東京都中央区築地1丁目6","lat":35.67027478,"lon":139.77131348},{"name":"築地暁橋","province":"東京都","city":"中央区","address":"東京都中央区明石町11-15","lat":35.66711412,"lon":139.77481056},{"name":"聖路加ガーデン前","province":"東京都","city":"中央区","address":"東京都中央区明石町13-1","lat":35.66615041,"lon":139.77768536},{"name":"明石小学校前","province":"東京都","city":"中央区","address":"東京都中央区明石町9-1","lat":35.66741137,"lon":139.77705481},{"name":"月島三丁目","province":"東京都","city":"中央区","address":"東京都中央区月島1丁目27-9","lat":35.66316198,"lon":139.78207955},{"name":"勝どき駅前","province":"東京都","city":"中央区","address":"東京都中央区勝どき1丁目7-1","lat":35.65987332,"lon":139.77761338},{"name":"初見橋","province":"東京都","city":"中央区","address":"東京都中央区佃2丁目17-8","lat":35.664723,"lon":139.7848487},{"name":"新月橋","province":"東京都","city":"中央区","address":"東京都中央区月島1丁目2-9","lat":35.66522013,"lon":139.78346268},{"name":"月島出張所前","province":"東京都","city":"中央区","address":"東京都中央区月島3丁目12-5","lat":35.66231205,"lon":139.78151296},{"name":"晴海二丁目","province":"東京都","city":"中央区","address":"東京都中央区晴海1丁目8-10","lat":35.65637941,"lon":139.78234084},{"name":"晴月橋南","province":"東京都","city":"中央区","address":"東京都中央区晴海1丁目6","lat":35.65872641,"lon":139.78401006},{"name":"佃二丁目北","province":"東京都","city":"中央区","address":"東京都中央区佃2丁目11","lat":35.66661448,"lon":139.78540973},{"name":"晴海給水所","province":"東京都","city":"中央区","address":"東京都中央区晴海1丁目6-3","lat":35.65852366,"lon":139.78411284},{"name":"区立あかつき公園","province":"東京都","city":"中央区","address":"東京都中央区築地7丁目19-1","lat":35.66666142,"lon":139.7758105},{"name":"区立堀留児童公園","province":"東京都","city":"中央区","address":"東京都中央区日本橋堀留町1丁目1-16","lat":35.68635386,"lon":139.77931298},{"name":"日本橋式典","province":"東京都","city":"中央区","address":"東京都中央区東日本橋一丁目4番3号","lat":35.690796,"lon":139.786057},{"name":"株式会社三特興業社","province":"東京都","city":"中央区","address":"東京都中央区日本橋茅場町二丁目17番3号","lat":35.678013,"lon":139.779968},{"name":"株式会社グローバルケア","province":"東京都","city":"中央区","address":"東京都中央区佃三丁目3番3号","lat":35.66507,"lon":139.786682},{"name":"有限会社三谷葬儀社","province":"東京都","city":"中央区","address":"東京都中央区月島三丁目7番7号","lat":35.66256,"lon":139.780869},{"name":"室町二丁目","province":"東京都","city":"中央区","address":"東京都中央区日本橋室町1丁目5-5","lat":35.68619816,"lon":139.77438807},{"name":"本町二丁目","province":"東京都","city":"中央区","address":"東京都中央区日本橋本町2丁目5-1","lat":35.68734532,"lon":139.7762047},{"name":"京橋一丁目","province":"東京都","city":"中央区","address":"東京都中央区日本橋3丁目12-2","lat":35.67858507,"lon":139.7743713},{"name":"鍛冶橋","province":"東京都","city":"中央区","address":"東京都中央区八重洲2丁目8-21","lat":35.67695173,"lon":139.7671775},{"name":"室町二丁目第二","province":"東京都","city":"中央区","address":"東京都中央区日本橋室町2丁目4-3","lat":35.68745634,"lon":139.77387974},{"name":"浜町中の橋","province":"東京都","city":"中央区","address":"東京都中央区日本橋浜町2丁目23-7","lat":35.68567645,"lon":139.78778543},{"name":"人形町","province":"東京都","city":"中央区","address":"東京都中央区日本橋人形町3丁目7-13","lat":35.68632617,"lon":139.78191571},{"name":"日本橋支所前","province":"東京都","city":"中央区","address":"東京都中央区日本橋蛎殻町2丁目2-4","lat":35.68279609,"lon":139.78566821},{"name":"東日本橋三丁目","province":"東京都","city":"中央区","address":"東京都中央区東日本橋3丁目8-2","lat":35.69135901,"lon":139.78379343},{"name":"箱崎町","province":"東京都","city":"中央区","address":"東京都中央区日本橋箱崎町41-13","lat":35.68119908,"lon":139.78695424},{"name":"ターミナルビル前","province":"東京都","city":"中央区","address":"東京都中央区日本橋蛎殻町1丁目35-5","lat":35.68174621,"lon":139.78603201},{"name":"隅田川大橋北詰","province":"東京都","city":"中央区","address":"東京都中央区日本橋箱崎町25-9","lat":35.68040193,"lon":139.78695136},{"name":"鎧橋東詰","province":"東京都","city":"中央区","address":"東京都中央区日本橋小網町7-2","lat":35.68210712,"lon":139.78100152},{"name":"築地四丁目","province":"東京都","city":"中央区","address":"東京都中央区築地3丁目16-12","lat":35.66649186,"lon":139.7709998},{"name":"数寄屋橋","province":"東京都","city":"中央区","address":"東京都中央区銀座4丁目1-2","lat":35.67281041,"lon":139.76328075},{"name":"入船橋","province":"東京都","city":"中央区","address":"東京都中央区新富2丁目14-6","lat":35.67041376,"lon":139.77486875},{"name":"土橋","province":"東京都","city":"中央区","address":"東京都中央区銀座8丁目3-7","lat":35.66870796,"lon":139.75892294},{"name":"聖路加病院前","province":"東京都","city":"中央区","address":"東京都中央区明石町12-1","lat":35.66657812,"lon":139.77679376},{"name":"築地警察署前","province":"東京都","city":"中央区","address":"東京都中央区築地1丁目6","lat":35.67027478,"lon":139.77131348},{"name":"築地暁橋","province":"東京都","city":"中央区","address":"東京都中央区明石町11-15","lat":35.66711412,"lon":139.77481056},{"name":"聖路加ガーデン前","province":"東京都","city":"中央区","address":"東京都中央区明石町13-1","lat":35.66615041,"lon":139.77768536},{"name":"明石小学校前","province":"東京都","city":"中央区","address":"東京都中央区明石町9-1","lat":35.66741137,"lon":139.77705481},{"name":"月島三丁目","province":"東京都","city":"中央区","address":"東京都中央区月島1丁目27-9","lat":35.66316198,"lon":139.78207955},{"name":"勝どき駅前","province":"東京都","city":"中央区","address":"東京都中央区勝どき1丁目7-1","lat":35.65987332,"lon":139.77761338},{"name":"初見橋","province":"東京都","city":"中央区","address":"東京都中央区佃2丁目17-8","lat":35.664723,"lon":139.7848487},{"name":"新月橋","province":"東京都","city":"中央区","address":"東京都中央区月島1丁目2-9","lat":35.66522013,"lon":139.78346268},{"name":"月島出張所前","province":"東京都","city":"中央区","address":"東京都中央区月島3丁目12-5","lat":35.66231205,"lon":139.78151296},{"name":"晴海二丁目","province":"東京都","city":"中央区","address":"東京都中央区晴海1丁目8-10","lat":35.65637941,"lon":139.78234084},{"name":"晴月橋南","province":"東京都","city":"中央区","address":"東京都中央区晴海1丁目6","lat":35.65872641,"lon":139.78401006},{"name":"佃二丁目北","province":"東京都","city":"中央区","address":"東京都中央区佃2丁目11","lat":35.66661448,"lon":139.78540973},{"name":"晴海給水所","province":"東京都","city":"中央区","address":"東京都中央区晴海1丁目6-3","lat":35.65852366,"lon":139.78411284},{"name":"区立あかつき公園","province":"東京都","city":"中央区","address":"東京都中央区築地7丁目19-1","lat":35.66666142,"lon":139.7758105},{"name":"区立堀留児童公園","province":"東京都","city":"中央区","address":"東京都中央区日本橋堀留町1丁目1-16","lat":35.68635386,"lon":139.77931298},{"name":"日本橋式典","province":"東京都","city":"中央区","address":"東京都中央区東日本橋一丁目4番3号","lat":35.690796,"lon":139.786057},{"name":"株式会社三特興業社","province":"東京都","city":"中央区","address":"東京都中央区日本橋茅場町二丁目17番3号","lat":35.678013,"lon":139.779968},{"name":"株式会社グローバルケア","province":"東京都","city":"中央区","address":"東京都中央区佃三丁目3番3号","lat":35.66507,"lon":139.786682},{"name":"有限会社三谷葬儀社","province":"東京都","city":"中央区","address":"東京都中央区月島三丁目7番7号","lat":35.66256,"lon":139.780869},{"name":"室町二丁目","province":"東京都","city":"中央区","address":"東京都中央区日本橋室町1丁目5-5","lat":35.68619816,"lon":139.77438807},{"name":"本町二丁目","province":"東京都","city":"中央区","address":"東京都中央区日本橋本町2丁目5-1","lat":35.68734532,"lon":139.7762047},{"name":"京橋一丁目","province":"東京都","city":"中央区","address":"東京都中央区日本橋3丁目12-2","lat":35.67858507,"lon":139.7743713},{"name":"鍛冶橋","province":"東京都","city":"中央区","address":"東京都中央区八重洲2丁目8-21","lat":35.67695173,"lon":139.7671775},{"name":"室町二丁目第二","province":"東京都","city":"中央区","address":"東京都中央区日本橋室町2丁目4-3","lat":35.68745634,"lon":139.77387974},{"name":"浜町中の橋","province":"東京都","city":"中央区","address":"東京都中央区日本橋浜町2丁目23-7","lat":35.68567645,"lon":139.78778543},{"name":"人形町","province":"東京都","city":"中央区","address":"東京都中央区日本橋人形町3丁目7-13","lat":35.68632617,"lon":139.78191571},{"name":"日本橋支所前","province":"東京都","city":"中央区","address":"東京都中央区日本橋蛎殻町2丁目2-4","lat":35.68279609,"lon":139.78566821},{"name":"東日本橋三丁目","province":"東京都","city":"中央区","address":"東京都中央区東日本橋3丁目8-2","lat":35.69135901,"lon":139.78379343},{"name":"箱崎町","province":"東京都","city":"中央区","address":"東京都中央区日本橋箱崎町41-13","lat":35.68119908,"lon":139.78695424},{"name":"ターミナルビル前","province":"東京都","city":"中央区","address":"東京都中央区日本橋蛎殻町1丁目35-5","lat":35.68174621,"lon":139.78603201},{"name":"隅田川大橋北詰","province":"東京都","city":"中央区","address":"東京都中央区日本橋箱崎町25-9","lat":35.68040193,"lon":139.78695136},{"name":"鎧橋東詰","province":"東京都","city":"中央区","address":"東京都中央区日本橋小網町7-2","lat":35.68210712,"lon":139.78100152},{"name":"築地四丁目","province":"東京都","city":"中央区","address":"東京都中央区築地3丁目16-12","lat":35.66649186,"lon":139.7709998},{"name":"数寄屋橋","province":"東京都","city":"中央区","address":"東京都中央区銀座4丁目1-2","lat":35.67281041,"lon":139.76328075},{"name":"入船橋","province":"東京都","city":"中央区","address":"東京都中央区新富2丁目14-6","lat":35.67041376,"lon":139.77486875},{"name":"土橋","province":"東京都","city":"中央区","address":"東京都中央区銀座8丁目3-7","lat":35.66870796,"lon":139.75892294},{"name":"聖路加病院前","province":"東京都","city":"中央区","address":"東京都中央区明石町12-1","lat":35.66657812,"lon":139.77679376},{"name":"築地警察署前","province":"東京都","city":"中央区","address":"東京都中央区築地1丁目6","lat":35.67027478,"lon":139.77131348},{"name":"築地暁橋","province":"東京都","city":"中央区","address":"東京都中央区明石町11-15","lat":35.66711412,"lon":139.77481056},{"name":"聖路加ガーデン前","province":"東京都","city":"中央区","address":"東京都中央区明石町13-1","lat":35.66615041,"lon":139.77768536},{"name":"明石小学校前","province":"東京都","city":"中央区","address":"東京都中央区明石町9-1","lat":35.66741137,"lon":139.77705481},{"name":"月島三丁目","province":"東京都","city":"中央区","address":"東京都中央区月島1丁目27-9","lat":35.66316198,"lon":139.78207955},{"name":"勝どき駅前","province":"東京都","city":"中央区","address":"東京都中央区勝どき1丁目7-1","lat":35.65987332,"lon":139.77761338},{"name":"初見橋","province":"東京都","city":"中央区","address":"東京都中央区佃2丁目17-8","lat":35.664723,"lon":139.7848487},{"name":"新月橋","province":"東京都","city":"中央区","address":"東京都中央区月島1丁目2-9","lat":35.66522013,"lon":139.78346268},{"name":"月島出張所前","province":"東京都","city":"中央区","address":"東京都中央区月島3丁目12-5","lat":35.66231205,"lon":139.78151296},{"name":"晴海二丁目","province":"東京都","city":"中央区","address":"東京都中央区晴海1丁目8-10","lat":35.65637941,"lon":139.78234084},{"name":"晴月橋南","province":"東京都","city":"中央区","address":"東京都中央区晴海1丁目6","lat":35.65872641,"lon":139.78401006},{"name":"佃二丁目北","province":"東京都","city":"中央区","address":"東京都中央区佃2丁目11","lat":35.66661448,"lon":139.78540973},{"name":"晴海給水所","province":"東京都","city":"中央区","address":"東京都中央区晴海1丁目6-3","lat":35.65852366,"lon":139.78411284},{"name":"区立あかつき公園","province":"東京都","city":"中央区","address":"東京都中央区築地7丁目19-1","lat":35.66666142,"lon":139.7758105},{"name":"区立堀留児童公園","province":"東京都","city":"中央区","address":"東京都中央区日本橋堀留町1丁目1-16","lat":35.68635386,"lon":139.77931298},{"name":"日本橋式典","province":"東京都","city":"中央区","address":"東京都中央区東日本橋一丁目4番3号","lat":35.690796,"lon":139.786057},{"name":"株式会社三特興業社","province":"東京都","city":"中央区","address":"東京都中央区日本橋茅場町二丁目17番3号","lat":35.678013,"lon":139.779968},{"name":"株式会社グローバルケア","province":"東京都","city":"中央区","address":"東京都中央区佃三丁目3番3号","lat":35.66507,"lon":139.786682},{"name":"有限会社三谷葬儀社","province":"東京都","city":"中央区","address":"東京都中央区月島三丁目7番7号","lat":35.66256,"lon":139.780869},{"name":"日本橋式典","province":"東京都","city":"中央区","address":"東京都中央区東日本橋一丁目4番3号","lat":35.690796,"lon":139.786057},{"name":"株式会社三特興業社","province":"東京都","city":"中央区","address":"東京都中央区日本橋茅場町二丁目17番3号","lat":35.678013,"lon":139.779968},{"name":"株式会社グローバルケア","province":"東京都","city":"中央区","address":"東京都中央区佃三丁目3番3号","lat":35.66507,"lon":139.786682},{"name":"有限会社三谷葬儀社","province":"東京都","city":"中央区","address":"東京都中央区月島三丁目7番7号","lat":35.66256,"lon":139.780869},{"name":"日本橋式典","province":"東京都","city":"中央区","address":"東京都中央区東日本橋一丁目4番3号","lat":35.690796,"lon":139.786057},{"name":"株式会社三特興業社","province":"東京都","city":"中央区","address":"東京都中央区日本橋茅場町二丁目17番3号","lat":35.678013,"lon":139.779968},{"name":"株式会社グローバルケア","province":"東京都","city":"中央区","address":"東京都中央区佃三丁目3番3号","lat":35.66507,"lon":139.786682},{"name":"有限会社三谷葬儀社","province":"東京都","city":"中央区","address":"東京都中央区月島三丁目7番7号","lat":35.66256,"lon":139.780869},{"name":"日本橋式典","province":"東京都","city":"中央区","address":"東京都中央区東日本橋一丁目4番3号","lat":35.690796,"lon":139.786057},{"name":"株式会社三特興業社","province":"東京都","city":"中央区","address":"東京都中央区日本橋茅場町二丁目17番3号","lat":35.678013,"lon":139.779968},{"name":"株式会社グローバルケア","province":"東京都","city":"中央区","address":"東京都中央区佃三丁目3番3号","lat":35.66507,"lon":139.786682},{"name":"有限会社三谷葬儀社","province":"東京都","city":"中央区","address":"東京都中央区月島三丁目7番7号","lat":35.66256,"lon":139.780869},{"name":"日本橋式典","province":"東京都","city":"中央区","address":"東京都中央区東日本橋一丁目4番3号","lat":35.690796,"lon":139.786057},{"name":"株式会社三特興業社","province":"東京都","city":"中央区","address":"東京都中央区日本橋茅場町二丁目17番3号","lat":35.678013,"lon":139.779968},{"name":"株式会社グローバルケア","province":"東京都","city":"中央区","address":"東京都中央区佃三丁目3番3号","lat":35.66507,"lon":139.786682},{"name":"有限会社三谷葬儀社","province":"東京都","city":"中央区","address":"東京都中央区月島三丁目7番7号","lat":35.66256,"lon":139.780869},{"name":"日本橋式典","province":"東京都","city":"中央区","address":"東京都中央区東日本橋一丁目4番3号","lat":35.690796,"lon":139.786057},{"name":"株式会社三特興業社","province":"東京都","city":"中央区","address":"東京都中央区日本橋茅場町二丁目17番3号","lat":35.678013,"lon":139.779968},{"name":"株式会社グローバルケア","province":"東京都","city":"中央区","address":"東京都中央区佃三丁目3番3号","lat":35.66507,"lon":139.786682},{"name":"有限会社三谷葬儀社","province":"東京都","city":"中央区","address":"東京都中央区月島三丁目7番7号","lat":35.66256,"lon":139.780869},{"name":"日本橋式典","province":"東京都","city":"中央区","address":"東京都中央区東日本橋一丁目4番3号","lat":35.690796,"lon":139.786057},{"name":"株式会社三特興業社","province":"東京都","city":"中央区","address":"東京都中央区日本橋茅場町二丁目17番3号","lat":35.678013,"lon":139.779968},{"name":"株式会社グローバルケア","province":"東京都","city":"中央区","address":"東京都中央区佃三丁目3番3号","lat":35.66507,"lon":139.786682},{"name":"有限会社三谷葬儀社","province":"東京都","city":"中央区","address":"東京都中央区月島三丁目7番7号","lat":35.66256,"lon":139.780869},{"name":"日本橋式典","province":"東京都","city":"中央区","address":"東京都中央区東日本橋一丁目4番3号","lat":35.690796,"lon":139.786057},{"name":"株式会社三特興業社","province":"東京都","city":"中央区","address":"東京都中央区日本橋茅場町二丁目17番3号","lat":35.678013,"lon":139.779968},{"name":"株式会社グローバルケア","province":"東京都","city":"中央区","address":"東京都中央区佃三丁目3番3号","lat":35.66507,"lon":139.786682},{"name":"有限会社三谷葬儀社","province":"東京都","city":"中央区","address":"東京都中央区月島三丁目7番7号","lat":35.66256,"lon":139.780869},{"name":"日本橋式典","province":"東京都","city":"中央区","address":"東京都中央区東日本橋一丁目4番3号","lat":35.690796,"lon":139.786057},{"name":"株式会社三特興業社","province":"東京都","city":"中央区","address":"東京都中央区日本橋茅場町二丁目17番3号","lat":35.678013,"lon":139.779968},{"name":"株式会社グローバルケア","province":"東京都","city":"中央区","address":"東京都中央区佃三丁目3番3号","lat":35.66507,"lon":139.786682},{"name":"有限会社三谷葬儀社","province":"東京都","city":"中央区","address":"東京都中央区月島三丁目7番7号","lat":35.66256,"lon":139.780869},{"name":"日本橋式典","province":"東京都","city":"中央区","address":"東京都中央区東日本橋一丁目4番3号","lat":35.690796,"lon":139.786057},{"name":"株式会社三特興業社","province":"東京都","city":"中央区","address":"東京都中央区日本橋茅場町二丁目17番3号","lat":35.678013,"lon":139.779968},{"name":"株式会社グローバルケア","province":"東京都","city":"中央区","address":"東京都中央区佃三丁目3番3号","lat":35.66507,"lon":139.786682},{"name":"有限会社三谷葬儀社","province":"東京都","city":"中央区","address":"東京都中央区月島三丁目7番7号","lat":35.66256,"lon":139.780869},{"name":"日本橋式典","province":"東京都","city":"中央区","address":"東京都中央区東日本橋一丁目4番3号","lat":35.690796,"lon":139.786057},{"name":"株式会社三特興業社","province":"東京都","city":"中央区","address":"東京都中央区日本橋茅場町二丁目17番3号","lat":35.678013,"lon":139.779968},{"name":"株式会社グローバルケア","province":"東京都","city":"中央区","address":"東京都中央区佃三丁目3番3号","lat":35.66507,"lon":139.786682},{"name":"有限会社三谷葬儀社","province":"東京都","city":"中央区","address":"東京都中央区月島三丁目7番7号","lat":35.66256,"lon":139.780869},{"name":"日本橋式典","province":"東京都","city":"中央区","address":"東京都中央区東日本橋一丁目4番3号","lat":35.690796,"lon":139.786057},{"name":"株式会社三特興業社","province":"東京都","city":"中央区","address":"東京都中央区日本橋茅場町二丁目17番3号","lat":35.678013,"lon":139.779968},{"name":"株式会社グローバルケア","province":"東京都","city":"中央区","address":"東京都中央区佃三丁目3番3号","lat":35.66507,"lon":139.786682},{"name":"有限会社三谷葬儀社","province":"東京都","city":"中央区","address":"東京都中央区月島三丁目7番7号","lat":35.66256,"lon":139.780869},{"name":"日本橋式典","province":"東京都","city":"中央区","address":"東京都中央区東日本橋一丁目4番3号","lat":35.690796,"lon":139.786057},{"name":"株式会社三特興業社","province":"東京都","city":"中央区","address":"東京都中央区日本橋茅場町二丁目17番3号","lat":35.678013,"lon":139.779968},{"name":"株式会社グローバルケア","province":"東京都","city":"中央区","address":"東京都中央区佃三丁目3番3号","lat":35.66507,"lon":139.786682},{"name":"有限会社三谷葬儀社","province":"東京都","city":"中央区","address":"東京都中央区月島三丁目7番7号","lat":35.66256,"lon":139.780869},{"name":"日本橋式典","province":"東京都","city":"中央区","address":"東京都中央区東日本橋一丁目4番3号","lat":35.690796,"lon":139.786057},{"name":"株式会社三特興業社","province":"東京都","city":"中央区","address":"東京都中央区日本橋茅場町二丁目17番3号","lat":35.678013,"lon":139.779968},{"name":"株式会社グローバルケア","province":"東京都","city":"中央区","address":"東京都中央区佃三丁目3番3号","lat":35.66507,"lon":139.786682},{"name":"有限会社三谷葬儀社","province":"東京都","city":"中央区","address":"東京都中央区月島三丁目7番7号","lat":35.66256,"lon":139.780869},{"name":"日本橋式典","province":"東京都","city":"中央区","address":"東京都中央区東日本橋一丁目4番3号","lat":35.690796,"lon":139.786057},{"name":"株式会社三特興業社","province":"東京都","city":"中央区","address":"東京都中央区日本橋茅場町二丁目17番3号","lat":35.678013,"lon":139.779968},{"name":"株式会社グローバルケア","province":"東京都","city":"中央区","address":"東京都中央区佃三丁目3番3号","lat":35.66507,"lon":139.786682},{"name":"有限会社三谷葬儀社","province":"東京都","city":"中央区","address":"東京都中央区月島三丁目7番7号","lat":35.66256,"lon":139.780869},{"name":"日本橋式典","province":"東京都","city":"中央区","address":"東京都中央区東日本橋一丁目4番3号","lat":35.690796,"lon":139.786057},{"name":"株式会社三特興業社","province":"東京都","city":"中央区","address":"東京都中央区日本橋茅場町二丁目17番3号","lat":35.678013,"lon":139.779968},{"name":"株式会社グローバルケア","province":"東京都","city":"中央区","address":"東京都中央区佃三丁目3番3号","lat":35.66507,"lon":139.786682},{"name":"有限会社三谷葬儀社","province":"東京都","city":"中央区","address":"東京都中央区月島三丁目7番7号","lat":35.66256,"lon":139.780869},{"name":"日本橋式典","province":"東京都","city":"中央区","address":"東京都中央区東日本橋一丁目4番3号","lat":35.690796,"lon":139.786057},{"name":"株式会社三特興業社","province":"東京都","city":"中央区","address":"東京都中央区日本橋茅場町二丁目17番3号","lat":35.678013,"lon":139.779968},{"name":"株式会社グローバルケア","province":"東京都","city":"中央区","address":"東京都中央区佃三丁目3番3号","lat":35.66507,"lon":139.786682},{"name":"有限会社三谷葬儀社","province":"東京都","city":"中央区","address":"東京都中央区月島三丁目7番7号","lat":35.66256,"lon":139.780869},{"name":"日本橋式典","province":"東京都","city":"中央区","address":"東京都中央区東日本橋一丁目4番3号","lat":35.690796,"lon":139.786057},{"name":"株式会社三特興業社","province":"東京都","city":"中央区","address":"東京都中央区日本橋茅場町二丁目17番3号","lat":35.678013,"lon":139.779968},{"name":"株式会社グローバルケア","province":"東京都","city":"中央区","address":"東京都中央区佃三丁目3番3号","lat":35.66507,"lon":139.786682},{"name":"有限会社三谷葬儀社","province":"東京都","city":"中央区","address":"東京都中央区月島三丁目7番7号","lat":35.66256,"lon":139.780869},{"name":"日本橋式典","province":"東京都","city":"中央区","address":"東京都中央区東日本橋一丁目4番3号","lat":35.690796,"lon":139.786057},{"name":"株式会社三特興業社","province":"東京都","city":"中央区","address":"東京都中央区日本橋茅場町二丁目17番3号","lat":35.678013,"lon":139.779968},{"name":"株式会社グローバルケア","province":"東京都","city":"中央区","address":"東京都中央区佃三丁目3番3号","lat":35.66507,"lon":139.786682},{"name":"有限会社三谷葬儀社","province":"東京都","city":"中央区","address":"東京都中央区月島三丁目7番7号","lat":35.66256,"lon":139.780869},{"name":"日本橋式典","province":"東京都","city":"中央区","address":"東京都中央区東日本橋一丁目4番3号","lat":35.690796,"lon":139.786057},{"name":"株式会社三特興業社","province":"東京都","city":"中央区","address":"東京都中央区日本橋茅場町二丁目17番3号","lat":35.678013,"lon":139.779968},{"name":"株式会社グローバルケア","province":"東京都","city":"中央区","address":"東京都中央区佃三丁目3番3号","lat":35.66507,"lon":139.786682},{"name":"有限会社三谷葬儀社","province":"東京都","city":"中央区","address":"東京都中央区月島三丁目7番7号","lat":35.66256,"lon":139.780869},{"name":"日本橋式典","province":"東京都","city":"中央区","address":"東京都中央区東日本橋一丁目4番3号","lat":35.690796,"lon":139.786057},{"name":"株式会社三特興業社","province":"東京都","city":"中央区","address":"東京都中央区日本橋茅場町二丁目17番3号","lat":35.678013,"lon":139.779968},{"name":"株式会社グローバルケア","province":"東京都","city":"中央区","address":"東京都中央区佃三丁目3番3号","lat":35.66507,"lon":139.786682},{"name":"有限会社三谷葬儀社","province":"東京都","city":"中央区","address":"東京都中央区月島三丁目7番7号","lat":35.66256,"lon":139.780869},{"name":"日本橋式典","province":"東京都","city":"中央区","address":"東京都中央区東日本橋一丁目4番3号","lat":35.690796,"lon":139.786057},{"name":"株式会社三特興業社","province":"東京都","city":"中央区","address":"東京都中央区日本橋茅場町二丁目17番3号","lat":35.678013,"lon":139.779968},{"name":"株式会社グローバルケア","province":"東京都","city":"中央区","address":"東京都中央区佃三丁目3番3号","lat":35.66507,"lon":139.786682},{"name":"有限会社三谷葬儀社","province":"東京都","city":"中央区","address":"東京都中央区月島三丁目7番7号","lat":35.66256,"lon":139.780869},{"name":"日本橋式典","province":"東京都","city":"中央区","address":"東京都中央区東日本橋一丁目4番3号","lat":35.690796,"lon":139.786057},{"name":"株式会社三特興業社","province":"東京都","city":"中央区","address":"東京都中央区日本橋茅場町二丁目17番3号","lat":35.678013,"lon":139.779968},{"name":"株式会社グローバルケア","province":"東京都","city":"中央区","address":"東京都中央区佃三丁目3番3号","lat":35.66507,"lon":139.786682},{"name":"有限会社三谷葬儀社","province":"東京都","city":"中央区","address":"東京都中央区月島三丁目7番7号","lat":35.66256,"lon":139.780869},{"name":"日本橋式典","province":"東京都","city":"中央区","address":"東京都中央区東日本橋一丁目4番3号","lat":35.690796,"lon":139.786057},{"name":"株式会社三特興業社","province":"東京都","city":"中央区","address":"東京都中央区日本橋茅場町二丁目17番3号","lat":35.678013,"lon":139.779968},{"name":"株式会社グローバルケア","province":"東京都","city":"中央区","address":"東京都中央区佃三丁目3番3号","lat":35.66507,"lon":139.786682},{"name":"有限会社三谷葬儀社","province":"東京都","city":"中央区","address":"東京都中央区月島三丁目7番7号","lat":35.66256,"lon":139.780869},{"name":"日本橋式典","province":"東京都","city":"中央区","address":"東京都中央区東日本橋一丁目4番3号","lat":35.690796,"lon":139.786057},{"name":"株式会社三特興業社","province":"東京都","city":"中央区","address":"東京都中央区日本橋茅場町二丁目17番3号","lat":35.678013,"lon":139.779968},{"name":"株式会社グローバルケア","province":"東京都","city":"中央区","address":"東京都中央区佃三丁目3番3号","lat":35.66507,"lon":139.786682},{"name":"有限会社三谷葬儀社","province":"東京都","city":"中央区","address":"東京都中央区月島三丁目7番7号","lat":35.66256,"lon":139.780869},{"name":"日本橋式典","province":"東京都","city":"中央区","address":"東京都中央区東日本橋一丁目4番3号","lat":35.690796,"lon":139.786057},{"name":"株式会社三特興業社","province":"東京都","city":"中央区","address":"東京都中央区日本橋茅場町二丁目17番3号","lat":35.678013,"lon":139.779968},{"name":"株式会社グローバルケア","province":"東京都","city":"中央区","address":"東京都中央区佃三丁目3番3号","lat":35.66507,"lon":139.786682},{"name":"有限会社三谷葬儀社","province":"東京都","city":"中央区","address":"東京都中央区月島三丁目7番7号","lat":35.66256,"lon":139.780869},{"name":"日本橋式典","province":"東京都","city":"中央区","address":"東京都中央区東日本橋一丁目4番3号","lat":35.690796,"lon":139.786057},{"name":"株式会社三特興業社","province":"東京都","city":"中央区","address":"東京都中央区日本橋茅場町二丁目17番3号","lat":35.678013,"lon":139.779968},{"name":"株式会社グローバルケア","province":"東京都","city":"中央区","address":"東京都中央区佃三丁目3番3号","lat":35.66507,"lon":139.786682},{"name":"有限会社三谷葬儀社","province":"東京都","city":"中央区","address":"東京都中央区月島三丁目7番7号","lat":35.66256,"lon":139.780869},{"name":"日本橋式典","province":"東京都","city":"中央区","address":"東京都中央区東日本橋一丁目4番3号","lat":35.690796,"lon":139.786057},{"name":"株式会社三特興業社","province":"東京都","city":"中央区","address":"東京都中央区日本橋茅場町二丁目17番3号","lat":35.678013,"lon":139.779968},{"name":"株式会社グローバルケア","province":"東京都","city":"中央区","address":"東京都中央区佃三丁目3番3号","lat":35.66507,"lon":139.786682},{"name":"有限会社三谷葬儀社","province":"東京都","city":"中央区","address":"東京都中央区月島三丁目7番7号","lat":35.66256,"lon":139.780869},{"name":"日本橋式典","province":"東京都","city":"中央区","address":"東京都中央区東日本橋一丁目4番3号","lat":35.690796,"lon":139.786057},{"name":"株式会社三特興業社","province":"東京都","city":"中央区","address":"東京都中央区日本橋茅場町二丁目17番3号","lat":35.678013,"lon":139.779968},{"name":"株式会社グローバルケア","province":"東京都","city":"中央区","address":"東京都中央区佃三丁目3番3号","lat":35.66507,"lon":139.786682},{"name":"有限会社三谷葬儀社","province":"東京都","city":"中央区","address":"東京都中央区月島三丁目7番7号","lat":35.66256,"lon":139.780869},{"name":"日本橋式典","province":"東京都","city":"中央区","address":"東京都中央区東日本橋一丁目4番3号","lat":35.690796,"lon":139.786057},{"name":"株式会社三特興業社","province":"東京都","city":"中央区","address":"東京都中央区日本橋茅場町二丁目17番3号","lat":35.678013,"lon":139.779968},{"name":"株式会社グローバルケア","province":"東京都","city":"中央区","address":"東京都中央区佃三丁目3番3号","lat":35.66507,"lon":139.786682},{"name":"有限会社三谷葬儀社","province":"東京都","city":"中央区","address":"東京都中央区月島三丁目7番7号","lat":35.66256,"lon":139.780869},{"name":"日本橋式典","province":"東京都","city":"中央区","address":"東京都中央区東日本橋一丁目4番3号","lat":35.690796,"lon":139.786057},{"name":"株式会社三特興業社","province":"東京都","city":"中央区","address":"東京都中央区日本橋茅場町二丁目17番3号","lat":35.678013,"lon":139.779968},{"name":"株式会社グローバルケア","province":"東京都","city":"中央区","address":"東京都中央区佃三丁目3番3号","lat":35.66507,"lon":139.786682},{"name":"有限会社三谷葬儀社","province":"東京都","city":"中央区","address":"東京都中央区月島三丁目7番7号","lat":35.66256,"lon":139.780869},{"name":"日本橋式典","province":"東京都","city":"中央区","address":"東京都中央区東日本橋一丁目4番3号","lat":35.690796,"lon":139.786057},{"name":"株式会社三特興業社","province":"東京都","city":"中央区","address":"東京都中央区日本橋茅場町二丁目17番3号","lat":35.678013,"lon":139.779968},{"name":"株式会社グローバルケア","province":"東京都","city":"中央区","address":"東京都中央区佃三丁目3番3号","lat":35.66507,"lon":139.786682},{"name":"有限会社三谷葬儀社","province":"東京都","city":"中央区","address":"東京都中央区月島三丁目7番7号","lat":35.66256,"lon":139.780869},{"name":"日本橋式典","province":"東京都","city":"中央区","address":"東京都中央区東日本橋一丁目4番3号","lat":35.690796,"lon":139.786057},{"name":"株式会社三特興業社","province":"東京都","city":"中央区","address":"東京都中央区日本橋茅場町二丁目17番3号","lat":35.678013,"lon":139.779968},{"name":"株式会社グローバルケア","province":"東京都","city":"中央区","address":"東京都中央区佃三丁目3番3号","lat":35.66507,"lon":139.786682},{"name":"有限会社三谷葬儀社","province":"東京都","city":"中央区","address":"東京都中央区月島三丁目7番7号","lat":35.66256,"lon":139.780869}]}