{"keyword":"構築","data":[{"name":"室町二丁目","province":"東京都","city":"中央区","address":"東京都中央区日本橋室町1丁目5-5","lat":35.68619816,"lon":139.77438807},{"name":"本町二丁目","province":"東京都","city":"中央区","address":"東京都中央区日本橋本町2丁目5-1","lat":35.68734532,"lon":139.7762047},{"name":"京橋一丁目","province":"東京都","city":"中央区","address":"東京都中央区日本橋3丁目12-2","lat":35.67858507,"lon":139.7743713},{"name":"鍛冶橋","province":"東京都","city":"中央区","address":"東京都中央区八重洲2丁目8-21","lat":35.67695173,"lon":139.7671775},{"name":"室町二丁目第二","province":"東京都","city":"中央区","address":"東京都中央区日本橋室町2丁目4-3","lat":35.68745634,"lon":139.77387974},{"name":"浜町中の橋","province":"東京都","city":"中央区","address":"東京都中央区日本橋浜町2丁目23-7","lat":35.68567645,"lon":139.78778543},{"name":"人形町","province":"東京都","city":"中央区","address":"東京都中央区日本橋人形町3丁目7-13","lat":35.68632617,"lon":139.78191571},{"name":"日本橋支所前","province":"東京都","city":"中央区","address":"東京都中央区日本橋蛎殻町2丁目2-4","lat":35.68279609,"lon":139.78566821},{"name":"東日本橋三丁目","province":"東京都","city":"中央区","address":"東京都中央区東日本橋3丁目8-2","lat":35.69135901,"lon":139.78379343},{"name":"箱崎町","province":"東京都","city":"中央区","address":"東京都中央区日本橋箱崎町41-13","lat":35.68119908,"lon":139.78695424},{"name":"ターミナルビル前","province":"東京都","city":"中央区","address":"東京都中央区日本橋蛎殻町1丁目35-5","lat":35.68174621,"lon":139.78603201},{"name":"隅田川大橋北詰","province":"東京都","city":"中央区","address":"東京都中央区日本橋箱崎町25-9","lat":35.68040193,"lon":139.78695136},{"name":"鎧橋東詰","province":"東京都","city":"中央区","address":"東京都中央区日本橋小網町7-2","lat":35.68210712,"lon":139.78100152},{"name":"築地四丁目","province":"東京都","city":"中央区","address":"東京都中央区築地3丁目16-12","lat":35.66649186,"lon":139.7709998},{"name":"数寄屋橋","province":"東京都","city":"中央区","address":"東京都中央区銀座4丁目1-2","lat":35.67281041,"lon":139.76328075},{"name":"入船橋","province":"東京都","city":"中央区","address":"東京都中央区新富2丁目14-6","lat":35.67041376,"lon":139.77486875},{"name":"土橋","province":"東京都","city":"中央区","address":"東京都中央区銀座8丁目3-7","lat":35.66870796,"lon":139.75892294},{"name":"聖路加病院前","province":"東京都","city":"中央区","address":"東京都中央区明石町12-1","lat":35.66657812,"lon":139.77679376},{"name":"築地警察署前","province":"東京都","city":"中央区","address":"東京都中央区築地1丁目6","lat":35.67027478,"lon":139.77131348},{"name":"築地暁橋","province":"東京都","city":"中央区","address":"東京都中央区明石町11-15","lat":35.66711412,"lon":139.77481056},{"name":"聖路加ガーデン前","province":"東京都","city":"中央区","address":"東京都中央区明石町13-1","lat":35.66615041,"lon":139.77768536},{"name":"明石小学校前","province":"東京都","city":"中央区","address":"東京都中央区明石町9-1","lat":35.66741137,"lon":139.77705481},{"name":"月島三丁目","province":"東京都","city":"中央区","address":"東京都中央区月島1丁目27-9","lat":35.66316198,"lon":139.78207955},{"name":"勝どき駅前","province":"東京都","city":"中央区","address":"東京都中央区勝どき1丁目7-1","lat":35.65987332,"lon":139.77761338},{"name":"初見橋","province":"東京都","city":"中央区","address":"東京都中央区佃2丁目17-8","lat":35.664723,"lon":139.7848487},{"name":"新月橋","province":"東京都","city":"中央区","address":"東京都中央区月島1丁目2-9","lat":35.66522013,"lon":139.78346268},{"name":"月島出張所前","province":"東京都","city":"中央区","address":"東京都中央区月島3丁目12-5","lat":35.66231205,"lon":139.78151296},{"name":"晴海二丁目","province":"東京都","city":"中央区","address":"東京都中央区晴海1丁目8-10","lat":35.65637941,"lon":139.78234084},{"name":"晴月橋南","province":"東京都","city":"中央区","address":"東京都中央区晴海1丁目6","lat":35.65872641,"lon":139.78401006},{"name":"佃二丁目北","province":"東京都","city":"中央区","address":"東京都中央区佃2丁目11","lat":35.66661448,"lon":139.78540973},{"name":"三井記念美術館","province":"東京都","city":"中央区","address":"中央区日本橋室町2-1-1三井会館7階","lat":35.686293,"lon":139.772996},{"name":"東京都味噌工業協同組合","province":"東京都","city":"中央区","address":"東京都中央区日本橋浜町2丁目16-5","lat":35.68747342,"lon":139.78640757},{"name":"全国味噌工業協同組合連合会","province":"東京都","city":"中央区","address":"東京都中央区新川1丁目26-19","lat":35.67648277,"lon":139.78356776},{"name":"日本醤油協会","province":"東京都","city":"中央区","address":"東京都中央区日本橋小網町3-11","lat":35.68117393,"lon":139.7826819},{"name":"晴海給水所","province":"東京都","city":"中央区","address":"東京都中央区晴海1丁目6-3","lat":35.65852366,"lon":139.78411284},{"name":"区立あかつき公園","province":"東京都","city":"中央区","address":"東京都中央区築地7丁目19-1","lat":35.66666142,"lon":139.7758105},{"name":"区立堀留児童公園","province":"東京都","city":"中央区","address":"東京都中央区日本橋堀留町1丁目1-16","lat":35.68635386,"lon":139.77931298},{"name":"東京都味噌工業協同組合","province":"東京都","city":"中央区","address":"東京都中央区日本橋浜町2丁目16-5","lat":35.68747342,"lon":139.78640757},{"name":"全国味噌工業協同組合連合会","province":"東京都","city":"中央区","address":"東京都中央区新川1丁目26-19","lat":35.67648277,"lon":139.78356776},{"name":"月島ふ頭","province":"東京都","city":"中央区","address":"東京都中央区豊海町","lat":35.65314056,"lon":139.77090583},{"name":"常盤橋","province":"東京都","city":"中央区","address":"東京都中央区日本橋本石町2丁目1","lat":35.6869841,"lon":139.77150202},{"name":"第一方面交通機動隊","province":"東京都","city":"中央区","address":"中央区晴海1-1-24","lat":35.66121,"lon":139.7874},{"name":"中央警察署","province":"東京都","city":"中央区","address":"中央区日本橋兜町14-2","lat":35.68044,"lon":139.7771},{"name":"月島警察署","province":"東京都","city":"中央区","address":"中央区勝どき6-7-19","lat":35.65475,"lon":139.7715},{"name":"築地警察署","province":"東京都","city":"中央区","address":"中央区築地1-6-1","lat":35.67025,"lon":139.7714},{"name":"久松警察署","province":"東京都","city":"中央区","address":"中央区日本橋久松町8-1","lat":35.68836,"lon":139.7847},{"name":"京橋消防署","province":"東京都","city":"中央区","address":"中央区京橋3-14-1","lat":35.67439,"lon":139.7723},{"name":"日本橋消防署","province":"東京都","city":"中央区","address":"中央区日本橋兜町14-12","lat":35.68013,"lon":139.7776},{"name":"臨港消防署","province":"東京都","city":"中央区","address":"中央区晴海5-1-27","lat":35.6519,"lon":139.7736},{"name":"中央清掃工場","province":"東京都","city":"中央区","address":"中央区晴海5-2-1","lat":35.65247,"lon":139.7759},{"name":"中央区立月島運動場","province":"東京都","city":"中央区","address":"中央区晴海1-3-29","lat":35.65917,"lon":139.7863},{"name":"新川","province":"東京都","city":"中央区","address":"中央区新川2丁目地先","lat":35.67488,"lon":139.7825},{"name":"明石町","province":"東京都","city":"中央区","address":"中央区明石町地先","lat":35.66779,"lon":139.7771},{"name":"箱崎町","province":"東京都","city":"中央区","address":"中央区日本橋箱崎町地先","lat":35.68021,"lon":139.7854},{"name":"常盤橋","province":"東京都","city":"中央区","address":"東京都中央区日本橋本石町2丁目1","lat":35.6869841,"lon":139.77150202},{"name":"室町二丁目","province":"東京都","city":"中央区","address":"東京都中央区日本橋室町1丁目5-5","lat":35.68619816,"lon":139.77438807},{"name":"本町二丁目","province":"東京都","city":"中央区","address":"東京都中央区日本橋本町2丁目5-1","lat":35.68734532,"lon":139.7762047},{"name":"京橋一丁目","province":"東京都","city":"中央区","address":"東京都中央区日本橋3丁目12-2","lat":35.67858507,"lon":139.7743713},{"name":"鍛冶橋","province":"東京都","city":"中央区","address":"東京都中央区八重洲2丁目8-21","lat":35.67695173,"lon":139.7671775},{"name":"室町二丁目第二","province":"東京都","city":"中央区","address":"東京都中央区日本橋室町2丁目4-3","lat":35.68745634,"lon":139.77387974},{"name":"浜町中の橋","province":"東京都","city":"中央区","address":"東京都中央区日本橋浜町2丁目23-7","lat":35.68567645,"lon":139.78778543},{"name":"人形町","province":"東京都","city":"中央区","address":"東京都中央区日本橋人形町3丁目7-13","lat":35.68632617,"lon":139.78191571},{"name":"日本橋支所前","province":"東京都","city":"中央区","address":"東京都中央区日本橋蛎殻町2丁目2-4","lat":35.68279609,"lon":139.78566821},{"name":"東日本橋三丁目","province":"東京都","city":"中央区","address":"東京都中央区東日本橋3丁目8-2","lat":35.69135901,"lon":139.78379343},{"name":"箱崎町","province":"東京都","city":"中央区","address":"東京都中央区日本橋箱崎町41-13","lat":35.68119908,"lon":139.78695424},{"name":"ターミナルビル前","province":"東京都","city":"中央区","address":"東京都中央区日本橋蛎殻町1丁目35-5","lat":35.68174621,"lon":139.78603201},{"name":"隅田川大橋北詰","province":"東京都","city":"中央区","address":"東京都中央区日本橋箱崎町25-9","lat":35.68040193,"lon":139.78695136},{"name":"鎧橋東詰","province":"東京都","city":"中央区","address":"東京都中央区日本橋小網町7-2","lat":35.68210712,"lon":139.78100152},{"name":"築地四丁目","province":"東京都","city":"中央区","address":"東京都中央区築地3丁目16-12","lat":35.66649186,"lon":139.7709998},{"name":"数寄屋橋","province":"東京都","city":"中央区","address":"東京都中央区銀座4丁目1-2","lat":35.67281041,"lon":139.76328075},{"name":"入船橋","province":"東京都","city":"中央区","address":"東京都中央区新富2丁目14-6","lat":35.67041376,"lon":139.77486875},{"name":"土橋","province":"東京都","city":"中央区","address":"東京都中央区銀座8丁目3-7","lat":35.66870796,"lon":139.75892294},{"name":"聖路加病院前","province":"東京都","city":"中央区","address":"東京都中央区明石町12-1","lat":35.66657812,"lon":139.77679376},{"name":"築地警察署前","province":"東京都","city":"中央区","address":"東京都中央区築地1丁目6","lat":35.67027478,"lon":139.77131348},{"name":"築地暁橋","province":"東京都","city":"中央区","address":"東京都中央区明石町11-15","lat":35.66711412,"lon":139.77481056},{"name":"聖路加ガーデン前","province":"東京都","city":"中央区","address":"東京都中央区明石町13-1","lat":35.66615041,"lon":139.77768536},{"name":"明石小学校前","province":"東京都","city":"中央区","address":"東京都中央区明石町9-1","lat":35.66741137,"lon":139.77705481},{"name":"月島三丁目","province":"東京都","city":"中央区","address":"東京都中央区月島1丁目27-9","lat":35.66316198,"lon":139.78207955},{"name":"勝どき駅前","province":"東京都","city":"中央区","address":"東京都中央区勝どき1丁目7-1","lat":35.65987332,"lon":139.77761338},{"name":"初見橋","province":"東京都","city":"中央区","address":"東京都中央区佃2丁目17-8","lat":35.664723,"lon":139.7848487},{"name":"新月橋","province":"東京都","city":"中央区","address":"東京都中央区月島1丁目2-9","lat":35.66522013,"lon":139.78346268},{"name":"月島出張所前","province":"東京都","city":"中央区","address":"東京都中央区月島3丁目12-5","lat":35.66231205,"lon":139.78151296},{"name":"晴海二丁目","province":"東京都","city":"中央区","address":"東京都中央区晴海1丁目8-10","lat":35.65637941,"lon":139.78234084},{"name":"晴月橋南","province":"東京都","city":"中央区","address":"東京都中央区晴海1丁目6","lat":35.65872641,"lon":139.78401006},{"name":"佃二丁目北","province":"東京都","city":"中央区","address":"東京都中央区佃2丁目11","lat":35.66661448,"lon":139.78540973},{"name":"三井記念美術館","province":"東京都","city":"中央区","address":"中央区日本橋室町2-1-1三井会館7階","lat":35.686293,"lon":139.772996},{"name":"東京都味噌工業協同組合","province":"東京都","city":"中央区","address":"東京都中央区日本橋浜町2丁目16-5","lat":35.68747342,"lon":139.78640757},{"name":"全国味噌工業協同組合連合会","province":"東京都","city":"中央区","address":"東京都中央区新川1丁目26-19","lat":35.67648277,"lon":139.78356776},{"name":"日本醤油協会","province":"東京都","city":"中央区","address":"東京都中央区日本橋小網町3-11","lat":35.68117393,"lon":139.7826819},{"name":"晴海給水所","province":"東京都","city":"中央区","address":"東京都中央区晴海1丁目6-3","lat":35.65852366,"lon":139.78411284},{"name":"区立あかつき公園","province":"東京都","city":"中央区","address":"東京都中央区築地7丁目19-1","lat":35.66666142,"lon":139.7758105},{"name":"区立堀留児童公園","province":"東京都","city":"中央区","address":"東京都中央区日本橋堀留町1丁目1-16","lat":35.68635386,"lon":139.77931298},{"name":"東京都味噌工業協同組合","province":"東京都","city":"中央区","address":"東京都中央区日本橋浜町2丁目16-5","lat":35.68747342,"lon":139.78640757},{"name":"全国味噌工業協同組合連合会","province":"東京都","city":"中央区","address":"東京都中央区新川1丁目26-19","lat":35.67648277,"lon":139.78356776},{"name":"月島ふ頭","province":"東京都","city":"中央区","address":"東京都中央区豊海町","lat":35.65314056,"lon":139.77090583},{"name":"常盤橋","province":"東京都","city":"中央区","address":"東京都中央区日本橋本石町2丁目1","lat":35.6869841,"lon":139.77150202},{"name":"第一方面交通機動隊","province":"東京都","city":"中央区","address":"中央区晴海1-1-24","lat":35.66121,"lon":139.7874},{"name":"中央警察署","province":"東京都","city":"中央区","address":"中央区日本橋兜町14-2","lat":35.68044,"lon":139.7771},{"name":"月島警察署","province":"東京都","city":"中央区","address":"中央区勝どき6-7-19","lat":35.65475,"lon":139.7715},{"name":"築地警察署","province":"東京都","city":"中央区","address":"中央区築地1-6-1","lat":35.67025,"lon":139.7714},{"name":"久松警察署","province":"東京都","city":"中央区","address":"中央区日本橋久松町8-1","lat":35.68836,"lon":139.7847},{"name":"京橋消防署","province":"東京都","city":"中央区","address":"中央区京橋3-14-1","lat":35.67439,"lon":139.7723},{"name":"日本橋消防署","province":"東京都","city":"中央区","address":"中央区日本橋兜町14-12","lat":35.68013,"lon":139.7776},{"name":"臨港消防署","province":"東京都","city":"中央区","address":"中央区晴海5-1-27","lat":35.6519,"lon":139.7736},{"name":"常盤橋","province":"東京都","city":"中央区","address":"東京都中央区日本橋本石町2丁目1","lat":35.6869841,"lon":139.77150202},{"name":"室町二丁目","province":"東京都","city":"中央区","address":"東京都中央区日本橋室町1丁目5-5","lat":35.68619816,"lon":139.77438807},{"name":"本町二丁目","province":"東京都","city":"中央区","address":"東京都中央区日本橋本町2丁目5-1","lat":35.68734532,"lon":139.7762047},{"name":"京橋一丁目","province":"東京都","city":"中央区","address":"東京都中央区日本橋3丁目12-2","lat":35.67858507,"lon":139.7743713},{"name":"鍛冶橋","province":"東京都","city":"中央区","address":"東京都中央区八重洲2丁目8-21","lat":35.67695173,"lon":139.7671775},{"name":"室町二丁目第二","province":"東京都","city":"中央区","address":"東京都中央区日本橋室町2丁目4-3","lat":35.68745634,"lon":139.77387974},{"name":"浜町中の橋","province":"東京都","city":"中央区","address":"東京都中央区日本橋浜町2丁目23-7","lat":35.68567645,"lon":139.78778543},{"name":"人形町","province":"東京都","city":"中央区","address":"東京都中央区日本橋人形町3丁目7-13","lat":35.68632617,"lon":139.78191571},{"name":"日本橋支所前","province":"東京都","city":"中央区","address":"東京都中央区日本橋蛎殻町2丁目2-4","lat":35.68279609,"lon":139.78566821},{"name":"東日本橋三丁目","province":"東京都","city":"中央区","address":"東京都中央区東日本橋3丁目8-2","lat":35.69135901,"lon":139.78379343},{"name":"箱崎町","province":"東京都","city":"中央区","address":"東京都中央区日本橋箱崎町41-13","lat":35.68119908,"lon":139.78695424},{"name":"ターミナルビル前","province":"東京都","city":"中央区","address":"東京都中央区日本橋蛎殻町1丁目35-5","lat":35.68174621,"lon":139.78603201},{"name":"隅田川大橋北詰","province":"東京都","city":"中央区","address":"東京都中央区日本橋箱崎町25-9","lat":35.68040193,"lon":139.78695136},{"name":"鎧橋東詰","province":"東京都","city":"中央区","address":"東京都中央区日本橋小網町7-2","lat":35.68210712,"lon":139.78100152},{"name":"築地四丁目","province":"東京都","city":"中央区","address":"東京都中央区築地3丁目16-12","lat":35.66649186,"lon":139.7709998},{"name":"数寄屋橋","province":"東京都","city":"中央区","address":"東京都中央区銀座4丁目1-2","lat":35.67281041,"lon":139.76328075},{"name":"入船橋","province":"東京都","city":"中央区","address":"東京都中央区新富2丁目14-6","lat":35.67041376,"lon":139.77486875},{"name":"土橋","province":"東京都","city":"中央区","address":"東京都中央区銀座8丁目3-7","lat":35.66870796,"lon":139.75892294},{"name":"聖路加病院前","province":"東京都","city":"中央区","address":"東京都中央区明石町12-1","lat":35.66657812,"lon":139.77679376},{"name":"築地警察署前","province":"東京都","city":"中央区","address":"東京都中央区築地1丁目6","lat":35.67027478,"lon":139.77131348},{"name":"築地暁橋","province":"東京都","city":"中央区","address":"東京都中央区明石町11-15","lat":35.66711412,"lon":139.77481056},{"name":"聖路加ガーデン前","province":"東京都","city":"中央区","address":"東京都中央区明石町13-1","lat":35.66615041,"lon":139.77768536},{"name":"明石小学校前","province":"東京都","city":"中央区","address":"東京都中央区明石町9-1","lat":35.66741137,"lon":139.77705481},{"name":"月島三丁目","province":"東京都","city":"中央区","address":"東京都中央区月島1丁目27-9","lat":35.66316198,"lon":139.78207955},{"name":"勝どき駅前","province":"東京都","city":"中央区","address":"東京都中央区勝どき1丁目7-1","lat":35.65987332,"lon":139.77761338},{"name":"初見橋","province":"東京都","city":"中央区","address":"東京都中央区佃2丁目17-8","lat":35.664723,"lon":139.7848487},{"name":"新月橋","province":"東京都","city":"中央区","address":"東京都中央区月島1丁目2-9","lat":35.66522013,"lon":139.78346268},{"name":"月島出張所前","province":"東京都","city":"中央区","address":"東京都中央区月島3丁目12-5","lat":35.66231205,"lon":139.78151296},{"name":"晴海二丁目","province":"東京都","city":"中央区","address":"東京都中央区晴海1丁目8-10","lat":35.65637941,"lon":139.78234084},{"name":"晴月橋南","province":"東京都","city":"中央区","address":"東京都中央区晴海1丁目6","lat":35.65872641,"lon":139.78401006},{"name":"佃二丁目北","province":"東京都","city":"中央区","address":"東京都中央区佃2丁目11","lat":35.66661448,"lon":139.78540973},{"name":"三井記念美術館","province":"東京都","city":"中央区","address":"中央区日本橋室町2-1-1三井会館7階","lat":35.686293,"lon":139.772996},{"name":"東京都味噌工業協同組合","province":"東京都","city":"中央区","address":"東京都中央区日本橋浜町2丁目16-5","lat":35.68747342,"lon":139.78640757},{"name":"全国味噌工業協同組合連合会","province":"東京都","city":"中央区","address":"東京都中央区新川1丁目26-19","lat":35.67648277,"lon":139.78356776},{"name":"日本醤油協会","province":"東京都","city":"中央区","address":"東京都中央区日本橋小網町3-11","lat":35.68117393,"lon":139.7826819},{"name":"晴海給水所","province":"東京都","city":"中央区","address":"東京都中央区晴海1丁目6-3","lat":35.65852366,"lon":139.78411284},{"name":"区立あかつき公園","province":"東京都","city":"中央区","address":"東京都中央区築地7丁目19-1","lat":35.66666142,"lon":139.7758105},{"name":"区立堀留児童公園","province":"東京都","city":"中央区","address":"東京都中央区日本橋堀留町1丁目1-16","lat":35.68635386,"lon":139.77931298},{"name":"東京都味噌工業協同組合","province":"東京都","city":"中央区","address":"東京都中央区日本橋浜町2丁目16-5","lat":35.68747342,"lon":139.78640757},{"name":"全国味噌工業協同組合連合会","province":"東京都","city":"中央区","address":"東京都中央区新川1丁目26-19","lat":35.67648277,"lon":139.78356776},{"name":"月島ふ頭","province":"東京都","city":"中央区","address":"東京都中央区豊海町","lat":35.65314056,"lon":139.77090583},{"name":"常盤橋","province":"東京都","city":"中央区","address":"東京都中央区日本橋本石町2丁目1","lat":35.6869841,"lon":139.77150202},{"name":"第一方面交通機動隊","province":"東京都","city":"中央区","address":"中央区晴海1-1-24","lat":35.66121,"lon":139.7874},{"name":"中央警察署","province":"東京都","city":"中央区","address":"中央区日本橋兜町14-2","lat":35.68044,"lon":139.7771},{"name":"月島警察署","province":"東京都","city":"中央区","address":"中央区勝どき6-7-19","lat":35.65475,"lon":139.7715},{"name":"築地警察署","province":"東京都","city":"中央区","address":"中央区築地1-6-1","lat":35.67025,"lon":139.7714},{"name":"久松警察署","province":"東京都","city":"中央区","address":"中央区日本橋久松町8-1","lat":35.68836,"lon":139.7847},{"name":"京橋消防署","province":"東京都","city":"中央区","address":"中央区京橋3-14-1","lat":35.67439,"lon":139.7723},{"name":"日本橋消防署","province":"東京都","city":"中央区","address":"中央区日本橋兜町14-12","lat":35.68013,"lon":139.7776},{"name":"臨港消防署","province":"東京都","city":"中央区","address":"中央区晴海5-1-27","lat":35.6519,"lon":139.7736},{"name":"常盤橋","province":"東京都","city":"中央区","address":"東京都中央区日本橋本石町2丁目1","lat":35.6869841,"lon":139.77150202},{"name":"室町二丁目","province":"東京都","city":"中央区","address":"東京都中央区日本橋室町1丁目5-5","lat":35.68619816,"lon":139.77438807},{"name":"本町二丁目","province":"東京都","city":"中央区","address":"東京都中央区日本橋本町2丁目5-1","lat":35.68734532,"lon":139.7762047},{"name":"京橋一丁目","province":"東京都","city":"中央区","address":"東京都中央区日本橋3丁目12-2","lat":35.67858507,"lon":139.7743713},{"name":"鍛冶橋","province":"東京都","city":"中央区","address":"東京都中央区八重洲2丁目8-21","lat":35.67695173,"lon":139.7671775},{"name":"室町二丁目第二","province":"東京都","city":"中央区","address":"東京都中央区日本橋室町2丁目4-3","lat":35.68745634,"lon":139.77387974},{"name":"浜町中の橋","province":"東京都","city":"中央区","address":"東京都中央区日本橋浜町2丁目23-7","lat":35.68567645,"lon":139.78778543},{"name":"人形町","province":"東京都","city":"中央区","address":"東京都中央区日本橋人形町3丁目7-13","lat":35.68632617,"lon":139.78191571},{"name":"日本橋支所前","province":"東京都","city":"中央区","address":"東京都中央区日本橋蛎殻町2丁目2-4","lat":35.68279609,"lon":139.78566821},{"name":"東日本橋三丁目","province":"東京都","city":"中央区","address":"東京都中央区東日本橋3丁目8-2","lat":35.69135901,"lon":139.78379343},{"name":"箱崎町","province":"東京都","city":"中央区","address":"東京都中央区日本橋箱崎町41-13","lat":35.68119908,"lon":139.78695424},{"name":"ターミナルビル前","province":"東京都","city":"中央区","address":"東京都中央区日本橋蛎殻町1丁目35-5","lat":35.68174621,"lon":139.78603201},{"name":"隅田川大橋北詰","province":"東京都","city":"中央区","address":"東京都中央区日本橋箱崎町25-9","lat":35.68040193,"lon":139.78695136},{"name":"鎧橋東詰","province":"東京都","city":"中央区","address":"東京都中央区日本橋小網町7-2","lat":35.68210712,"lon":139.78100152},{"name":"築地四丁目","province":"東京都","city":"中央区","address":"東京都中央区築地3丁目16-12","lat":35.66649186,"lon":139.7709998},{"name":"数寄屋橋","province":"東京都","city":"中央区","address":"東京都中央区銀座4丁目1-2","lat":35.67281041,"lon":139.76328075},{"name":"入船橋","province":"東京都","city":"中央区","address":"東京都中央区新富2丁目14-6","lat":35.67041376,"lon":139.77486875},{"name":"土橋","province":"東京都","city":"中央区","address":"東京都中央区銀座8丁目3-7","lat":35.66870796,"lon":139.75892294},{"name":"聖路加病院前","province":"東京都","city":"中央区","address":"東京都中央区明石町12-1","lat":35.66657812,"lon":139.77679376},{"name":"築地警察署前","province":"東京都","city":"中央区","address":"東京都中央区築地1丁目6","lat":35.67027478,"lon":139.77131348},{"name":"築地暁橋","province":"東京都","city":"中央区","address":"東京都中央区明石町11-15","lat":35.66711412,"lon":139.77481056},{"name":"聖路加ガーデン前","province":"東京都","city":"中央区","address":"東京都中央区明石町13-1","lat":35.66615041,"lon":139.77768536},{"name":"明石小学校前","province":"東京都","city":"中央区","address":"東京都中央区明石町9-1","lat":35.66741137,"lon":139.77705481},{"name":"月島三丁目","province":"東京都","city":"中央区","address":"東京都中央区月島1丁目27-9","lat":35.66316198,"lon":139.78207955},{"name":"勝どき駅前","province":"東京都","city":"中央区","address":"東京都中央区勝どき1丁目7-1","lat":35.65987332,"lon":139.77761338},{"name":"初見橋","province":"東京都","city":"中央区","address":"東京都中央区佃2丁目17-8","lat":35.664723,"lon":139.7848487},{"name":"新月橋","province":"東京都","city":"中央区","address":"東京都中央区月島1丁目2-9","lat":35.66522013,"lon":139.78346268},{"name":"月島出張所前","province":"東京都","city":"中央区","address":"東京都中央区月島3丁目12-5","lat":35.66231205,"lon":139.78151296},{"name":"晴海二丁目","province":"東京都","city":"中央区","address":"東京都中央区晴海1丁目8-10","lat":35.65637941,"lon":139.78234084},{"name":"晴月橋南","province":"東京都","city":"中央区","address":"東京都中央区晴海1丁目6","lat":35.65872641,"lon":139.78401006},{"name":"佃二丁目北","province":"東京都","city":"中央区","address":"東京都中央区佃2丁目11","lat":35.66661448,"lon":139.78540973},{"name":"三井記念美術館","province":"東京都","city":"中央区","address":"中央区日本橋室町2-1-1三井会館7階","lat":35.686293,"lon":139.772996},{"name":"東京都味噌工業協同組合","province":"東京都","city":"中央区","address":"東京都中央区日本橋浜町2丁目16-5","lat":35.68747342,"lon":139.78640757},{"name":"全国味噌工業協同組合連合会","province":"東京都","city":"中央区","address":"東京都中央区新川1丁目26-19","lat":35.67648277,"lon":139.78356776},{"name":"日本醤油協会","province":"東京都","city":"中央区","address":"東京都中央区日本橋小網町3-11","lat":35.68117393,"lon":139.7826819},{"name":"晴海給水所","province":"東京都","city":"中央区","address":"東京都中央区晴海1丁目6-3","lat":35.65852366,"lon":139.78411284},{"name":"区立あかつき公園","province":"東京都","city":"中央区","address":"東京都中央区築地7丁目19-1","lat":35.66666142,"lon":139.7758105},{"name":"区立堀留児童公園","province":"東京都","city":"中央区","address":"東京都中央区日本橋堀留町1丁目1-16","lat":35.68635386,"lon":139.77931298},{"name":"東京都味噌工業協同組合","province":"東京都","city":"中央区","address":"東京都中央区日本橋浜町2丁目16-5","lat":35.68747342,"lon":139.78640757},{"name":"全国味噌工業協同組合連合会","province":"東京都","city":"中央区","address":"東京都中央区新川1丁目26-19","lat":35.67648277,"lon":139.78356776},{"name":"月島ふ頭","province":"東京都","city":"中央区","address":"東京都中央区豊海町","lat":35.65314056,"lon":139.77090583},{"name":"常盤橋","province":"東京都","city":"中央区","address":"東京都中央区日本橋本石町2丁目1","lat":35.6869841,"lon":139.77150202},{"name":"第一方面交通機動隊","province":"東京都","city":"中央区","address":"中央区晴海1-1-24","lat":35.66121,"lon":139.7874},{"name":"中央警察署","province":"東京都","city":"中央区","address":"中央区日本橋兜町14-2","lat":35.68044,"lon":139.7771},{"name":"月島警察署","province":"東京都","city":"中央区","address":"中央区勝どき6-7-19","lat":35.65475,"lon":139.7715},{"name":"築地警察署","province":"東京都","city":"中央区","address":"中央区築地1-6-1","lat":35.67025,"lon":139.7714},{"name":"久松警察署","province":"東京都","city":"中央区","address":"中央区日本橋久松町8-1","lat":35.68836,"lon":139.7847},{"name":"京橋消防署","province":"東京都","city":"中央区","address":"中央区京橋3-14-1","lat":35.67439,"lon":139.7723},{"name":"日本橋消防署","province":"東京都","city":"中央区","address":"中央区日本橋兜町14-12","lat":35.68013,"lon":139.7776},{"name":"臨港消防署","province":"東京都","city":"中央区","address":"中央区晴海5-1-27","lat":35.6519,"lon":139.7736},{"name":"常盤橋","province":"東京都","city":"中央区","address":"東京都中央区日本橋本石町2丁目1","lat":35.6869841,"lon":139.77150202},{"name":"室町二丁目","province":"東京都","city":"中央区","address":"東京都中央区日本橋室町1丁目5-5","lat":35.68619816,"lon":139.77438807},{"name":"本町二丁目","province":"東京都","city":"中央区","address":"東京都中央区日本橋本町2丁目5-1","lat":35.68734532,"lon":139.7762047},{"name":"京橋一丁目","province":"東京都","city":"中央区","address":"東京都中央区日本橋3丁目12-2","lat":35.67858507,"lon":139.7743713},{"name":"鍛冶橋","province":"東京都","city":"中央区","address":"東京都中央区八重洲2丁目8-21","lat":35.67695173,"lon":139.7671775},{"name":"室町二丁目第二","province":"東京都","city":"中央区","address":"東京都中央区日本橋室町2丁目4-3","lat":35.68745634,"lon":139.77387974},{"name":"浜町中の橋","province":"東京都","city":"中央区","address":"東京都中央区日本橋浜町2丁目23-7","lat":35.68567645,"lon":139.78778543},{"name":"人形町","province":"東京都","city":"中央区","address":"東京都中央区日本橋人形町3丁目7-13","lat":35.68632617,"lon":139.78191571},{"name":"日本橋支所前","province":"東京都","city":"中央区","address":"東京都中央区日本橋蛎殻町2丁目2-4","lat":35.68279609,"lon":139.78566821},{"name":"東日本橋三丁目","province":"東京都","city":"中央区","address":"東京都中央区東日本橋3丁目8-2","lat":35.69135901,"lon":139.78379343},{"name":"箱崎町","province":"東京都","city":"中央区","address":"東京都中央区日本橋箱崎町41-13","lat":35.68119908,"lon":139.78695424},{"name":"ターミナルビル前","province":"東京都","city":"中央区","address":"東京都中央区日本橋蛎殻町1丁目35-5","lat":35.68174621,"lon":139.78603201},{"name":"隅田川大橋北詰","province":"東京都","city":"中央区","address":"東京都中央区日本橋箱崎町25-9","lat":35.68040193,"lon":139.78695136},{"name":"鎧橋東詰","province":"東京都","city":"中央区","address":"東京都中央区日本橋小網町7-2","lat":35.68210712,"lon":139.78100152},{"name":"築地四丁目","province":"東京都","city":"中央区","address":"東京都中央区築地3丁目16-12","lat":35.66649186,"lon":139.7709998},{"name":"数寄屋橋","province":"東京都","city":"中央区","address":"東京都中央区銀座4丁目1-2","lat":35.67281041,"lon":139.76328075},{"name":"入船橋","province":"東京都","city":"中央区","address":"東京都中央区新富2丁目14-6","lat":35.67041376,"lon":139.77486875},{"name":"土橋","province":"東京都","city":"中央区","address":"東京都中央区銀座8丁目3-7","lat":35.66870796,"lon":139.75892294},{"name":"聖路加病院前","province":"東京都","city":"中央区","address":"東京都中央区明石町12-1","lat":35.66657812,"lon":139.77679376},{"name":"築地警察署前","province":"東京都","city":"中央区","address":"東京都中央区築地1丁目6","lat":35.67027478,"lon":139.77131348},{"name":"築地暁橋","province":"東京都","city":"中央区","address":"東京都中央区明石町11-15","lat":35.66711412,"lon":139.77481056},{"name":"聖路加ガーデン前","province":"東京都","city":"中央区","address":"東京都中央区明石町13-1","lat":35.66615041,"lon":139.77768536},{"name":"明石小学校前","province":"東京都","city":"中央区","address":"東京都中央区明石町9-1","lat":35.66741137,"lon":139.77705481},{"name":"月島三丁目","province":"東京都","city":"中央区","address":"東京都中央区月島1丁目27-9","lat":35.66316198,"lon":139.78207955},{"name":"勝どき駅前","province":"東京都","city":"中央区","address":"東京都中央区勝どき1丁目7-1","lat":35.65987332,"lon":139.77761338},{"name":"初見橋","province":"東京都","city":"中央区","address":"東京都中央区佃2丁目17-8","lat":35.664723,"lon":139.7848487},{"name":"新月橋","province":"東京都","city":"中央区","address":"東京都中央区月島1丁目2-9","lat":35.66522013,"lon":139.78346268},{"name":"月島出張所前","province":"東京都","city":"中央区","address":"東京都中央区月島3丁目12-5","lat":35.66231205,"lon":139.78151296},{"name":"晴海二丁目","province":"東京都","city":"中央区","address":"東京都中央区晴海1丁目8-10","lat":35.65637941,"lon":139.78234084},{"name":"晴月橋南","province":"東京都","city":"中央区","address":"東京都中央区晴海1丁目6","lat":35.65872641,"lon":139.78401006},{"name":"佃二丁目北","province":"東京都","city":"中央区","address":"東京都中央区佃2丁目11","lat":35.66661448,"lon":139.78540973},{"name":"三井記念美術館","province":"東京都","city":"中央区","address":"中央区日本橋室町2-1-1三井会館7階","lat":35.686293,"lon":139.772996},{"name":"東京都味噌工業協同組合","province":"東京都","city":"中央区","address":"東京都中央区日本橋浜町2丁目16-5","lat":35.68747342,"lon":139.78640757},{"name":"全国味噌工業協同組合連合会","province":"東京都","city":"中央区","address":"東京都中央区新川1丁目26-19","lat":35.67648277,"lon":139.78356776},{"name":"日本醤油協会","province":"東京都","city":"中央区","address":"東京都中央区日本橋小網町3-11","lat":35.68117393,"lon":139.7826819},{"name":"晴海給水所","province":"東京都","city":"中央区","address":"東京都中央区晴海1丁目6-3","lat":35.65852366,"lon":139.78411284},{"name":"区立あかつき公園","province":"東京都","city":"中央区","address":"東京都中央区築地7丁目19-1","lat":35.66666142,"lon":139.7758105},{"name":"区立堀留児童公園","province":"東京都","city":"中央区","address":"東京都中央区日本橋堀留町1丁目1-16","lat":35.68635386,"lon":139.77931298},{"name":"東京都味噌工業協同組合","province":"東京都","city":"中央区","address":"東京都中央区日本橋浜町2丁目16-5","lat":35.68747342,"lon":139.78640757},{"name":"全国味噌工業協同組合連合会","province":"東京都","city":"中央区","address":"東京都中央区新川1丁目26-19","lat":35.67648277,"lon":139.78356776},{"name":"月島ふ頭","province":"東京都","city":"中央区","address":"東京都中央区豊海町","lat":35.65314056,"lon":139.77090583},{"name":"常盤橋","province":"東京都","city":"中央区","address":"東京都中央区日本橋本石町2丁目1","lat":35.6869841,"lon":139.77150202},{"name":"第一方面交通機動隊","province":"東京都","city":"中央区","address":"中央区晴海1-1-24","lat":35.66121,"lon":139.7874},{"name":"中央警察署","province":"東京都","city":"中央区","address":"中央区日本橋兜町14-2","lat":35.68044,"lon":139.7771},{"name":"月島警察署","province":"東京都","city":"中央区","address":"中央区勝どき6-7-19","lat":35.65475,"lon":139.7715},{"name":"築地警察署","province":"東京都","city":"中央区","address":"中央区築地1-6-1","lat":35.67025,"lon":139.7714},{"name":"久松警察署","province":"東京都","city":"中央区","address":"中央区日本橋久松町8-1","lat":35.68836,"lon":139.7847},{"name":"京橋消防署","province":"東京都","city":"中央区","address":"中央区京橋3-14-1","lat":35.67439,"lon":139.7723},{"name":"日本橋消防署","province":"東京都","city":"中央区","address":"中央区日本橋兜町14-12","lat":35.68013,"lon":139.7776},{"name":"臨港消防署","province":"東京都","city":"中央区","address":"中央区晴海5-1-27","lat":35.6519,"lon":139.7736},{"name":"常盤橋","province":"東京都","city":"中央区","address":"東京都中央区日本橋本石町2丁目1","lat":35.6869841,"lon":139.77150202},{"name":"室町二丁目","province":"東京都","city":"中央区","address":"東京都中央区日本橋室町1丁目5-5","lat":35.68619816,"lon":139.77438807},{"name":"本町二丁目","province":"東京都","city":"中央区","address":"東京都中央区日本橋本町2丁目5-1","lat":35.68734532,"lon":139.7762047},{"name":"京橋一丁目","province":"東京都","city":"中央区","address":"東京都中央区日本橋3丁目12-2","lat":35.67858507,"lon":139.7743713},{"name":"鍛冶橋","province":"東京都","city":"中央区","address":"東京都中央区八重洲2丁目8-21","lat":35.67695173,"lon":139.7671775},{"name":"室町二丁目第二","province":"東京都","city":"中央区","address":"東京都中央区日本橋室町2丁目4-3","lat":35.68745634,"lon":139.77387974},{"name":"浜町中の橋","province":"東京都","city":"中央区","address":"東京都中央区日本橋浜町2丁目23-7","lat":35.68567645,"lon":139.78778543},{"name":"人形町","province":"東京都","city":"中央区","address":"東京都中央区日本橋人形町3丁目7-13","lat":35.68632617,"lon":139.78191571},{"name":"日本橋支所前","province":"東京都","city":"中央区","address":"東京都中央区日本橋蛎殻町2丁目2-4","lat":35.68279609,"lon":139.78566821},{"name":"東日本橋三丁目","province":"東京都","city":"中央区","address":"東京都中央区東日本橋3丁目8-2","lat":35.69135901,"lon":139.78379343},{"name":"箱崎町","province":"東京都","city":"中央区","address":"東京都中央区日本橋箱崎町41-13","lat":35.68119908,"lon":139.78695424},{"name":"ターミナルビル前","province":"東京都","city":"中央区","address":"東京都中央区日本橋蛎殻町1丁目35-5","lat":35.68174621,"lon":139.78603201},{"name":"隅田川大橋北詰","province":"東京都","city":"中央区","address":"東京都中央区日本橋箱崎町25-9","lat":35.68040193,"lon":139.78695136},{"name":"鎧橋東詰","province":"東京都","city":"中央区","address":"東京都中央区日本橋小網町7-2","lat":35.68210712,"lon":139.78100152},{"name":"築地四丁目","province":"東京都","city":"中央区","address":"東京都中央区築地3丁目16-12","lat":35.66649186,"lon":139.7709998},{"name":"数寄屋橋","province":"東京都","city":"中央区","address":"東京都中央区銀座4丁目1-2","lat":35.67281041,"lon":139.76328075},{"name":"入船橋","province":"東京都","city":"中央区","address":"東京都中央区新富2丁目14-6","lat":35.67041376,"lon":139.77486875},{"name":"土橋","province":"東京都","city":"中央区","address":"東京都中央区銀座8丁目3-7","lat":35.66870796,"lon":139.75892294},{"name":"聖路加病院前","province":"東京都","city":"中央区","address":"東京都中央区明石町12-1","lat":35.66657812,"lon":139.77679376},{"name":"築地警察署前","province":"東京都","city":"中央区","address":"東京都中央区築地1丁目6","lat":35.67027478,"lon":139.77131348},{"name":"築地暁橋","province":"東京都","city":"中央区","address":"東京都中央区明石町11-15","lat":35.66711412,"lon":139.77481056},{"name":"聖路加ガーデン前","province":"東京都","city":"中央区","address":"東京都中央区明石町13-1","lat":35.66615041,"lon":139.77768536},{"name":"明石小学校前","province":"東京都","city":"中央区","address":"東京都中央区明石町9-1","lat":35.66741137,"lon":139.77705481},{"name":"月島三丁目","province":"東京都","city":"中央区","address":"東京都中央区月島1丁目27-9","lat":35.66316198,"lon":139.78207955},{"name":"勝どき駅前","province":"東京都","city":"中央区","address":"東京都中央区勝どき1丁目7-1","lat":35.65987332,"lon":139.77761338},{"name":"初見橋","province":"東京都","city":"中央区","address":"東京都中央区佃2丁目17-8","lat":35.664723,"lon":139.7848487},{"name":"新月橋","province":"東京都","city":"中央区","address":"東京都中央区月島1丁目2-9","lat":35.66522013,"lon":139.78346268},{"name":"月島出張所前","province":"東京都","city":"中央区","address":"東京都中央区月島3丁目12-5","lat":35.66231205,"lon":139.78151296},{"name":"晴海二丁目","province":"東京都","city":"中央区","address":"東京都中央区晴海1丁目8-10","lat":35.65637941,"lon":139.78234084},{"name":"晴月橋南","province":"東京都","city":"中央区","address":"東京都中央区晴海1丁目6","lat":35.65872641,"lon":139.78401006},{"name":"佃二丁目北","province":"東京都","city":"中央区","address":"東京都中央区佃2丁目11","lat":35.66661448,"lon":139.78540973},{"name":"三井記念美術館","province":"東京都","city":"中央区","address":"中央区日本橋室町2-1-1三井会館7階","lat":35.686293,"lon":139.772996},{"name":"東京都味噌工業協同組合","province":"東京都","city":"中央区","address":"東京都中央区日本橋浜町2丁目16-5","lat":35.68747342,"lon":139.78640757},{"name":"全国味噌工業協同組合連合会","province":"東京都","city":"中央区","address":"東京都中央区新川1丁目26-19","lat":35.67648277,"lon":139.78356776},{"name":"日本醤油協会","province":"東京都","city":"中央区","address":"東京都中央区日本橋小網町3-11","lat":35.68117393,"lon":139.7826819},{"name":"晴海給水所","province":"東京都","city":"中央区","address":"東京都中央区晴海1丁目6-3","lat":35.65852366,"lon":139.78411284},{"name":"区立あかつき公園","province":"東京都","city":"中央区","address":"東京都中央区築地7丁目19-1","lat":35.66666142,"lon":139.7758105},{"name":"区立堀留児童公園","province":"東京都","city":"中央区","address":"東京都中央区日本橋堀留町1丁目1-16","lat":35.68635386,"lon":139.77931298},{"name":"東京都味噌工業協同組合","province":"東京都","city":"中央区","address":"東京都中央区日本橋浜町2丁目16-5","lat":35.68747342,"lon":139.78640757},{"name":"全国味噌工業協同組合連合会","province":"東京都","city":"中央区","address":"東京都中央区新川1丁目26-19","lat":35.67648277,"lon":139.78356776},{"name":"月島ふ頭","province":"東京都","city":"中央区","address":"東京都中央区豊海町","lat":35.65314056,"lon":139.77090583},{"name":"常盤橋","province":"東京都","city":"中央区","address":"東京都中央区日本橋本石町2丁目1","lat":35.6869841,"lon":139.77150202},{"name":"第一方面交通機動隊","province":"東京都","city":"中央区","address":"中央区晴海1-1-24","lat":35.66121,"lon":139.7874},{"name":"中央警察署","province":"東京都","city":"中央区","address":"中央区日本橋兜町14-2","lat":35.68044,"lon":139.7771},{"name":"月島警察署","province":"東京都","city":"中央区","address":"中央区勝どき6-7-19","lat":35.65475,"lon":139.7715},{"name":"築地警察署","province":"東京都","city":"中央区","address":"中央区築地1-6-1","lat":35.67025,"lon":139.7714},{"name":"久松警察署","province":"東京都","city":"中央区","address":"中央区日本橋久松町8-1","lat":35.68836,"lon":139.7847},{"name":"京橋消防署","province":"東京都","city":"中央区","address":"中央区京橋3-14-1","lat":35.67439,"lon":139.7723},{"name":"日本橋消防署","province":"東京都","city":"中央区","address":"中央区日本橋兜町14-12","lat":35.68013,"lon":139.7776},{"name":"臨港消防署","province":"東京都","city":"中央区","address":"中央区晴海5-1-27","lat":35.6519,"lon":139.7736},{"name":"常盤橋","province":"東京都","city":"中央区","address":"東京都中央区日本橋本石町2丁目1","lat":35.6869841,"lon":139.77150202},{"name":"室町二丁目","province":"東京都","city":"中央区","address":"東京都中央区日本橋室町1丁目5-5","lat":35.68619816,"lon":139.77438807},{"name":"本町二丁目","province":"東京都","city":"中央区","address":"東京都中央区日本橋本町2丁目5-1","lat":35.68734532,"lon":139.7762047},{"name":"京橋一丁目","province":"東京都","city":"中央区","address":"東京都中央区日本橋3丁目12-2","lat":35.67858507,"lon":139.7743713},{"name":"鍛冶橋","province":"東京都","city":"中央区","address":"東京都中央区八重洲2丁目8-21","lat":35.67695173,"lon":139.7671775},{"name":"室町二丁目第二","province":"東京都","city":"中央区","address":"東京都中央区日本橋室町2丁目4-3","lat":35.68745634,"lon":139.77387974},{"name":"浜町中の橋","province":"東京都","city":"中央区","address":"東京都中央区日本橋浜町2丁目23-7","lat":35.68567645,"lon":139.78778543},{"name":"人形町","province":"東京都","city":"中央区","address":"東京都中央区日本橋人形町3丁目7-13","lat":35.68632617,"lon":139.78191571},{"name":"日本橋支所前","province":"東京都","city":"中央区","address":"東京都中央区日本橋蛎殻町2丁目2-4","lat":35.68279609,"lon":139.78566821},{"name":"東日本橋三丁目","province":"東京都","city":"中央区","address":"東京都中央区東日本橋3丁目8-2","lat":35.69135901,"lon":139.78379343},{"name":"箱崎町","province":"東京都","city":"中央区","address":"東京都中央区日本橋箱崎町41-13","lat":35.68119908,"lon":139.78695424},{"name":"ターミナルビル前","province":"東京都","city":"中央区","address":"東京都中央区日本橋蛎殻町1丁目35-5","lat":35.68174621,"lon":139.78603201},{"name":"隅田川大橋北詰","province":"東京都","city":"中央区","address":"東京都中央区日本橋箱崎町25-9","lat":35.68040193,"lon":139.78695136},{"name":"鎧橋東詰","province":"東京都","city":"中央区","address":"東京都中央区日本橋小網町7-2","lat":35.68210712,"lon":139.78100152},{"name":"築地四丁目","province":"東京都","city":"中央区","address":"東京都中央区築地3丁目16-12","lat":35.66649186,"lon":139.7709998},{"name":"数寄屋橋","province":"東京都","city":"中央区","address":"東京都中央区銀座4丁目1-2","lat":35.67281041,"lon":139.76328075},{"name":"入船橋","province":"東京都","city":"中央区","address":"東京都中央区新富2丁目14-6","lat":35.67041376,"lon":139.77486875},{"name":"土橋","province":"東京都","city":"中央区","address":"東京都中央区銀座8丁目3-7","lat":35.66870796,"lon":139.75892294},{"name":"聖路加病院前","province":"東京都","city":"中央区","address":"東京都中央区明石町12-1","lat":35.66657812,"lon":139.77679376},{"name":"築地警察署前","province":"東京都","city":"中央区","address":"東京都中央区築地1丁目6","lat":35.67027478,"lon":139.77131348},{"name":"築地暁橋","province":"東京都","city":"中央区","address":"東京都中央区明石町11-15","lat":35.66711412,"lon":139.77481056},{"name":"聖路加ガーデン前","province":"東京都","city":"中央区","address":"東京都中央区明石町13-1","lat":35.66615041,"lon":139.77768536},{"name":"明石小学校前","province":"東京都","city":"中央区","address":"東京都中央区明石町9-1","lat":35.66741137,"lon":139.77705481},{"name":"月島三丁目","province":"東京都","city":"中央区","address":"東京都中央区月島1丁目27-9","lat":35.66316198,"lon":139.78207955},{"name":"勝どき駅前","province":"東京都","city":"中央区","address":"東京都中央区勝どき1丁目7-1","lat":35.65987332,"lon":139.77761338},{"name":"初見橋","province":"東京都","city":"中央区","address":"東京都中央区佃2丁目17-8","lat":35.664723,"lon":139.7848487},{"name":"新月橋","province":"東京都","city":"中央区","address":"東京都中央区月島1丁目2-9","lat":35.66522013,"lon":139.78346268},{"name":"月島出張所前","province":"東京都","city":"中央区","address":"東京都中央区月島3丁目12-5","lat":35.66231205,"lon":139.78151296},{"name":"晴海二丁目","province":"東京都","city":"中央区","address":"東京都中央区晴海1丁目8-10","lat":35.65637941,"lon":139.78234084},{"name":"晴月橋南","province":"東京都","city":"中央区","address":"東京都中央区晴海1丁目6","lat":35.65872641,"lon":139.78401006},{"name":"佃二丁目北","province":"東京都","city":"中央区","address":"東京都中央区佃2丁目11","lat":35.66661448,"lon":139.78540973},{"name":"三井記念美術館","province":"東京都","city":"中央区","address":"中央区日本橋室町2-1-1三井会館7階","lat":35.686293,"lon":139.772996},{"name":"東京都味噌工業協同組合","province":"東京都","city":"中央区","address":"東京都中央区日本橋浜町2丁目16-5","lat":35.68747342,"lon":139.78640757},{"name":"全国味噌工業協同組合連合会","province":"東京都","city":"中央区","address":"東京都中央区新川1丁目26-19","lat":35.67648277,"lon":139.78356776},{"name":"日本醤油協会","province":"東京都","city":"中央区","address":"東京都中央区日本橋小網町3-11","lat":35.68117393,"lon":139.7826819},{"name":"晴海給水所","province":"東京都","city":"中央区","address":"東京都中央区晴海1丁目6-3","lat":35.65852366,"lon":139.78411284},{"name":"区立あかつき公園","province":"東京都","city":"中央区","address":"東京都中央区築地7丁目19-1","lat":35.66666142,"lon":139.7758105},{"name":"区立堀留児童公園","province":"東京都","city":"中央区","address":"東京都中央区日本橋堀留町1丁目1-16","lat":35.68635386,"lon":139.77931298},{"name":"東京都味噌工業協同組合","province":"東京都","city":"中央区","address":"東京都中央区日本橋浜町2丁目16-5","lat":35.68747342,"lon":139.78640757},{"name":"全国味噌工業協同組合連合会","province":"東京都","city":"中央区","address":"東京都中央区新川1丁目26-19","lat":35.67648277,"lon":139.78356776},{"name":"月島ふ頭","province":"東京都","city":"中央区","address":"東京都中央区豊海町","lat":35.65314056,"lon":139.77090583},{"name":"常盤橋","province":"東京都","city":"中央区","address":"東京都中央区日本橋本石町2丁目1","lat":35.6869841,"lon":139.77150202},{"name":"第一方面交通機動隊","province":"東京都","city":"中央区","address":"中央区晴海1-1-24","lat":35.66121,"lon":139.7874},{"name":"中央警察署","province":"東京都","city":"中央区","address":"中央区日本橋兜町14-2","lat":35.68044,"lon":139.7771},{"name":"月島警察署","province":"東京都","city":"中央区","address":"中央区勝どき6-7-19","lat":35.65475,"lon":139.7715},{"name":"築地警察署","province":"東京都","city":"中央区","address":"中央区築地1-6-1","lat":35.67025,"lon":139.7714},{"name":"久松警察署","province":"東京都","city":"中央区","address":"中央区日本橋久松町8-1","lat":35.68836,"lon":139.7847},{"name":"京橋消防署","province":"東京都","city":"中央区","address":"中央区京橋3-14-1","lat":35.67439,"lon":139.7723},{"name":"日本橋消防署","province":"東京都","city":"中央区","address":"中央区日本橋兜町14-12","lat":35.68013,"lon":139.7776},{"name":"臨港消防署","province":"東京都","city":"中央区","address":"中央区晴海5-1-27","lat":35.6519,"lon":139.7736},{"name":"常盤橋","province":"東京都","city":"中央区","address":"東京都中央区日本橋本石町2丁目1","lat":35.6869841,"lon":139.77150202},{"name":"室町二丁目","province":"東京都","city":"中央区","address":"東京都中央区日本橋室町1丁目5-5","lat":35.68619816,"lon":139.77438807},{"name":"本町二丁目","province":"東京都","city":"中央区","address":"東京都中央区日本橋本町2丁目5-1","lat":35.68734532,"lon":139.7762047},{"name":"京橋一丁目","province":"東京都","city":"中央区","address":"東京都中央区日本橋3丁目12-2","lat":35.67858507,"lon":139.7743713},{"name":"鍛冶橋","province":"東京都","city":"中央区","address":"東京都中央区八重洲2丁目8-21","lat":35.67695173,"lon":139.7671775},{"name":"室町二丁目第二","province":"東京都","city":"中央区","address":"東京都中央区日本橋室町2丁目4-3","lat":35.68745634,"lon":139.77387974},{"name":"浜町中の橋","province":"東京都","city":"中央区","address":"東京都中央区日本橋浜町2丁目23-7","lat":35.68567645,"lon":139.78778543},{"name":"人形町","province":"東京都","city":"中央区","address":"東京都中央区日本橋人形町3丁目7-13","lat":35.68632617,"lon":139.78191571},{"name":"日本橋支所前","province":"東京都","city":"中央区","address":"東京都中央区日本橋蛎殻町2丁目2-4","lat":35.68279609,"lon":139.78566821},{"name":"東日本橋三丁目","province":"東京都","city":"中央区","address":"東京都中央区東日本橋3丁目8-2","lat":35.69135901,"lon":139.78379343},{"name":"箱崎町","province":"東京都","city":"中央区","address":"東京都中央区日本橋箱崎町41-13","lat":35.68119908,"lon":139.78695424},{"name":"ターミナルビル前","province":"東京都","city":"中央区","address":"東京都中央区日本橋蛎殻町1丁目35-5","lat":35.68174621,"lon":139.78603201},{"name":"隅田川大橋北詰","province":"東京都","city":"中央区","address":"東京都中央区日本橋箱崎町25-9","lat":35.68040193,"lon":139.78695136},{"name":"鎧橋東詰","province":"東京都","city":"中央区","address":"東京都中央区日本橋小網町7-2","lat":35.68210712,"lon":139.78100152},{"name":"築地四丁目","province":"東京都","city":"中央区","address":"東京都中央区築地3丁目16-12","lat":35.66649186,"lon":139.7709998},{"name":"数寄屋橋","province":"東京都","city":"中央区","address":"東京都中央区銀座4丁目1-2","lat":35.67281041,"lon":139.76328075},{"name":"入船橋","province":"東京都","city":"中央区","address":"東京都中央区新富2丁目14-6","lat":35.67041376,"lon":139.77486875},{"name":"土橋","province":"東京都","city":"中央区","address":"東京都中央区銀座8丁目3-7","lat":35.66870796,"lon":139.75892294},{"name":"聖路加病院前","province":"東京都","city":"中央区","address":"東京都中央区明石町12-1","lat":35.66657812,"lon":139.77679376},{"name":"築地警察署前","province":"東京都","city":"中央区","address":"東京都中央区築地1丁目6","lat":35.67027478,"lon":139.77131348},{"name":"築地暁橋","province":"東京都","city":"中央区","address":"東京都中央区明石町11-15","lat":35.66711412,"lon":139.77481056},{"name":"聖路加ガーデン前","province":"東京都","city":"中央区","address":"東京都中央区明石町13-1","lat":35.66615041,"lon":139.77768536},{"name":"明石小学校前","province":"東京都","city":"中央区","address":"東京都中央区明石町9-1","lat":35.66741137,"lon":139.77705481},{"name":"月島三丁目","province":"東京都","city":"中央区","address":"東京都中央区月島1丁目27-9","lat":35.66316198,"lon":139.78207955},{"name":"勝どき駅前","province":"東京都","city":"中央区","address":"東京都中央区勝どき1丁目7-1","lat":35.65987332,"lon":139.77761338},{"name":"初見橋","province":"東京都","city":"中央区","address":"東京都中央区佃2丁目17-8","lat":35.664723,"lon":139.7848487},{"name":"新月橋","province":"東京都","city":"中央区","address":"東京都中央区月島1丁目2-9","lat":35.66522013,"lon":139.78346268},{"name":"月島出張所前","province":"東京都","city":"中央区","address":"東京都中央区月島3丁目12-5","lat":35.66231205,"lon":139.78151296},{"name":"晴海二丁目","province":"東京都","city":"中央区","address":"東京都中央区晴海1丁目8-10","lat":35.65637941,"lon":139.78234084},{"name":"晴月橋南","province":"東京都","city":"中央区","address":"東京都中央区晴海1丁目6","lat":35.65872641,"lon":139.78401006},{"name":"佃二丁目北","province":"東京都","city":"中央区","address":"東京都中央区佃2丁目11","lat":35.66661448,"lon":139.78540973},{"name":"三井記念美術館","province":"東京都","city":"中央区","address":"中央区日本橋室町2-1-1三井会館7階","lat":35.686293,"lon":139.772996},{"name":"東京都味噌工業協同組合","province":"東京都","city":"中央区","address":"東京都中央区日本橋浜町2丁目16-5","lat":35.68747342,"lon":139.78640757},{"name":"全国味噌工業協同組合連合会","province":"東京都","city":"中央区","address":"東京都中央区新川1丁目26-19","lat":35.67648277,"lon":139.78356776},{"name":"日本醤油協会","province":"東京都","city":"中央区","address":"東京都中央区日本橋小網町3-11","lat":35.68117393,"lon":139.7826819},{"name":"晴海給水所","province":"東京都","city":"中央区","address":"東京都中央区晴海1丁目6-3","lat":35.65852366,"lon":139.78411284},{"name":"区立あかつき公園","province":"東京都","city":"中央区","address":"東京都中央区築地7丁目19-1","lat":35.66666142,"lon":139.7758105},{"name":"区立堀留児童公園","province":"東京都","city":"中央区","address":"東京都中央区日本橋堀留町1丁目1-16","lat":35.68635386,"lon":139.77931298},{"name":"東京都味噌工業協同組合","province":"東京都","city":"中央区","address":"東京都中央区日本橋浜町2丁目16-5","lat":35.68747342,"lon":139.78640757},{"name":"全国味噌工業協同組合連合会","province":"東京都","city":"中央区","address":"東京都中央区新川1丁目26-19","lat":35.67648277,"lon":139.78356776},{"name":"月島ふ頭","province":"東京都","city":"中央区","address":"東京都中央区豊海町","lat":35.65314056,"lon":139.77090583},{"name":"常盤橋","province":"東京都","city":"中央区","address":"東京都中央区日本橋本石町2丁目1","lat":35.6869841,"lon":139.77150202},{"name":"第一方面交通機動隊","province":"東京都","city":"中央区","address":"中央区晴海1-1-24","lat":35.66121,"lon":139.7874},{"name":"中央警察署","province":"東京都","city":"中央区","address":"中央区日本橋兜町14-2","lat":35.68044,"lon":139.7771},{"name":"月島警察署","province":"東京都","city":"中央区","address":"中央区勝どき6-7-19","lat":35.65475,"lon":139.7715},{"name":"築地警察署","province":"東京都","city":"中央区","address":"中央区築地1-6-1","lat":35.67025,"lon":139.7714},{"name":"久松警察署","province":"東京都","city":"中央区","address":"中央区日本橋久松町8-1","lat":35.68836,"lon":139.7847},{"name":"京橋消防署","province":"東京都","city":"中央区","address":"中央区京橋3-14-1","lat":35.67439,"lon":139.7723},{"name":"日本橋消防署","province":"東京都","city":"中央区","address":"中央区日本橋兜町14-12","lat":35.68013,"lon":139.7776},{"name":"臨港消防署","province":"東京都","city":"中央区","address":"中央区晴海5-1-27","lat":35.6519,"lon":139.7736},{"name":"常盤橋","province":"東京都","city":"中央区","address":"東京都中央区日本橋本石町2丁目1","lat":35.6869841,"lon":139.77150202},{"name":"室町二丁目","province":"東京都","city":"中央区","address":"東京都中央区日本橋室町1丁目5-5","lat":35.68619816,"lon":139.77438807},{"name":"本町二丁目","province":"東京都","city":"中央区","address":"東京都中央区日本橋本町2丁目5-1","lat":35.68734532,"lon":139.7762047},{"name":"京橋一丁目","province":"東京都","city":"中央区","address":"東京都中央区日本橋3丁目12-2","lat":35.67858507,"lon":139.7743713},{"name":"鍛冶橋","province":"東京都","city":"中央区","address":"東京都中央区八重洲2丁目8-21","lat":35.67695173,"lon":139.7671775},{"name":"室町二丁目第二","province":"東京都","city":"中央区","address":"東京都中央区日本橋室町2丁目4-3","lat":35.68745634,"lon":139.77387974},{"name":"浜町中の橋","province":"東京都","city":"中央区","address":"東京都中央区日本橋浜町2丁目23-7","lat":35.68567645,"lon":139.78778543},{"name":"人形町","province":"東京都","city":"中央区","address":"東京都中央区日本橋人形町3丁目7-13","lat":35.68632617,"lon":139.78191571},{"name":"日本橋支所前","province":"東京都","city":"中央区","address":"東京都中央区日本橋蛎殻町2丁目2-4","lat":35.68279609,"lon":139.78566821},{"name":"東日本橋三丁目","province":"東京都","city":"中央区","address":"東京都中央区東日本橋3丁目8-2","lat":35.69135901,"lon":139.78379343},{"name":"箱崎町","province":"東京都","city":"中央区","address":"東京都中央区日本橋箱崎町41-13","lat":35.68119908,"lon":139.78695424},{"name":"ターミナルビル前","province":"東京都","city":"中央区","address":"東京都中央区日本橋蛎殻町1丁目35-5","lat":35.68174621,"lon":139.78603201},{"name":"隅田川大橋北詰","province":"東京都","city":"中央区","address":"東京都中央区日本橋箱崎町25-9","lat":35.68040193,"lon":139.78695136},{"name":"鎧橋東詰","province":"東京都","city":"中央区","address":"東京都中央区日本橋小網町7-2","lat":35.68210712,"lon":139.78100152},{"name":"築地四丁目","province":"東京都","city":"中央区","address":"東京都中央区築地3丁目16-12","lat":35.66649186,"lon":139.7709998},{"name":"数寄屋橋","province":"東京都","city":"中央区","address":"東京都中央区銀座4丁目1-2","lat":35.67281041,"lon":139.76328075},{"name":"入船橋","province":"東京都","city":"中央区","address":"東京都中央区新富2丁目14-6","lat":35.67041376,"lon":139.77486875},{"name":"土橋","province":"東京都","city":"中央区","address":"東京都中央区銀座8丁目3-7","lat":35.66870796,"lon":139.75892294},{"name":"聖路加病院前","province":"東京都","city":"中央区","address":"東京都中央区明石町12-1","lat":35.66657812,"lon":139.77679376},{"name":"築地警察署前","province":"東京都","city":"中央区","address":"東京都中央区築地1丁目6","lat":35.67027478,"lon":139.77131348},{"name":"築地暁橋","province":"東京都","city":"中央区","address":"東京都中央区明石町11-15","lat":35.66711412,"lon":139.77481056},{"name":"聖路加ガーデン前","province":"東京都","city":"中央区","address":"東京都中央区明石町13-1","lat":35.66615041,"lon":139.77768536},{"name":"明石小学校前","province":"東京都","city":"中央区","address":"東京都中央区明石町9-1","lat":35.66741137,"lon":139.77705481},{"name":"月島三丁目","province":"東京都","city":"中央区","address":"東京都中央区月島1丁目27-9","lat":35.66316198,"lon":139.78207955},{"name":"勝どき駅前","province":"東京都","city":"中央区","address":"東京都中央区勝どき1丁目7-1","lat":35.65987332,"lon":139.77761338},{"name":"初見橋","province":"東京都","city":"中央区","address":"東京都中央区佃2丁目17-8","lat":35.664723,"lon":139.7848487},{"name":"新月橋","province":"東京都","city":"中央区","address":"東京都中央区月島1丁目2-9","lat":35.66522013,"lon":139.78346268},{"name":"月島出張所前","province":"東京都","city":"中央区","address":"東京都中央区月島3丁目12-5","lat":35.66231205,"lon":139.78151296},{"name":"晴海二丁目","province":"東京都","city":"中央区","address":"東京都中央区晴海1丁目8-10","lat":35.65637941,"lon":139.78234084},{"name":"晴月橋南","province":"東京都","city":"中央区","address":"東京都中央区晴海1丁目6","lat":35.65872641,"lon":139.78401006},{"name":"佃二丁目北","province":"東京都","city":"中央区","address":"東京都中央区佃2丁目11","lat":35.66661448,"lon":139.78540973},{"name":"三井記念美術館","province":"東京都","city":"中央区","address":"中央区日本橋室町2-1-1三井会館7階","lat":35.686293,"lon":139.772996},{"name":"東京都味噌工業協同組合","province":"東京都","city":"中央区","address":"東京都中央区日本橋浜町2丁目16-5","lat":35.68747342,"lon":139.78640757},{"name":"全国味噌工業協同組合連合会","province":"東京都","city":"中央区","address":"東京都中央区新川1丁目26-19","lat":35.67648277,"lon":139.78356776},{"name":"日本醤油協会","province":"東京都","city":"中央区","address":"東京都中央区日本橋小網町3-11","lat":35.68117393,"lon":139.7826819},{"name":"晴海給水所","province":"東京都","city":"中央区","address":"東京都中央区晴海1丁目6-3","lat":35.65852366,"lon":139.78411284},{"name":"区立あかつき公園","province":"東京都","city":"中央区","address":"東京都中央区築地7丁目19-1","lat":35.66666142,"lon":139.7758105},{"name":"区立堀留児童公園","province":"東京都","city":"中央区","address":"東京都中央区日本橋堀留町1丁目1-16","lat":35.68635386,"lon":139.77931298},{"name":"東京都味噌工業協同組合","province":"東京都","city":"中央区","address":"東京都中央区日本橋浜町2丁目16-5","lat":35.68747342,"lon":139.78640757},{"name":"全国味噌工業協同組合連合会","province":"東京都","city":"中央区","address":"東京都中央区新川1丁目26-19","lat":35.67648277,"lon":139.78356776},{"name":"月島ふ頭","province":"東京都","city":"中央区","address":"東京都中央区豊海町","lat":35.65314056,"lon":139.77090583},{"name":"常盤橋","province":"東京都","city":"中央区","address":"東京都中央区日本橋本石町2丁目1","lat":35.6869841,"lon":139.77150202},{"name":"第一方面交通機動隊","province":"東京都","city":"中央区","address":"中央区晴海1-1-24","lat":35.66121,"lon":139.7874},{"name":"中央警察署","province":"東京都","city":"中央区","address":"中央区日本橋兜町14-2","lat":35.68044,"lon":139.7771},{"name":"月島警察署","province":"東京都","city":"中央区","address":"中央区勝どき6-7-19","lat":35.65475,"lon":139.7715},{"name":"築地警察署","province":"東京都","city":"中央区","address":"中央区築地1-6-1","lat":35.67025,"lon":139.7714},{"name":"久松警察署","province":"東京都","city":"中央区","address":"中央区日本橋久松町8-1","lat":35.68836,"lon":139.7847},{"name":"京橋消防署","province":"東京都","city":"中央区","address":"中央区京橋3-14-1","lat":35.67439,"lon":139.7723},{"name":"日本橋消防署","province":"東京都","city":"中央区","address":"中央区日本橋兜町14-12","lat":35.68013,"lon":139.7776},{"name":"臨港消防署","province":"東京都","city":"中央区","address":"中央区晴海5-1-27","lat":35.6519,"lon":139.7736},{"name":"常盤橋","province":"東京都","city":"中央区","address":"東京都中央区日本橋本石町2丁目1","lat":35.6869841,"lon":139.77150202},{"name":"室町二丁目","province":"東京都","city":"中央区","address":"東京都中央区日本橋室町1丁目5-5","lat":35.68619816,"lon":139.77438807},{"name":"本町二丁目","province":"東京都","city":"中央区","address":"東京都中央区日本橋本町2丁目5-1","lat":35.68734532,"lon":139.7762047},{"name":"京橋一丁目","province":"東京都","city":"中央区","address":"東京都中央区日本橋3丁目12-2","lat":35.67858507,"lon":139.7743713},{"name":"鍛冶橋","province":"東京都","city":"中央区","address":"東京都中央区八重洲2丁目8-21","lat":35.67695173,"lon":139.7671775},{"name":"室町二丁目第二","province":"東京都","city":"中央区","address":"東京都中央区日本橋室町2丁目4-3","lat":35.68745634,"lon":139.77387974},{"name":"浜町中の橋","province":"東京都","city":"中央区","address":"東京都中央区日本橋浜町2丁目23-7","lat":35.68567645,"lon":139.78778543},{"name":"人形町","province":"東京都","city":"中央区","address":"東京都中央区日本橋人形町3丁目7-13","lat":35.68632617,"lon":139.78191571},{"name":"日本橋支所前","province":"東京都","city":"中央区","address":"東京都中央区日本橋蛎殻町2丁目2-4","lat":35.68279609,"lon":139.78566821},{"name":"東日本橋三丁目","province":"東京都","city":"中央区","address":"東京都中央区東日本橋3丁目8-2","lat":35.69135901,"lon":139.78379343},{"name":"箱崎町","province":"東京都","city":"中央区","address":"東京都中央区日本橋箱崎町41-13","lat":35.68119908,"lon":139.78695424},{"name":"ターミナルビル前","province":"東京都","city":"中央区","address":"東京都中央区日本橋蛎殻町1丁目35-5","lat":35.68174621,"lon":139.78603201},{"name":"隅田川大橋北詰","province":"東京都","city":"中央区","address":"東京都中央区日本橋箱崎町25-9","lat":35.68040193,"lon":139.78695136},{"name":"鎧橋東詰","province":"東京都","city":"中央区","address":"東京都中央区日本橋小網町7-2","lat":35.68210712,"lon":139.78100152},{"name":"築地四丁目","province":"東京都","city":"中央区","address":"東京都中央区築地3丁目16-12","lat":35.66649186,"lon":139.7709998},{"name":"数寄屋橋","province":"東京都","city":"中央区","address":"東京都中央区銀座4丁目1-2","lat":35.67281041,"lon":139.76328075},{"name":"入船橋","province":"東京都","city":"中央区","address":"東京都中央区新富2丁目14-6","lat":35.67041376,"lon":139.77486875},{"name":"土橋","province":"東京都","city":"中央区","address":"東京都中央区銀座8丁目3-7","lat":35.66870796,"lon":139.75892294},{"name":"聖路加病院前","province":"東京都","city":"中央区","address":"東京都中央区明石町12-1","lat":35.66657812,"lon":139.77679376},{"name":"築地警察署前","province":"東京都","city":"中央区","address":"東京都中央区築地1丁目6","lat":35.67027478,"lon":139.77131348},{"name":"築地暁橋","province":"東京都","city":"中央区","address":"東京都中央区明石町11-15","lat":35.66711412,"lon":139.77481056},{"name":"聖路加ガーデン前","province":"東京都","city":"中央区","address":"東京都中央区明石町13-1","lat":35.66615041,"lon":139.77768536},{"name":"明石小学校前","province":"東京都","city":"中央区","address":"東京都中央区明石町9-1","lat":35.66741137,"lon":139.77705481},{"name":"月島三丁目","province":"東京都","city":"中央区","address":"東京都中央区月島1丁目27-9","lat":35.66316198,"lon":139.78207955},{"name":"勝どき駅前","province":"東京都","city":"中央区","address":"東京都中央区勝どき1丁目7-1","lat":35.65987332,"lon":139.77761338},{"name":"初見橋","province":"東京都","city":"中央区","address":"東京都中央区佃2丁目17-8","lat":35.664723,"lon":139.7848487},{"name":"新月橋","province":"東京都","city":"中央区","address":"東京都中央区月島1丁目2-9","lat":35.66522013,"lon":139.78346268},{"name":"月島出張所前","province":"東京都","city":"中央区","address":"東京都中央区月島3丁目12-5","lat":35.66231205,"lon":139.78151296},{"name":"晴海二丁目","province":"東京都","city":"中央区","address":"東京都中央区晴海1丁目8-10","lat":35.65637941,"lon":139.78234084},{"name":"晴月橋南","province":"東京都","city":"中央区","address":"東京都中央区晴海1丁目6","lat":35.65872641,"lon":139.78401006},{"name":"佃二丁目北","province":"東京都","city":"中央区","address":"東京都中央区佃2丁目11","lat":35.66661448,"lon":139.78540973},{"name":"三井記念美術館","province":"東京都","city":"中央区","address":"中央区日本橋室町2-1-1三井会館7階","lat":35.686293,"lon":139.772996},{"name":"東京都味噌工業協同組合","province":"東京都","city":"中央区","address":"東京都中央区日本橋浜町2丁目16-5","lat":35.68747342,"lon":139.78640757},{"name":"全国味噌工業協同組合連合会","province":"東京都","city":"中央区","address":"東京都中央区新川1丁目26-19","lat":35.67648277,"lon":139.78356776},{"name":"日本醤油協会","province":"東京都","city":"中央区","address":"東京都中央区日本橋小網町3-11","lat":35.68117393,"lon":139.7826819},{"name":"晴海給水所","province":"東京都","city":"中央区","address":"東京都中央区晴海1丁目6-3","lat":35.65852366,"lon":139.78411284},{"name":"区立あかつき公園","province":"東京都","city":"中央区","address":"東京都中央区築地7丁目19-1","lat":35.66666142,"lon":139.7758105},{"name":"区立堀留児童公園","province":"東京都","city":"中央区","address":"東京都中央区日本橋堀留町1丁目1-16","lat":35.68635386,"lon":139.77931298},{"name":"東京都味噌工業協同組合","province":"東京都","city":"中央区","address":"東京都中央区日本橋浜町2丁目16-5","lat":35.68747342,"lon":139.78640757},{"name":"全国味噌工業協同組合連合会","province":"東京都","city":"中央区","address":"東京都中央区新川1丁目26-19","lat":35.67648277,"lon":139.78356776},{"name":"月島ふ頭","province":"東京都","city":"中央区","address":"東京都中央区豊海町","lat":35.65314056,"lon":139.77090583},{"name":"常盤橋","province":"東京都","city":"中央区","address":"東京都中央区日本橋本石町2丁目1","lat":35.6869841,"lon":139.77150202},{"name":"第一方面交通機動隊","province":"東京都","city":"中央区","address":"中央区晴海1-1-24","lat":35.66121,"lon":139.7874},{"name":"中央警察署","province":"東京都","city":"中央区","address":"中央区日本橋兜町14-2","lat":35.68044,"lon":139.7771},{"name":"月島警察署","province":"東京都","city":"中央区","address":"中央区勝どき6-7-19","lat":35.65475,"lon":139.7715},{"name":"築地警察署","province":"東京都","city":"中央区","address":"中央区築地1-6-1","lat":35.67025,"lon":139.7714},{"name":"久松警察署","province":"東京都","city":"中央区","address":"中央区日本橋久松町8-1","lat":35.68836,"lon":139.7847},{"name":"京橋消防署","province":"東京都","city":"中央区","address":"中央区京橋3-14-1","lat":35.67439,"lon":139.7723},{"name":"日本橋消防署","province":"東京都","city":"中央区","address":"中央区日本橋兜町14-12","lat":35.68013,"lon":139.7776},{"name":"臨港消防署","province":"東京都","city":"中央区","address":"中央区晴海5-1-27","lat":35.6519,"lon":139.7736},{"name":"常盤橋","province":"東京都","city":"中央区","address":"東京都中央区日本橋本石町2丁目1","lat":35.6869841,"lon":139.77150202},{"name":"室町二丁目","province":"東京都","city":"中央区","address":"東京都中央区日本橋室町1丁目5-5","lat":35.68619816,"lon":139.77438807},{"name":"本町二丁目","province":"東京都","city":"中央区","address":"東京都中央区日本橋本町2丁目5-1","lat":35.68734532,"lon":139.7762047},{"name":"京橋一丁目","province":"東京都","city":"中央区","address":"東京都中央区日本橋3丁目12-2","lat":35.67858507,"lon":139.7743713},{"name":"鍛冶橋","province":"東京都","city":"中央区","address":"東京都中央区八重洲2丁目8-21","lat":35.67695173,"lon":139.7671775},{"name":"室町二丁目第二","province":"東京都","city":"中央区","address":"東京都中央区日本橋室町2丁目4-3","lat":35.68745634,"lon":139.77387974},{"name":"浜町中の橋","province":"東京都","city":"中央区","address":"東京都中央区日本橋浜町2丁目23-7","lat":35.68567645,"lon":139.78778543},{"name":"人形町","province":"東京都","city":"中央区","address":"東京都中央区日本橋人形町3丁目7-13","lat":35.68632617,"lon":139.78191571},{"name":"日本橋支所前","province":"東京都","city":"中央区","address":"東京都中央区日本橋蛎殻町2丁目2-4","lat":35.68279609,"lon":139.78566821},{"name":"東日本橋三丁目","province":"東京都","city":"中央区","address":"東京都中央区東日本橋3丁目8-2","lat":35.69135901,"lon":139.78379343},{"name":"箱崎町","province":"東京都","city":"中央区","address":"東京都中央区日本橋箱崎町41-13","lat":35.68119908,"lon":139.78695424},{"name":"ターミナルビル前","province":"東京都","city":"中央区","address":"東京都中央区日本橋蛎殻町1丁目35-5","lat":35.68174621,"lon":139.78603201},{"name":"隅田川大橋北詰","province":"東京都","city":"中央区","address":"東京都中央区日本橋箱崎町25-9","lat":35.68040193,"lon":139.78695136},{"name":"鎧橋東詰","province":"東京都","city":"中央区","address":"東京都中央区日本橋小網町7-2","lat":35.68210712,"lon":139.78100152},{"name":"築地四丁目","province":"東京都","city":"中央区","address":"東京都中央区築地3丁目16-12","lat":35.66649186,"lon":139.7709998},{"name":"数寄屋橋","province":"東京都","city":"中央区","address":"東京都中央区銀座4丁目1-2","lat":35.67281041,"lon":139.76328075},{"name":"入船橋","province":"東京都","city":"中央区","address":"東京都中央区新富2丁目14-6","lat":35.67041376,"lon":139.77486875},{"name":"土橋","province":"東京都","city":"中央区","address":"東京都中央区銀座8丁目3-7","lat":35.66870796,"lon":139.75892294},{"name":"聖路加病院前","province":"東京都","city":"中央区","address":"東京都中央区明石町12-1","lat":35.66657812,"lon":139.77679376},{"name":"築地警察署前","province":"東京都","city":"中央区","address":"東京都中央区築地1丁目6","lat":35.67027478,"lon":139.77131348},{"name":"築地暁橋","province":"東京都","city":"中央区","address":"東京都中央区明石町11-15","lat":35.66711412,"lon":139.77481056},{"name":"聖路加ガーデン前","province":"東京都","city":"中央区","address":"東京都中央区明石町13-1","lat":35.66615041,"lon":139.77768536},{"name":"明石小学校前","province":"東京都","city":"中央区","address":"東京都中央区明石町9-1","lat":35.66741137,"lon":139.77705481},{"name":"月島三丁目","province":"東京都","city":"中央区","address":"東京都中央区月島1丁目27-9","lat":35.66316198,"lon":139.78207955},{"name":"勝どき駅前","province":"東京都","city":"中央区","address":"東京都中央区勝どき1丁目7-1","lat":35.65987332,"lon":139.77761338},{"name":"初見橋","province":"東京都","city":"中央区","address":"東京都中央区佃2丁目17-8","lat":35.664723,"lon":139.7848487},{"name":"新月橋","province":"東京都","city":"中央区","address":"東京都中央区月島1丁目2-9","lat":35.66522013,"lon":139.78346268},{"name":"月島出張所前","province":"東京都","city":"中央区","address":"東京都中央区月島3丁目12-5","lat":35.66231205,"lon":139.78151296},{"name":"晴海二丁目","province":"東京都","city":"中央区","address":"東京都中央区晴海1丁目8-10","lat":35.65637941,"lon":139.78234084},{"name":"晴月橋南","province":"東京都","city":"中央区","address":"東京都中央区晴海1丁目6","lat":35.65872641,"lon":139.78401006},{"name":"佃二丁目北","province":"東京都","city":"中央区","address":"東京都中央区佃2丁目11","lat":35.66661448,"lon":139.78540973},{"name":"三井記念美術館","province":"東京都","city":"中央区","address":"中央区日本橋室町2-1-1三井会館7階","lat":35.686293,"lon":139.772996},{"name":"東京都味噌工業協同組合","province":"東京都","city":"中央区","address":"東京都中央区日本橋浜町2丁目16-5","lat":35.68747342,"lon":139.78640757},{"name":"全国味噌工業協同組合連合会","province":"東京都","city":"中央区","address":"東京都中央区新川1丁目26-19","lat":35.67648277,"lon":139.78356776},{"name":"日本醤油協会","province":"東京都","city":"中央区","address":"東京都中央区日本橋小網町3-11","lat":35.68117393,"lon":139.7826819},{"name":"晴海給水所","province":"東京都","city":"中央区","address":"東京都中央区晴海1丁目6-3","lat":35.65852366,"lon":139.78411284},{"name":"区立あかつき公園","province":"東京都","city":"中央区","address":"東京都中央区築地7丁目19-1","lat":35.66666142,"lon":139.7758105},{"name":"区立堀留児童公園","province":"東京都","city":"中央区","address":"東京都中央区日本橋堀留町1丁目1-16","lat":35.68635386,"lon":139.77931298},{"name":"東京都味噌工業協同組合","province":"東京都","city":"中央区","address":"東京都中央区日本橋浜町2丁目16-5","lat":35.68747342,"lon":139.78640757},{"name":"全国味噌工業協同組合連合会","province":"東京都","city":"中央区","address":"東京都中央区新川1丁目26-19","lat":35.67648277,"lon":139.78356776},{"name":"月島ふ頭","province":"東京都","city":"中央区","address":"東京都中央区豊海町","lat":35.65314056,"lon":139.77090583},{"name":"常盤橋","province":"東京都","city":"中央区","address":"東京都中央区日本橋本石町2丁目1","lat":35.6869841,"lon":139.77150202},{"name":"第一方面交通機動隊","province":"東京都","city":"中央区","address":"中央区晴海1-1-24","lat":35.66121,"lon":139.7874},{"name":"中央警察署","province":"東京都","city":"中央区","address":"中央区日本橋兜町14-2","lat":35.68044,"lon":139.7771},{"name":"月島警察署","province":"東京都","city":"中央区","address":"中央区勝どき6-7-19","lat":35.65475,"lon":139.7715},{"name":"築地警察署","province":"東京都","city":"中央区","address":"中央区築地1-6-1","lat":35.67025,"lon":139.7714},{"name":"久松警察署","province":"東京都","city":"中央区","address":"中央区日本橋久松町8-1","lat":35.68836,"lon":139.7847},{"name":"京橋消防署","province":"東京都","city":"中央区","address":"中央区京橋3-14-1","lat":35.67439,"lon":139.7723},{"name":"日本橋消防署","province":"東京都","city":"中央区","address":"中央区日本橋兜町14-12","lat":35.68013,"lon":139.7776},{"name":"臨港消防署","province":"東京都","city":"中央区","address":"中央区晴海5-1-27","lat":35.6519,"lon":139.7736},{"name":"常盤橋","province":"東京都","city":"中央区","address":"東京都中央区日本橋本石町2丁目1","lat":35.6869841,"lon":139.77150202},{"name":"室町二丁目","province":"東京都","city":"中央区","address":"東京都中央区日本橋室町1丁目5-5","lat":35.68619816,"lon":139.77438807},{"name":"本町二丁目","province":"東京都","city":"中央区","address":"東京都中央区日本橋本町2丁目5-1","lat":35.68734532,"lon":139.7762047},{"name":"京橋一丁目","province":"東京都","city":"中央区","address":"東京都中央区日本橋3丁目12-2","lat":35.67858507,"lon":139.7743713},{"name":"鍛冶橋","province":"東京都","city":"中央区","address":"東京都中央区八重洲2丁目8-21","lat":35.67695173,"lon":139.7671775},{"name":"室町二丁目第二","province":"東京都","city":"中央区","address":"東京都中央区日本橋室町2丁目4-3","lat":35.68745634,"lon":139.77387974},{"name":"浜町中の橋","province":"東京都","city":"中央区","address":"東京都中央区日本橋浜町2丁目23-7","lat":35.68567645,"lon":139.78778543},{"name":"人形町","province":"東京都","city":"中央区","address":"東京都中央区日本橋人形町3丁目7-13","lat":35.68632617,"lon":139.78191571},{"name":"日本橋支所前","province":"東京都","city":"中央区","address":"東京都中央区日本橋蛎殻町2丁目2-4","lat":35.68279609,"lon":139.78566821},{"name":"東日本橋三丁目","province":"東京都","city":"中央区","address":"東京都中央区東日本橋3丁目8-2","lat":35.69135901,"lon":139.78379343},{"name":"箱崎町","province":"東京都","city":"中央区","address":"東京都中央区日本橋箱崎町41-13","lat":35.68119908,"lon":139.78695424},{"name":"ターミナルビル前","province":"東京都","city":"中央区","address":"東京都中央区日本橋蛎殻町1丁目35-5","lat":35.68174621,"lon":139.78603201},{"name":"隅田川大橋北詰","province":"東京都","city":"中央区","address":"東京都中央区日本橋箱崎町25-9","lat":35.68040193,"lon":139.78695136},{"name":"鎧橋東詰","province":"東京都","city":"中央区","address":"東京都中央区日本橋小網町7-2","lat":35.68210712,"lon":139.78100152},{"name":"築地四丁目","province":"東京都","city":"中央区","address":"東京都中央区築地3丁目16-12","lat":35.66649186,"lon":139.7709998},{"name":"数寄屋橋","province":"東京都","city":"中央区","address":"東京都中央区銀座4丁目1-2","lat":35.67281041,"lon":139.76328075},{"name":"入船橋","province":"東京都","city":"中央区","address":"東京都中央区新富2丁目14-6","lat":35.67041376,"lon":139.77486875},{"name":"土橋","province":"東京都","city":"中央区","address":"東京都中央区銀座8丁目3-7","lat":35.66870796,"lon":139.75892294},{"name":"聖路加病院前","province":"東京都","city":"中央区","address":"東京都中央区明石町12-1","lat":35.66657812,"lon":139.77679376},{"name":"築地警察署前","province":"東京都","city":"中央区","address":"東京都中央区築地1丁目6","lat":35.67027478,"lon":139.77131348},{"name":"築地暁橋","province":"東京都","city":"中央区","address":"東京都中央区明石町11-15","lat":35.66711412,"lon":139.77481056},{"name":"聖路加ガーデン前","province":"東京都","city":"中央区","address":"東京都中央区明石町13-1","lat":35.66615041,"lon":139.77768536},{"name":"明石小学校前","province":"東京都","city":"中央区","address":"東京都中央区明石町9-1","lat":35.66741137,"lon":139.77705481},{"name":"月島三丁目","province":"東京都","city":"中央区","address":"東京都中央区月島1丁目27-9","lat":35.66316198,"lon":139.78207955},{"name":"勝どき駅前","province":"東京都","city":"中央区","address":"東京都中央区勝どき1丁目7-1","lat":35.65987332,"lon":139.77761338},{"name":"初見橋","province":"東京都","city":"中央区","address":"東京都中央区佃2丁目17-8","lat":35.664723,"lon":139.7848487},{"name":"新月橋","province":"東京都","city":"中央区","address":"東京都中央区月島1丁目2-9","lat":35.66522013,"lon":139.78346268},{"name":"月島出張所前","province":"東京都","city":"中央区","address":"東京都中央区月島3丁目12-5","lat":35.66231205,"lon":139.78151296},{"name":"晴海二丁目","province":"東京都","city":"中央区","address":"東京都中央区晴海1丁目8-10","lat":35.65637941,"lon":139.78234084},{"name":"晴月橋南","province":"東京都","city":"中央区","address":"東京都中央区晴海1丁目6","lat":35.65872641,"lon":139.78401006},{"name":"佃二丁目北","province":"東京都","city":"中央区","address":"東京都中央区佃2丁目11","lat":35.66661448,"lon":139.78540973},{"name":"三井記念美術館","province":"東京都","city":"中央区","address":"中央区日本橋室町2-1-1三井会館7階","lat":35.686293,"lon":139.772996},{"name":"東京都味噌工業協同組合","province":"東京都","city":"中央区","address":"東京都中央区日本橋浜町2丁目16-5","lat":35.68747342,"lon":139.78640757},{"name":"全国味噌工業協同組合連合会","province":"東京都","city":"中央区","address":"東京都中央区新川1丁目26-19","lat":35.67648277,"lon":139.78356776},{"name":"日本醤油協会","province":"東京都","city":"中央区","address":"東京都中央区日本橋小網町3-11","lat":35.68117393,"lon":139.7826819},{"name":"晴海給水所","province":"東京都","city":"中央区","address":"東京都中央区晴海1丁目6-3","lat":35.65852366,"lon":139.78411284},{"name":"区立あかつき公園","province":"東京都","city":"中央区","address":"東京都中央区築地7丁目19-1","lat":35.66666142,"lon":139.7758105},{"name":"区立堀留児童公園","province":"東京都","city":"中央区","address":"東京都中央区日本橋堀留町1丁目1-16","lat":35.68635386,"lon":139.77931298},{"name":"東京都味噌工業協同組合","province":"東京都","city":"中央区","address":"東京都中央区日本橋浜町2丁目16-5","lat":35.68747342,"lon":139.78640757},{"name":"全国味噌工業協同組合連合会","province":"東京都","city":"中央区","address":"東京都中央区新川1丁目26-19","lat":35.67648277,"lon":139.78356776},{"name":"月島ふ頭","province":"東京都","city":"中央区","address":"東京都中央区豊海町","lat":35.65314056,"lon":139.77090583},{"name":"常盤橋","province":"東京都","city":"中央区","address":"東京都中央区日本橋本石町2丁目1","lat":35.6869841,"lon":139.77150202},{"name":"第一方面交通機動隊","province":"東京都","city":"中央区","address":"中央区晴海1-1-24","lat":35.66121,"lon":139.7874},{"name":"中央警察署","province":"東京都","city":"中央区","address":"中央区日本橋兜町14-2","lat":35.68044,"lon":139.7771},{"name":"月島警察署","province":"東京都","city":"中央区","address":"中央区勝どき6-7-19","lat":35.65475,"lon":139.7715},{"name":"築地警察署","province":"東京都","city":"中央区","address":"中央区築地1-6-1","lat":35.67025,"lon":139.7714},{"name":"久松警察署","province":"東京都","city":"中央区","address":"中央区日本橋久松町8-1","lat":35.68836,"lon":139.7847},{"name":"京橋消防署","province":"東京都","city":"中央区","address":"中央区京橋3-14-1","lat":35.67439,"lon":139.7723},{"name":"日本橋消防署","province":"東京都","city":"中央区","address":"中央区日本橋兜町14-12","lat":35.68013,"lon":139.7776},{"name":"臨港消防署","province":"東京都","city":"中央区","address":"中央区晴海5-1-27","lat":35.6519,"lon":139.7736},{"name":"常盤橋","province":"東京都","city":"中央区","address":"東京都中央区日本橋本石町2丁目1","lat":35.6869841,"lon":139.77150202},{"name":"室町二丁目","province":"東京都","city":"中央区","address":"東京都中央区日本橋室町1丁目5-5","lat":35.68619816,"lon":139.77438807},{"name":"本町二丁目","province":"東京都","city":"中央区","address":"東京都中央区日本橋本町2丁目5-1","lat":35.68734532,"lon":139.7762047},{"name":"京橋一丁目","province":"東京都","city":"中央区","address":"東京都中央区日本橋3丁目12-2","lat":35.67858507,"lon":139.7743713},{"name":"鍛冶橋","province":"東京都","city":"中央区","address":"東京都中央区八重洲2丁目8-21","lat":35.67695173,"lon":139.7671775},{"name":"室町二丁目第二","province":"東京都","city":"中央区","address":"東京都中央区日本橋室町2丁目4-3","lat":35.68745634,"lon":139.77387974},{"name":"浜町中の橋","province":"東京都","city":"中央区","address":"東京都中央区日本橋浜町2丁目23-7","lat":35.68567645,"lon":139.78778543},{"name":"人形町","province":"東京都","city":"中央区","address":"東京都中央区日本橋人形町3丁目7-13","lat":35.68632617,"lon":139.78191571},{"name":"日本橋支所前","province":"東京都","city":"中央区","address":"東京都中央区日本橋蛎殻町2丁目2-4","lat":35.68279609,"lon":139.78566821},{"name":"東日本橋三丁目","province":"東京都","city":"中央区","address":"東京都中央区東日本橋3丁目8-2","lat":35.69135901,"lon":139.78379343},{"name":"箱崎町","province":"東京都","city":"中央区","address":"東京都中央区日本橋箱崎町41-13","lat":35.68119908,"lon":139.78695424},{"name":"ターミナルビル前","province":"東京都","city":"中央区","address":"東京都中央区日本橋蛎殻町1丁目35-5","lat":35.68174621,"lon":139.78603201},{"name":"隅田川大橋北詰","province":"東京都","city":"中央区","address":"東京都中央区日本橋箱崎町25-9","lat":35.68040193,"lon":139.78695136},{"name":"鎧橋東詰","province":"東京都","city":"中央区","address":"東京都中央区日本橋小網町7-2","lat":35.68210712,"lon":139.78100152},{"name":"築地四丁目","province":"東京都","city":"中央区","address":"東京都中央区築地3丁目16-12","lat":35.66649186,"lon":139.7709998},{"name":"数寄屋橋","province":"東京都","city":"中央区","address":"東京都中央区銀座4丁目1-2","lat":35.67281041,"lon":139.76328075},{"name":"入船橋","province":"東京都","city":"中央区","address":"東京都中央区新富2丁目14-6","lat":35.67041376,"lon":139.77486875},{"name":"土橋","province":"東京都","city":"中央区","address":"東京都中央区銀座8丁目3-7","lat":35.66870796,"lon":139.75892294},{"name":"聖路加病院前","province":"東京都","city":"中央区","address":"東京都中央区明石町12-1","lat":35.66657812,"lon":139.77679376},{"name":"築地警察署前","province":"東京都","city":"中央区","address":"東京都中央区築地1丁目6","lat":35.67027478,"lon":139.77131348},{"name":"築地暁橋","province":"東京都","city":"中央区","address":"東京都中央区明石町11-15","lat":35.66711412,"lon":139.77481056},{"name":"聖路加ガーデン前","province":"東京都","city":"中央区","address":"東京都中央区明石町13-1","lat":35.66615041,"lon":139.77768536},{"name":"明石小学校前","province":"東京都","city":"中央区","address":"東京都中央区明石町9-1","lat":35.66741137,"lon":139.77705481},{"name":"月島三丁目","province":"東京都","city":"中央区","address":"東京都中央区月島1丁目27-9","lat":35.66316198,"lon":139.78207955},{"name":"勝どき駅前","province":"東京都","city":"中央区","address":"東京都中央区勝どき1丁目7-1","lat":35.65987332,"lon":139.77761338},{"name":"初見橋","province":"東京都","city":"中央区","address":"東京都中央区佃2丁目17-8","lat":35.664723,"lon":139.7848487},{"name":"新月橋","province":"東京都","city":"中央区","address":"東京都中央区月島1丁目2-9","lat":35.66522013,"lon":139.78346268},{"name":"月島出張所前","province":"東京都","city":"中央区","address":"東京都中央区月島3丁目12-5","lat":35.66231205,"lon":139.78151296},{"name":"晴海二丁目","province":"東京都","city":"中央区","address":"東京都中央区晴海1丁目8-10","lat":35.65637941,"lon":139.78234084},{"name":"晴月橋南","province":"東京都","city":"中央区","address":"東京都中央区晴海1丁目6","lat":35.65872641,"lon":139.78401006},{"name":"佃二丁目北","province":"東京都","city":"中央区","address":"東京都中央区佃2丁目11","lat":35.66661448,"lon":139.78540973},{"name":"三井記念美術館","province":"東京都","city":"中央区","address":"中央区日本橋室町2-1-1三井会館7階","lat":35.686293,"lon":139.772996},{"name":"東京都味噌工業協同組合","province":"東京都","city":"中央区","address":"東京都中央区日本橋浜町2丁目16-5","lat":35.68747342,"lon":139.78640757},{"name":"全国味噌工業協同組合連合会","province":"東京都","city":"中央区","address":"東京都中央区新川1丁目26-19","lat":35.67648277,"lon":139.78356776},{"name":"日本醤油協会","province":"東京都","city":"中央区","address":"東京都中央区日本橋小網町3-11","lat":35.68117393,"lon":139.7826819},{"name":"晴海給水所","province":"東京都","city":"中央区","address":"東京都中央区晴海1丁目6-3","lat":35.65852366,"lon":139.78411284},{"name":"区立あかつき公園","province":"東京都","city":"中央区","address":"東京都中央区築地7丁目19-1","lat":35.66666142,"lon":139.7758105},{"name":"区立堀留児童公園","province":"東京都","city":"中央区","address":"東京都中央区日本橋堀留町1丁目1-16","lat":35.68635386,"lon":139.77931298},{"name":"東京都味噌工業協同組合","province":"東京都","city":"中央区","address":"東京都中央区日本橋浜町2丁目16-5","lat":35.68747342,"lon":139.78640757},{"name":"全国味噌工業協同組合連合会","province":"東京都","city":"中央区","address":"東京都中央区新川1丁目26-19","lat":35.67648277,"lon":139.78356776},{"name":"月島ふ頭","province":"東京都","city":"中央区","address":"東京都中央区豊海町","lat":35.65314056,"lon":139.77090583},{"name":"常盤橋","province":"東京都","city":"中央区","address":"東京都中央区日本橋本石町2丁目1","lat":35.6869841,"lon":139.77150202},{"name":"第一方面交通機動隊","province":"東京都","city":"中央区","address":"中央区晴海1-1-24","lat":35.66121,"lon":139.7874},{"name":"中央警察署","province":"東京都","city":"中央区","address":"中央区日本橋兜町14-2","lat":35.68044,"lon":139.7771},{"name":"月島警察署","province":"東京都","city":"中央区","address":"中央区勝どき6-7-19","lat":35.65475,"lon":139.7715},{"name":"築地警察署","province":"東京都","city":"中央区","address":"中央区築地1-6-1","lat":35.67025,"lon":139.7714},{"name":"久松警察署","province":"東京都","city":"中央区","address":"中央区日本橋久松町8-1","lat":35.68836,"lon":139.7847},{"name":"京橋消防署","province":"東京都","city":"中央区","address":"中央区京橋3-14-1","lat":35.67439,"lon":139.7723},{"name":"日本橋消防署","province":"東京都","city":"中央区","address":"中央区日本橋兜町14-12","lat":35.68013,"lon":139.7776},{"name":"臨港消防署","province":"東京都","city":"中央区","address":"中央区晴海5-1-27","lat":35.6519,"lon":139.7736},{"name":"常盤橋","province":"東京都","city":"中央区","address":"東京都中央区日本橋本石町2丁目1","lat":35.6869841,"lon":139.77150202}]}