{"keyword":"男女","data":[{"name":"新川二丁目５番緑地","province":"東京都","city":"中央区","address":"東京都中央区新川2丁目5-9","lat":35.67653268,"lon":139.78056802},{"name":"十思保育園","province":"東京都","city":"中央区","address":"中央区日本橋小伝馬町5-1","lat":35.690887,"lon":139.777032},{"name":"にじいろ保育園小伝馬町","province":"東京都","city":"中央区","address":"中央区日本橋小伝馬町13-7","lat":35.691153,"lon":139.779549},{"name":"日生東日本橋保育園ひびき","province":"東京都","city":"中央区","address":"中央区東日本橋一丁目5番13号セイワ東日本橋ビル1~4階","lat":35.691142,"lon":139.785896},{"name":"テンダーラビング保育園東日本橋","province":"東京都","city":"中央区","address":"中央区東日本橋1-4-6東日本橋一丁目ビル1・2F","lat":35.691009,"lon":139.786219},{"name":"あい保育園日本橋","province":"東京都","city":"中央区","address":"中央区日本橋富沢町9番10号","lat":35.689526,"lon":139.782857},{"name":"にんぎょうちょうさくらさくほいくえん","province":"東京都","city":"中央区","address":"中央区日本橋富沢町2-6","lat":35.687879,"lon":139.783727},{"name":"かふう保育園日本橋","province":"東京都","city":"中央区","address":"中央区日本橋富沢町10-18ユニゾ東日本橋ビル2F","lat":35.689551,"lon":139.781916},{"name":"浜町保育園","province":"東京都","city":"中央区","address":"中央区日本橋浜町3-37-1","lat":35.685518,"lon":139.791302},{"name":"キッズハウス浜町公園","province":"東京都","city":"中央区","address":"中央区日本橋浜町2-44-4第17村上ビル1・2F","lat":35.687621,"lon":139.788069},{"name":"中央区立堀留町保育園","province":"東京都","city":"中央区","address":"中央区日本橋堀留町1-1-1-2F","lat":35.687412,"lon":139.778963},{"name":"ほっぺるランド日本橋堀留町","province":"東京都","city":"中央区","address":"中央区日本橋堀留町二丁目8番4号日本橋コアビル1階","lat":35.688654,"lon":139.781402},{"name":"人形町保育園","province":"東京都","city":"中央区","address":"中央区日本橋人形町2-14-5","lat":35.684604,"lon":139.784849},{"name":"モニカ人形町園","province":"東京都","city":"中央区","address":"中央区日本橋人形町三丁目7番5号","lat":35.68664,"lon":139.781357},{"name":"日本橋保育園","province":"東京都","city":"中央区","address":"中央区日本橋蛎殻町1-1-2","lat":35.68076,"lon":139.783526},{"name":"グローバルキッズかきがら園","province":"東京都","city":"中央区","address":"中央区日本橋蛎殻町一丁目16番11号ユニゾ蛎殻町一丁目ビル1・2階","lat":35.683143,"lon":139.782554},{"name":"あい保育園水天宮","province":"東京都","city":"中央区","address":"中央区日本橋蛎殻町一丁目29番9号","lat":35.683121,"lon":139.783874},{"name":"学栄ナーサリー日本橋蛎殻町保育園","province":"東京都","city":"中央区","address":"中央区日本橋蛎殻町2-15-5","lat":35.684335,"lon":139.786785},{"name":"コビープリスクールはこざき","province":"東京都","city":"中央区","address":"中央区日本橋箱崎町17番9号箱崎升喜ビル1・2階","lat":35.680571,"lon":139.785154},{"name":"京橋こども園","province":"東京都","city":"中央区","address":"中央区京橋2-17-7","lat":35.676188,"lon":139.773388},{"name":"中央区立八丁堀保育園","province":"東京都","city":"中央区","address":"中央区八丁堀4-5-10","lat":35.674013,"lon":139.775874},{"name":"太陽の子新川保育園","province":"東京都","city":"中央区","address":"中央区新川一丁目24番1号秀和第二新川ビル2階","lat":35.676788,"lon":139.785276},{"name":"あい保育園新川","province":"東京都","city":"中央区","address":"中央区新川1-26-9新川イワデビル1.2階","lat":35.676027,"lon":139.78404},{"name":"日生新川保育園ひびき","province":"東京都","city":"中央区","address":"中央区新川2-30-3","lat":35.672819,"lon":139.782943},{"name":"桜川保育園","province":"東京都","city":"中央区","address":"中央区入船1-1-13","lat":35.673752,"lon":139.778213},{"name":"ブライト保育園東京入船","province":"東京都","city":"中央区","address":"中央区入船3-5-10藤和入船ビル2F","lat":35.67085,"lon":139.77628},{"name":"明石町保育園","province":"東京都","city":"中央区","address":"中央区明石町12-1","lat":35.666506,"lon":139.777035},{"name":"ぽけっとランド明石町保育園","province":"東京都","city":"中央区","address":"中央区明石町7番15号2・3階","lat":35.66769,"lon":139.778736},{"name":"築地保育園","province":"東京都","city":"中央区","address":"中央区築地4-15-1","lat":35.666378,"lon":139.76815},{"name":"つくだ保育園","province":"東京都","city":"中央区","address":"中央区佃2-2-2","lat":35.666867,"lon":139.786907},{"name":"みちてる保育園","province":"東京都","city":"中央区","address":"中央区佃二丁目22番2号","lat":35.666509,"lon":139.786718},{"name":"保育所まぁむ月島駅前園","province":"東京都","city":"中央区","address":"中央区佃2-10-9ライオンズタワー月島","lat":35.666095,"lon":139.784438},{"name":"ほっぺるランド佃","province":"東京都","city":"中央区","address":"中央区佃1-11-8-2F","lat":35.669775,"lon":139.784415},{"name":"月島保育園","province":"東京都","city":"中央区","address":"中央区月島2-10-3","lat":35.663187,"lon":139.783929},{"name":"太陽の子月島保育園","province":"東京都","city":"中央区","address":"中央区月島一丁目5番2号キャピタルゲートプレイス2階","lat":35.663904,"lon":139.783246},{"name":"アンジェリカ月島保育園","province":"東京都","city":"中央区","address":"中央区月島二丁目13番5号2・3階","lat":35.662854,"lon":139.783555},{"name":"月島聖ルカ保育園","province":"東京都","city":"中央区","address":"中央区月島四丁目5番8号","lat":35.66044,"lon":139.783313},{"name":"つきのみさきさくらさくほいくえん","province":"東京都","city":"中央区","address":"中央区月島四丁目4番11号","lat":35.660876,"lon":139.783382},{"name":"晴海こども園","province":"東京都","city":"中央区","address":"中央区晴海2-4-31","lat":35.654907,"lon":139.783935},{"name":"晴海保育園","province":"東京都","city":"中央区","address":"中央区晴海1-5-15","lat":35.659549,"lon":139.784543},{"name":"ポピンズナーサリースクール晴海","province":"東京都","city":"中央区","address":"中央区晴海二丁目1番40号晴海フロント2階","lat":35.655899,"lon":139.783977},{"name":"アスク晴海３丁目保育園","province":"東京都","city":"中央区","address":"中央区晴海三丁目10番1号グラスシティ晴海1階","lat":35.654038,"lon":139.779116},{"name":"はるみさくらさくほいくえん","province":"東京都","city":"中央区","address":"中央区晴海2-5-24","lat":35.655393,"lon":139.782546},{"name":"小学館アカデミー勝どきこども園","province":"東京都","city":"中央区","address":"中央区勝どき一丁目3番1号アパートメンツタワー勝どき2階","lat":35.660775,"lon":139.776948},{"name":"かちどき西保育園","province":"東京都","city":"中央区","address":"中央区勝どき1-8-1-3F","lat":35.659665,"lon":139.776583},{"name":"勝どき保育園","province":"東京都","city":"中央区","address":"中央区勝どき1-4-1","lat":35.660368,"lon":139.777208},{"name":"まなびの森保育園勝どき","province":"東京都","city":"中央区","address":"中央区勝どき三丁目3番7号KNリバーシティ2階","lat":35.659223,"lon":139.774891},{"name":"アスク勝どき保育園","province":"東京都","city":"中央区","address":"中央区勝どき四丁目8番14号","lat":35.656912,"lon":139.775597},{"name":"ほっぺるランド勝どき","province":"東京都","city":"中央区","address":"中央区勝どき三丁目4番4号","lat":35.659082,"lon":139.775683},{"name":"さわやか保育園・勝どき６丁目","province":"東京都","city":"中央区","address":"中央区勝どき六丁目3番1号","lat":35.654724,"lon":139.774347},{"name":"ベネッセ勝どき保育園","province":"東京都","city":"中央区","address":"中央区勝どき5-1-17勝どきザ・リバーフロント2F","lat":35.658046,"lon":139.772575},{"name":"ほっぺるランド新島橋かちどき","province":"東京都","city":"中央区","address":"中央区勝どき5-2-15-1・2階","lat":35.657193,"lon":139.773405},{"name":"勝どきえほん保育園","province":"東京都","city":"中央区","address":"中央区勝どき6-1-9","lat":35.65594,"lon":139.774159},{"name":"放課後等デイサービス　ポジリブ","province":"東京都","city":"中央区","address":"中央区日本橋久松町6-9ASONE日本橋East2階","lat":35.689481,"lon":139.784357},{"name":"放課後等デイサービス　ミライエ日本橋","province":"東京都","city":"中央区","address":"中央区日本橋蛎殻町2-5-3","lat":35.683924,"lon":139.785185},{"name":"児童デイサービス　スマイル日本橋","province":"東京都","city":"中央区","address":"中央区日本橋茅場町2-17-9長尾ビル201号室","lat":35.678607,"lon":139.780696},{"name":"ゆうゆうらいふアカデミー中央","province":"東京都","city":"中央区","address":"中央区新川2-18-5ASビル2階","lat":35.674519,"lon":139.781649},{"name":"トリプル・ハート","province":"東京都","city":"中央区","address":"中央区新富2-2-142階","lat":35.671872,"lon":139.772563},{"name":"中央区立福祉センター","province":"東京都","city":"中央区","address":"中央区明石町12-1","lat":35.666506,"lon":139.777035},{"name":"中央区立子ども発達支援センター","province":"東京都","city":"中央区","address":"中央区明石町12-1","lat":35.666506,"lon":139.777035},{"name":"中央区立知的障害者生活支援施設レインボーハウス明石","province":"東京都","city":"中央区","address":"中央区明石町1-6","lat":35.669292,"lon":139.776716},{"name":"啓成会義肢研究製作所","province":"東京都","city":"中央区","address":"中央区日本橋本町4-5-13和光純薬ビル","lat":35.690639,"lon":139.774563},{"name":"中央区立福祉センターふれあい作業所","province":"東京都","city":"中央区","address":"中央区晴海1-4-1","lat":35.658851,"lon":139.785538},{"name":"中央区保健所","province":"東京都","city":"中央区","address":"中央区明石町12-1","lat":35.666506,"lon":139.777035},{"name":"日本橋保健センター","province":"東京都","city":"中央区","address":"中央区日本橋堀留町1-1-1","lat":35.687412,"lon":139.778963},{"name":"月島保健センター","province":"東京都","city":"中央区","address":"中央区月島2-10-3","lat":35.663187,"lon":139.783929},{"name":"東京都八重洲駐車場","province":"東京都","city":"中央区","address":"東京都中央区日本橋3丁目","lat":35.6798321,"lon":139.77222703},{"name":"東京都日本橋駐車場","province":"東京都","city":"中央区","address":"東京都中央区日本橋1丁目","lat":35.68257362,"lon":139.77708232},{"name":"東京都宝町駐車場","province":"東京都","city":"中央区","address":"東京都中央区日本橋3丁目","lat":35.6798321,"lon":139.77222703},{"name":"東京都新京橋駐車場","province":"東京都","city":"中央区","address":"東京都中央区京橋3丁目","lat":35.67571581,"lon":139.76939125},{"name":"東京都東銀座駐車場","province":"東京都","city":"中央区","address":"東京都中央区銀座5丁目","lat":35.67068289,"lon":139.76467514},{"name":"浜離宮恩賜庭園","province":"東京都","city":"中央区","address":"東京都中央区浜離宮庭園1","lat":35.662301,"lon":139.763075},{"name":"浜離宮恩賜庭園","province":"東京都","city":"中央区","address":"東京都中央区浜離宮庭園1","lat":35.660184,"lon":139.767002},{"name":"浜離宮恩賜庭園","province":"東京都","city":"中央区","address":"東京都中央区浜離宮庭園1","lat":35.659247,"lon":139.763412},{"name":"浜離宮恩賜庭園","province":"東京都","city":"中央区","address":"東京都中央区浜離宮庭園1","lat":35.660405,"lon":139.76227},{"name":"東京都宝町駐車場","province":"東京都","city":"中央区","address":"東京都中央区京橋1丁目14","lat":35.677093,"lon":139.772881},{"name":"東京都八重洲駐車場","province":"東京都","city":"中央区","address":"東京都中央区京橋1丁目7","lat":35.678722,"lon":139.77243},{"name":"東京都八重洲駐車場","province":"東京都","city":"中央区","address":"東京都中央区日本橋3丁目5","lat":35.679061,"lon":139.772611},{"name":"晴海ふ頭公園","province":"東京都","city":"中央区","address":"東京都中央区晴海5丁目8","lat":35.647258,"lon":139.772422},{"name":"晴海ふ頭公園","province":"東京都","city":"中央区","address":"東京都中央区晴海5丁目8","lat":35.648511,"lon":139.770477},{"name":"都営浅草線宝町駅","province":"東京都","city":"中央区","address":"東京都中央区京橋3丁目13","lat":35.674928,"lon":139.771715},{"name":"都営浅草線東銀座駅","province":"東京都","city":"中央区","address":"東京都中央区銀座4丁目10","lat":35.669978,"lon":139.76675},{"name":"都営浅草線日本橋駅","province":"東京都","city":"中央区","address":"東京都中央区日本橋2丁目8","lat":35.68166,"lon":139.775588},{"name":"都営浅草線人形町駅","province":"東京都","city":"中央区","address":"東京都中央区日本橋人形町3丁目7","lat":35.686088,"lon":139.781705},{"name":"都営浅草線東日本橋駅","province":"東京都","city":"中央区","address":"東京都中央区東日本橋3丁目12","lat":35.692491,"lon":139.7848},{"name":"都営新宿線馬喰横山駅","province":"東京都","city":"中央区","address":"東京都中央区東日本橋3丁目9","lat":35.691567,"lon":139.783446},{"name":"都営新宿線浜町駅","province":"東京都","city":"中央区","address":"東京都中央区日本橋浜町2丁目59","lat":35.688452,"lon":139.788266},{"name":"都営大江戸線月島駅","province":"東京都","city":"中央区","address":"東京都中央区月島1丁目5","lat":35.663824,"lon":139.784082},{"name":"都営大江戸線勝どき駅","province":"東京都","city":"中央区","address":"東京都中央区勝どき1丁目7","lat":35.65948,"lon":139.777795},{"name":"都営大江戸線勝どき駅","province":"東京都","city":"中央区","address":"東京都中央区勝どき2丁目10","lat":35.658964,"lon":139.777214},{"name":"都営大江戸線築地市場駅","province":"東京都","city":"中央区","address":"東京都中央区築地5丁目3","lat":35.664875,"lon":139.766858},{"name":"日本橋消防署浜町出張所","province":"東京都","city":"中央区","address":"東京都中央区日本橋浜町3丁目45-12","lat":35.685306,"lon":139.791846},{"name":"臨港消防署","province":"東京都","city":"中央区","address":"東京都中央区晴海5丁目8-20","lat":35.649473,"lon":139.770767},{"name":"臨港消防署月島出張所","province":"東京都","city":"中央区","address":"東京都中央区勝どき4丁目6-3","lat":35.656943,"lon":139.776759},{"name":"中央区役所本庁舎","province":"東京都","city":"中央区","address":"東京都中央区築地1丁目1-1","lat":35.670677,"lon":139.772281},{"name":"中央区役所本庁舎","province":"東京都","city":"中央区","address":"東京都中央区築地1丁目1-1","lat":35.670713,"lon":139.772385},{"name":"中央区役所本庁舎","province":"東京都","city":"中央区","address":"東京都中央区築地1丁目1-1","lat":35.67066,"lon":139.772281},{"name":"中央区役所本庁舎","province":"東京都","city":"中央区","address":"東京都中央区築地1丁目1-1","lat":35.670668,"lon":139.772281},{"name":"日本橋特別出張所","province":"東京都","city":"中央区","address":"東京都中央区日本橋蛎殻町1丁目31-1","lat":35.682522,"lon":139.784288},{"name":"中央区立京橋区民館","province":"東京都","city":"中央区","address":"東京都中央区京橋2丁目6-7","lat":35.676591,"lon":139.771282},{"name":"月島特別出張所","province":"東京都","city":"中央区","address":"東京都中央区月島4丁目1-1","lat":35.662096,"lon":139.782234},{"name":"中央区立男女平等センター「ブーケ２１」","province":"東京都","city":"中央区","address":"東京都中央区湊1丁目1-1","lat":35.67351,"lon":139.778774},{"name":"中央区立京橋プラザ区民館","province":"東京都","city":"中央区","address":"東京都中央区銀座1丁目25-1","lat":35.673246,"lon":139.771653},{"name":"中央区立銀座区民館","province":"東京都","city":"中央区","address":"東京都中央区銀座4丁目13-17","lat":35.669492,"lon":139.768684},{"name":"中央区立新川区民館","province":"東京都","city":"中央区","address":"東京都中央区新川1丁目26-19","lat":35.676475,"lon":139.78358},{"name":"中央区立堀留町区民館","province":"東京都","city":"中央区","address":"東京都中央区日本橋堀留町1丁目1-1","lat":35.687441,"lon":139.778887},{"name":"中央区立人形町区民館","province":"東京都","city":"中央区","address":"東京都中央区日本橋人形町2丁目14-5","lat":35.684595,"lon":139.784823},{"name":"中央区立人形町区民館","province":"東京都","city":"中央区","address":"東京都中央区日本橋人形町2丁目14-5","lat":35.684528,"lon":139.784911},{"name":"中央区立久松町区民館","province":"東京都","city":"中央区","address":"東京都中央区日本橋久松町1","lat":35.688677,"lon":139.783952},{"name":"中央区立新場橋区民館","province":"東京都","city":"中央区","address":"東京都中央区日本橋兜町11-9","lat":35.679999,"lon":139.776322},{"name":"中央区立浜町区民館","province":"東京都","city":"中央区","address":"東京都中央区日本橋浜町3丁目37-1","lat":35.685526,"lon":139.791511},{"name":"中央区立佃区民館","province":"東京都","city":"中央区","address":"東京都中央区佃2丁目17-8","lat":35.664886,"lon":139.784978},{"name":"中央区立月島区民館","province":"東京都","city":"中央区","address":"東京都中央区月島2丁目8","lat":35.663258,"lon":139.784671},{"name":"中央区立勝どき区民館","province":"東京都","city":"中央区","address":"東京都中央区勝どき1丁目5","lat":35.660716,"lon":139.777777},{"name":"中央区立豊海区民館","province":"東京都","city":"中央区","address":"東京都中央区豊海町2-6","lat":35.654215,"lon":139.771932},{"name":"中央区立晴海区民館","province":"東京都","city":"中央区","address":"東京都中央区晴海1丁目8-6","lat":35.657183,"lon":139.783252},{"name":"中央区立セレモニーホール","province":"東京都","city":"中央区","address":"東京都中央区勝どき1丁目13-19","lat":35.66042,"lon":139.774675},{"name":"中央区立浜町集会施設","province":"東京都","city":"中央区","address":"東京都中央区日本橋浜町2丁目59-48","lat":35.687404,"lon":139.790345},{"name":"中央区立浜町集会施設","province":"東京都","city":"中央区","address":"東京都中央区日本橋浜町2丁目59-48","lat":35.687386,"lon":139.790354},{"name":"中央区立浜町集会施設","province":"東京都","city":"中央区","address":"東京都中央区日本橋浜町2丁目59-48","lat":35.68743,"lon":139.790324},{"name":"京華スクエア","province":"東京都","city":"中央区","address":"東京都中央区八丁堀3丁目17-9","lat":35.674975,"lon":139.775902},{"name":"京華スクエア","province":"東京都","city":"中央区","address":"東京都中央区八丁堀3丁目17-9","lat":35.674821,"lon":139.77582},{"name":"中央区保健所等複合施設","province":"東京都","city":"中央区","address":"東京都中央区明石町12","lat":35.666818,"lon":139.776279},{"name":"中央区立産業会館","province":"東京都","city":"中央区","address":"東京都中央区東日本橋2丁目22-4","lat":35.693993,"lon":139.787071},{"name":"中央区立日本橋保健センター","province":"東京都","city":"中央区","address":"東京都中央区日本橋堀留町1丁目1-1","lat":35.687497,"lon":139.778987},{"name":"中央区立月島保健センター","province":"東京都","city":"中央区","address":"東京都中央区月島2丁目10-3","lat":35.663187,"lon":139.783954},{"name":"中央区立京橋図書館","province":"東京都","city":"中央区","address":"東京都中央区新富1丁目13-14","lat":35.673687,"lon":139.775553},{"name":"中央区立日本橋図書館","province":"東京都","city":"中央区","address":"東京都中央区日本橋人形町1丁目1-17","lat":35.684901,"lon":139.781491},{"name":"中央区立月島図書館","province":"東京都","city":"中央区","address":"東京都中央区月島4丁目1-1","lat":35.662138,"lon":139.782263},{"name":"中央区立築地社会教育会館","province":"東京都","city":"中央区","address":"東京都中央区築地4丁目15-1","lat":35.666363,"lon":139.768254},{"name":"中央区立築地社会教育会館","province":"東京都","city":"中央区","address":"東京都中央区築地4丁目15-1","lat":35.666363,"lon":139.768311},{"name":"中央区立日本橋社会教育会館","province":"東京都","city":"中央区","address":"東京都中央区日本橋人形町1丁目1-17","lat":35.684831,"lon":139.781553},{"name":"中央区立日本橋社会教育会館","province":"東京都","city":"中央区","address":"東京都中央区日本橋人形町1丁目1-17","lat":35.684766,"lon":139.781576},{"name":"中央区立月島社会教育会館","province":"東京都","city":"中央区","address":"東京都中央区月島4丁目1-1","lat":35.662143,"lon":139.782298},{"name":"中央区立月島社会教育会館晴海分館アートはるみ","province":"東京都","city":"中央区","address":"東京都中央区晴海1丁目4-1","lat":35.658858,"lon":139.786067},{"name":"中央区立中央会館","province":"東京都","city":"中央区","address":"東京都中央区銀座2丁目15-6","lat":35.67125,"lon":139.771336},{"name":"日本橋公会堂","province":"東京都","city":"中央区","address":"東京都中央区日本橋蛎殻町1丁目31-1","lat":35.682308,"lon":139.784132},{"name":"水谷橋公園内公衆便所","province":"東京都","city":"中央区","address":"東京都中央区銀座1丁目12","lat":35.674325,"lon":139.769838},{"name":"数寄屋橋公園内公衆便所","province":"東京都","city":"中央区","address":"東京都中央区銀座5丁目1","lat":35.672389,"lon":139.762086},{"name":"桜川公園内公衆便所","province":"東京都","city":"中央区","address":"東京都中央区入船1丁目1","lat":35.673583,"lon":139.77699},{"name":"鉄砲洲児童公園内公衆便所","province":"東京都","city":"中央区","address":"東京都中央区湊1丁目5","lat":35.671839,"lon":139.77935},{"name":"元南明橋際公衆便所","province":"東京都","city":"中央区","address":"東京都中央区築地7丁目19","lat":35.66669,"lon":139.775916},{"name":"築地川公園内公衆便所","province":"東京都","city":"中央区","address":"東京都中央区明石町10","lat":35.667853,"lon":139.774547},{"name":"はとば公園内公衆便所","province":"東京都","city":"中央区","address":"東京都中央区築地6丁目19","lat":35.664137,"lon":139.774845},{"name":"越前堀児童公園内公衆便所","province":"東京都","city":"中央区","address":"東京都中央区新川1丁目12","lat":35.676428,"lon":139.782774},{"name":"新川公園内公衆便所","province":"東京都","city":"中央区","address":"東京都中央区新川1丁目31","lat":35.67555,"lon":139.786142},{"name":"高橋際公衆便所","province":"東京都","city":"中央区","address":"東京都中央区新川2丁目9","lat":35.674793,"lon":139.780336},{"name":"市場橋公園内公衆便所","province":"東京都","city":"中央区","address":"東京都中央区築地4丁目15","lat":35.665992,"lon":139.768735},{"name":"常盤公園内公衆便所","province":"東京都","city":"中央区","address":"東京都中央区日本橋本石町4丁目4","lat":35.687969,"lon":139.76988},{"name":"堀留児童公園内公衆便所","province":"東京都","city":"中央区","address":"東京都中央区日本橋堀留町1丁目1","lat":35.686436,"lon":139.779285},{"name":"十思公園内公衆便所","province":"東京都","city":"中央区","address":"東京都中央区日本橋小伝馬町5","lat":35.691114,"lon":139.77782},{"name":"小網町二丁目公衆便所","province":"東京都","city":"中央区","address":"東京都中央区日本橋小網町9","lat":35.68373,"lon":139.78003},{"name":"蛎殻町公園内公衆便所","province":"東京都","city":"中央区","address":"東京都中央区日本橋蛎殻町2丁目10","lat":35.682835,"lon":139.78728},{"name":"箱崎川第二公園内公衆便所","province":"東京都","city":"中央区","address":"東京都中央区日本橋箱崎町3","lat":35.680925,"lon":139.785016},{"name":"箱崎公園内公衆便所","province":"東京都","city":"中央区","address":"東京都中央区日本橋箱崎町18","lat":35.679738,"lon":139.78622},{"name":"千代田公園内公衆便所","province":"東京都","city":"中央区","address":"東京都中央区東日本橋1丁目10","lat":35.692511,"lon":139.787553},{"name":"久松児童公園内公衆便所","province":"東京都","city":"中央区","address":"東京都中央区日本橋久松町1","lat":35.688101,"lon":139.784554},{"name":"浜町公園内西側公衆便所","province":"東京都","city":"中央区","address":"東京都中央区日本橋浜町2丁目59","lat":35.688477,"lon":139.788468},{"name":"浜町公園内南側公衆便所","province":"東京都","city":"中央区","address":"東京都中央区日本橋浜町2丁目59","lat":35.687227,"lon":139.789245},{"name":"あやめ第一公園内公衆便所","province":"東京都","city":"中央区","address":"東京都中央区日本橋中洲14","lat":35.684252,"lon":139.79084},{"name":"茅場橋際公衆便所","province":"東京都","city":"中央区","address":"東京都中央区日本橋茅場町1丁目14","lat":35.68068,"lon":139.780894},{"name":"新亀島橋際公衆便所","province":"東京都","city":"中央区","address":"東京都中央区日本橋茅場町2丁目17","lat":35.677863,"lon":139.779909},{"name":"佃公園内公衆便所","province":"東京都","city":"中央区","address":"東京都中央区佃1丁目11","lat":35.668827,"lon":139.78263},{"name":"月島第一児童公園内公衆便所","province":"東京都","city":"中央区","address":"東京都中央区月島4丁目2","lat":35.661723,"lon":139.783125},{"name":"月島第二児童公園内公衆便所","province":"東京都","city":"中央区","address":"東京都中央区勝どき1丁目9","lat":35.659574,"lon":139.776035},{"name":"豊海児童公園内公衆便所","province":"東京都","city":"中央区","address":"東京都中央区勝どき6丁目6","lat":35.654164,"lon":139.773403},{"name":"新月島公園内公衆便所","province":"東京都","city":"中央区","address":"東京都中央区晴海1丁目3","lat":35.659116,"lon":139.786349},{"name":"黎明橋公園内公衆便所","province":"東京都","city":"中央区","address":"東京都中央区晴海3丁目1","lat":35.656708,"lon":139.77987},{"name":"相生橋際公衆便所","province":"東京都","city":"中央区","address":"東京都中央区佃2丁目2","lat":35.666608,"lon":139.78724},{"name":"石川島公園内公衆便所","province":"東京都","city":"中央区","address":"東京都中央区佃2丁目1","lat":35.671078,"lon":139.78549},{"name":"晴海第一公園内公衆便所","province":"東京都","city":"中央区","address":"東京都中央区晴海1丁目7","lat":35.658579,"lon":139.785052},{"name":"晴海臨海公園内公衆便所","province":"東京都","city":"中央区","address":"東京都中央区晴海2丁目4","lat":35.654218,"lon":139.783377},{"name":"月島三丁目児童遊園内公衆便所","province":"東京都","city":"中央区","address":"東京都中央区月島3丁目1","lat":35.664405,"lon":139.780427},{"name":"佃大橋東公衆便所","province":"東京都","city":"中央区","address":"東京都中央区佃1丁目7","lat":35.66651,"lon":139.782926},{"name":"佃三丁目公園内公衆便所","province":"東京都","city":"中央区","address":"東京都中央区佃3丁目12","lat":35.663531,"lon":139.787134},{"name":"豊海運動公園内公衆便所","province":"東京都","city":"中央区","address":"東京都中央区豊海町3","lat":35.653335,"lon":139.772262},{"name":"坂本町公園内公衆便所","province":"東京都","city":"中央区","address":"東京都中央区日本橋兜町15","lat":35.680017,"lon":139.777432},{"name":"新京橋際公衆便所","province":"東京都","city":"中央区","address":"東京都中央区京橋3丁目11","lat":35.674444,"lon":139.771577},{"name":"京橋際公衆便所","province":"東京都","city":"中央区","address":"東京都中央区銀座1丁目2","lat":35.674971,"lon":139.768659},{"name":"元木挽橋際公衆便所","province":"東京都","city":"中央区","address":"東京都中央区銀座6丁目13","lat":35.669262,"lon":139.765351},{"name":"出雲橋際公衆便所","province":"東京都","city":"中央区","address":"東京都中央区銀座7丁目12-9","lat":35.667909,"lon":139.763646},{"name":"元八通八橋際公衆便所","province":"東京都","city":"中央区","address":"東京都中央区銀座8丁目11","lat":35.667226,"lon":139.762119},{"name":"佃大橋西詰公衆便所","province":"東京都","city":"中央区","address":"東京都中央区明石町6","lat":35.668361,"lon":139.780131},{"name":"築地二丁目公衆便所","province":"東京都","city":"中央区","address":"東京都中央区築地2丁目13","lat":35.667714,"lon":139.771788},{"name":"中央市場脇公衆便所","province":"東京都","city":"中央区","address":"東京都中央区築地5丁目2","lat":35.660745,"lon":139.77063},{"name":"門跡橋東公衆便所","province":"東京都","city":"中央区","address":"東京都中央区築地6丁目1","lat":35.66535,"lon":139.772133},{"name":"霊岸橋際公衆便所","province":"東京都","city":"中央区","address":"東京都中央区新川1丁目3","lat":35.678888,"lon":139.781723},{"name":"東新川橋際公衆便所","province":"東京都","city":"中央区","address":"東京都中央区新川1丁目25-9","lat":35.676405,"lon":139.78471},{"name":"亀島橋際公衆便所","province":"東京都","city":"中央区","address":"東京都中央区新川2丁目9","lat":35.676187,"lon":139.779179},{"name":"江戸桜通り地下公衆便所","province":"東京都","city":"中央区","address":"東京都中央区日本橋室町1丁目5-5","lat":35.686224,"lon":139.774365},{"name":"日本橋際公衆便所","province":"東京都","city":"中央区","address":"東京都中央区日本橋室町1丁目8","lat":35.684413,"lon":139.774883},{"name":"江戸橋際公衆便所","province":"東京都","city":"中央区","address":"東京都中央区日本橋本町1丁目10","lat":35.684719,"lon":139.777275},{"name":"隅田川大橋際公衆便所","province":"東京都","city":"中央区","address":"東京都中央区日本橋箱崎町19-35","lat":35.679333,"lon":139.787828},{"name":"箱崎町公衆便所","province":"東京都","city":"中央区","address":"東京都中央区日本橋箱崎町22","lat":35.68098,"lon":139.78621},{"name":"菖蒲橋際公衆便所","province":"東京都","city":"中央区","address":"東京都中央区日本橋浜町3丁目17","lat":35.683646,"lon":139.789681},{"name":"西河岸橋際公衆便所","province":"東京都","city":"中央区","address":"東京都中央区八重洲1丁目1","lat":35.684048,"lon":139.772871},{"name":"海運橋際公衆便所","province":"東京都","city":"中央区","address":"東京都中央区日本橋1丁目21","lat":35.682224,"lon":139.777136},{"name":"浜町緑道内公衆便所","province":"東京都","city":"中央区","address":"東京都中央区日本橋人形町2丁目36","lat":35.686467,"lon":139.786088},{"name":"西仲橋際公衆便所","province":"東京都","city":"中央区","address":"東京都中央区月島3丁目31","lat":35.661286,"lon":139.77841},{"name":"勝どき見晴らし公園内公衆便所","province":"東京都","city":"中央区","address":"東京都中央区勝どき5丁目7","lat":35.657534,"lon":139.77029},{"name":"久安橋際公衆便所","province":"東京都","city":"中央区","address":"東京都中央区八丁堀2丁目1","lat":35.677715,"lon":139.774953},{"name":"亀井橋際公衆便所","province":"東京都","city":"中央区","address":"東京都中央区築地1丁目6","lat":35.670451,"lon":139.770775},{"name":"新場橋際公衆便所","province":"東京都","city":"中央区","address":"東京都中央区日本橋兜町18","lat":35.679242,"lon":139.775928},{"name":"佃小橋際公衆便所","province":"東京都","city":"中央区","address":"東京都中央区佃1丁目10","lat":35.667347,"lon":139.783498},{"name":"元豊玉橋際公衆便所","province":"東京都","city":"中央区","address":"東京都中央区銀座2丁目9","lat":35.672344,"lon":139.767924},{"name":"豊海橋際公衆便所","province":"東京都","city":"中央区","address":"東京都中央区日本橋箱崎町19","lat":35.677701,"lon":139.786931},{"name":"元備前橋際公衆便所","province":"東京都","city":"中央区","address":"東京都中央区築地7丁目5","lat":35.666309,"lon":139.773442},{"name":"あかつき公園内西側公衆便所","province":"東京都","city":"中央区","address":"東京都中央区築地7丁目19","lat":35.66679,"lon":139.775479},{"name":"子ども家庭支援センター「きらら中央」","province":"東京都","city":"中央区","address":"東京都中央区勝どき1丁目4-2","lat":35.660344,"lon":139.777205},{"name":"元新月橋際公衆便所","province":"東京都","city":"中央区","address":"東京都中央区月島1丁目2-9","lat":35.665218,"lon":139.783343},{"name":"中央区立総合スポーツセンター","province":"東京都","city":"中央区","address":"東京都中央区日本橋浜町2丁目59-1","lat":35.687888,"lon":139.789295},{"name":"中央区立総合スポーツセンター","province":"東京都","city":"中央区","address":"東京都中央区日本橋浜町2丁目59-1","lat":35.687838,"lon":139.789115},{"name":"中央区立総合スポーツセンター","province":"東京都","city":"中央区","address":"東京都中央区日本橋浜町2丁目59-1","lat":35.687886,"lon":139.789066},{"name":"中央区立総合スポーツセンター","province":"東京都","city":"中央区","address":"東京都中央区日本橋浜町2丁目59-1","lat":35.687795,"lon":139.789561},{"name":"中央区立総合スポーツセンター","province":"東京都","city":"中央区","address":"東京都中央区日本橋浜町2丁目59-1","lat":35.687714,"lon":139.789184},{"name":"中央区立総合スポーツセンター","province":"東京都","city":"中央区","address":"東京都中央区日本橋浜町2丁目59-1","lat":35.687776,"lon":139.789333},{"name":"中央区立月島スポーツプラザ","province":"東京都","city":"中央区","address":"東京都中央区月島1丁目9-2","lat":35.665115,"lon":139.783039},{"name":"築地児童館","province":"東京都","city":"中央区","address":"東京都中央区築地7丁目9-17","lat":35.666213,"lon":139.775873},{"name":"新川児童館","province":"東京都","city":"中央区","address":"東京都中央区新川2丁目13-4","lat":35.676103,"lon":139.781689},{"name":"堀留町児童館","province":"東京都","city":"中央区","address":"東京都中央区日本橋堀留町1丁目1-1","lat":35.687426,"lon":139.779001},{"name":"月島児童館","province":"東京都","city":"中央区","address":"東京都中央区月島4丁目1-1","lat":35.662124,"lon":139.782333},{"name":"浜町児童館","province":"東京都","city":"中央区","address":"東京都中央区日本橋浜町3丁目37-1","lat":35.685431,"lon":139.791265},{"name":"勝どき児童館","province":"東京都","city":"中央区","address":"東京都中央区勝どき1丁目8-1","lat":35.65953,"lon":139.776667},{"name":"晴海児童館","province":"東京都","city":"中央区","address":"東京都中央区晴海2丁目4-31","lat":35.655024,"lon":139.783879},{"name":"十思スクエア","province":"東京都","city":"中央区","address":"東京都中央区日本橋小伝馬町5-1","lat":35.690748,"lon":139.777312},{"name":"十思スクエア別館","province":"東京都","city":"中央区","address":"東京都中央区日本橋小伝馬町5-19","lat":35.690827,"lon":139.777451},{"name":"障害者就労促進施設「さわやかワーク中央」","province":"東京都","city":"中央区","address":"東京都中央区東日本橋2丁目27-12","lat":35.695438,"lon":139.785739},{"name":"中央区立シニアセンター","province":"東京都","city":"中央区","address":"東京都中央区佃1丁目11-1","lat":35.66898,"lon":139.784789},{"name":"人形町おとしより相談センター","province":"東京都","city":"中央区","address":"東京都中央区日本橋人形町2丁目32-5","lat":35.68625,"lon":139.78556},{"name":"勝どきおとしより相談センター","province":"東京都","city":"中央区","address":"東京都中央区勝どき5丁目1-17","lat":35.657878,"lon":139.772648},{"name":"リサイクルハウスかざぐるま明石町","province":"東京都","city":"中央区","address":"東京都中央区明石町14-1","lat":35.665853,"lon":139.778002},{"name":"中央区営銀座地下駐車場","province":"東京都","city":"中央区","address":"東京都中央区銀座7丁目16","lat":35.66631,"lon":139.76512},{"name":"中央区営浜町公園地下駐車場","province":"東京都","city":"中央区","address":"東京都中央区日本橋浜町2丁目59","lat":35.688917,"lon":139.787466},{"name":"築地魚河岸","province":"東京都","city":"中央区","address":"東京都中央区築地6丁目26","lat":35.665137,"lon":139.7715},{"name":"築地魚河岸","province":"東京都","city":"中央区","address":"東京都中央区築地4丁目16","lat":35.664331,"lon":139.770274},{"name":"築地場外市場地区まちづくり支援施設（店舗施設）","province":"東京都","city":"中央区","address":"東京都中央区築地4丁目16-2","lat":35.665167,"lon":139.769574},{"name":"\"中央区立京橋図書館 \"","province":"東京都","city":"中央区","address":"東京都中央区新富1-13-14","lat":35.673688,"lon":139.7756},{"name":"中央区立日本橋図書館","province":"東京都","city":"中央区","address":"東京都中央区日本橋人形町1-1-17","lat":35.684273,"lon":139.78123},{"name":"\"中央区立月島図書館 \"","province":"東京都","city":"中央区","address":"東京都中央区月島4-1-1","lat":35.661921,"lon":139.78192},{"name":"NewWork日本橋","province":"東京都","city":"中央区","address":"東京都中央区日本橋2丁目8-6","lat":35.68144035,"lon":139.77513517},{"name":"H1T銀座","province":"東京都","city":"中央区","address":"東京都中央区銀座4丁目6-11","lat":35.67116898,"lon":139.76550284},{"name":"中央区保健所","province":"東京都","city":"中央区","address":"東京都中央区明石町12-1","lat":35.66657812,"lon":139.77679376},{"name":"日本橋保健センター","province":"東京都","city":"中央区","address":"東京都中央区日本橋堀留町1丁目1-1","lat":35.68741207,"lon":139.77896299},{"name":"月島保健センター","province":"東京都","city":"中央区","address":"東京都中央区月島2丁目10-3","lat":35.66326202,"lon":139.78397937},{"name":"晴海保健センター","province":"東京都","city":"中央区","address":"東京都中央区晴海4丁目8-1","lat":35.65242978,"lon":139.77998283},{"name":"浜離宮恩賜庭園","province":"東京都","city":"中央区","address":"東京都中央区浜離宮庭園","lat":35.659737,"lon":139.763493},{"name":"晴海給水所","province":"東京都","city":"中央区","address":"東京都中央区晴海1-6-3","lat":35.65832,"lon":139.78408},{"name":"区立あかつき公園","province":"東京都","city":"中央区","address":"東京都中央区築地7-19-1","lat":35.665987,"lon":139.776889},{"name":"区立堀留児童公園","province":"東京都","city":"中央区","address":"東京都中央区日本橋堀留町1-1-16","lat":35.6871001,"lon":139.779214},{"name":"にじいろ保育園小伝馬町","province":"東京都","city":"中央区","address":"中央区日本橋小伝馬町13-7銀泉日本橋小伝馬町ビル1~4F","lat":35.691,"lon":139.77946},{"name":"十思保育園","province":"東京都","city":"中央区","address":"中央区日本橋小伝馬町5-1","lat":35.69107,"lon":139.7774},{"name":"テンダーラビング保育園東日本橋","province":"東京都","city":"中央区","address":"中央区東日本橋1-4-6東日本橋一丁目ビル1・2F","lat":35.69097,"lon":139.78618},{"name":"ミアヘルサ保育園ひびき東日本橋","province":"東京都","city":"中央区","address":"中央区東日本橋1-5-13セイワ東日本橋ビル1~4階","lat":35.69153,"lon":139.78581},{"name":"ほっぺるランド東日本橋","province":"東京都","city":"中央区","address":"中央区東日本橋3-3-3Anelaビル1~3階","lat":35.69145,"lon":139.78264},{"name":"さくらさくみらい　東日本橋","province":"東京都","city":"中央区","address":"中央区東日本橋3-6-15","lat":35.69051,"lon":139.78357},{"name":"ナーサリールーム　ベリーベアー日本橋","province":"東京都","city":"中央区","address":"中央区日本橋久松町9-4","lat":35.68885,"lon":139.78546},{"name":"かふう保育園日本橋","province":"東京都","city":"中央区","address":"中央区日本橋富沢町10-18日本橋富沢町スクエア2F","lat":35.68953,"lon":139.78209},{"name":"さくらさくみらい人形町","province":"東京都","city":"中央区","address":"中央区日本橋富沢町2-6","lat":35.68782,"lon":139.78362},{"name":"まちのてらこや保育園","province":"東京都","city":"中央区","address":"中央区日本橋富沢町4-1ミズホビル1F・2F","lat":35.688,"lon":139.78308},{"name":"アイグラン保育園日本橋","province":"東京都","city":"中央区","address":"中央区日本橋富沢町9-10稲村ビル1階","lat":35.6892,"lon":139.78236},{"name":"ＡＩＡＩ　ＮＵＲＳＥＲＹ　日本橋浜町","province":"東京都","city":"中央区","address":"中央区日本橋浜町1-9-12日本橋プラヤビル2階","lat":35.6903,"lon":139.7877},{"name":"キッズハウス浜町公園","province":"東京都","city":"中央区","address":"中央区日本橋浜町2-44-4第17村上ビル1・2F","lat":35.68755,"lon":139.78824},{"name":"浜町保育園","province":"東京都","city":"中央区","address":"中央区日本橋浜町3-37-1","lat":35.68542,"lon":139.79137},{"name":"グローバルキッズ浜町園","province":"東京都","city":"中央区","address":"中央区日本橋浜町3-40-3パークホームズ日本橋浜町ザレジデンス1階・2階","lat":35.6863,"lon":139.79063},{"name":"堀留町保育園","province":"東京都","city":"中央区","address":"中央区日本橋堀留町1-1-1-2F","lat":35.68706,"lon":139.77928},{"name":"ほっぺるランド日本橋堀留町","province":"東京都","city":"中央区","address":"中央区日本橋堀留町2-8-4日本橋コアビル1階","lat":35.68863,"lon":139.78149},{"name":"人形町保育園","province":"東京都","city":"中央区","address":"中央区日本橋人形町2-14-5","lat":35.68449,"lon":139.78506},{"name":"モニカ人形町園","province":"東京都","city":"中央区","address":"中央区日本橋人形町3-7-5IKTビル1~4F","lat":35.68666,"lon":139.78159},{"name":"日本橋保育園","province":"東京都","city":"中央区","address":"中央区日本橋蛎殻町1-1-2","lat":35.68087,"lon":139.78352},{"name":"グローバルキッズかきがら園","province":"東京都","city":"中央区","address":"中央区日本橋蛎殻町1-16-11EDGE日本橋蛎殻町1・2階","lat":35.68312,"lon":139.78267},{"name":"アイグラン保育園水天宮","province":"東京都","city":"中央区","address":"中央区日本橋蛎殻町1-29-9ネオテック水天宮ビル1・2階","lat":35.68326,"lon":139.78365},{"name":"キッズラボ水天宮前園","province":"東京都","city":"中央区","address":"中央区日本橋蛎殻町1-35-5セイラン水天宮ビル1・2階・B1階","lat":35.68169,"lon":139.78593},{"name":"ＴＨＲＥＥ　ＳＴＡＲ　ＮＵＲＳＥＲＹ蛎殻町園","province":"東京都","city":"中央区","address":"中央区日本橋蛎殻町2-15-5水天宮CPビル1~4F","lat":35.68425,"lon":139.78699},{"name":"コビープリスクールはこざき","province":"東京都","city":"中央区","address":"中央区日本橋箱崎町17ー9箱崎升喜ビル1・2階","lat":35.68048,"lon":139.78513},{"name":"ほっぺるランド茅場町","province":"東京都","city":"中央区","address":"中央区日本橋茅場町2-16-6","lat":35.67824,"lon":139.77994},{"name":"ＥＤＯ日本橋保育園","province":"東京都","city":"中央区","address":"中央区日本橋3-15-10","lat":35.67887,"lon":139.77507},{"name":"昭和こども園","province":"東京都","city":"中央区","address":"中央区八重洲2-1-4八重洲セントラルスクエアB2~B3F","lat":35.679742,"lon":139.7698869},{"name":"京橋こども園","province":"東京都","city":"中央区","address":"中央区京橋2-17-7","lat":35.6761947,"lon":139.7733937},{"name":"八丁堀保育園","province":"東京都","city":"中央区","address":"中央区八丁堀4-5-10","lat":35.674,"lon":139.77544},{"name":"太陽の子新川保育園","province":"東京都","city":"中央区","address":"中央区新川1-24-1ユニゾ新川永代通りビル2階","lat":35.67662,"lon":139.78535},{"name":"アイグラン保育園新川","province":"東京都","city":"中央区","address":"中央区新川1-26-9新川イワデビル1.2階","lat":35.67604,"lon":139.78358},{"name":"ミアヘルサ保育園ひびき八丁堀","province":"東京都","city":"中央区","address":"中央区新川2-30-3NMビル1~4F","lat":35.67296,"lon":139.7827},{"name":"桜川保育園","province":"東京都","city":"中央区","address":"中央区入船1-1-13","lat":35.67356,"lon":139.77757},{"name":"ブライト保育園東京入船","province":"東京都","city":"中央区","address":"中央区入船3-5-10藤和入船ビル2F","lat":35.67076,"lon":139.77654},{"name":"ＴＫチルドレンズファーム湊校","province":"東京都","city":"中央区","address":"中央区湊1-2-9TKオフィスビルディング1~4F・B1F","lat":35.67294,"lon":139.77893},{"name":"明石町保育園","province":"東京都","city":"中央区","address":"中央区明石町12-1","lat":35.66659,"lon":139.77684},{"name":"ぽけっとランド明石町保育園","province":"東京都","city":"中央区","address":"中央区明石町7-15ぱぱす明石町ビル2・3階","lat":35.66772,"lon":139.77898},{"name":"さくらさくみらい築地","province":"東京都","city":"中央区","address":"中央区築地3-10-7","lat":35.66777,"lon":139.77272},{"name":"さくらさくみらい　新富町","province":"東京都","city":"中央区","address":"中央区築地3-1-12フィル・パークTOKYOGINZAShintomi.Lab1~3F","lat":35.66948,"lon":139.7747},{"name":"築地保育園","province":"東京都","city":"中央区","address":"中央区築地4-15-1","lat":35.66605,"lon":139.76854},{"name":"さくらさくみらいつくだ大通り","province":"東京都","city":"中央区","address":"中央区佃1-10-7コンフォール月島1ー3階","lat":35.66749,"lon":139.78391},{"name":"ほっぺるランド佃","province":"東京都","city":"中央区","address":"中央区佃1-11-8ピアウエストスクエアノースウイング2階","lat":35.66927,"lon":139.7834},{"name":"さくらさくみらい佃","province":"東京都","city":"中央区","address":"中央区佃1-4-8","lat":35.66718,"lon":139.78275},{"name":"保育所まぁむ月島駅前園","province":"東京都","city":"中央区","address":"中央区佃2-10-9ライオンズタワー月島1F","lat":35.66609,"lon":139.78441},{"name":"つくだ保育園","province":"東京都","city":"中央区","address":"中央区佃2-2-2","lat":35.66964,"lon":139.78632},{"name":"みちてる保育園","province":"東京都","city":"中央区","address":"中央区佃2-22-2","lat":35.6663,"lon":139.78665},{"name":"ほっぺるランド相生橋つくだ","province":"東京都","city":"中央区","address":"中央区佃3-2-11エムエー月島1~3F","lat":35.66531,"lon":139.78659},{"name":"ほっぺるランド佃大橋","province":"東京都","city":"中央区","address":"中央区月島1-1-13プライマル月島1階・2階","lat":35.66628,"lon":139.78229},{"name":"太陽の子月島保育園","province":"東京都","city":"中央区","address":"中央区月島1-5-2キャピタルゲートプレイス2階","lat":35.66376,"lon":139.78331},{"name":"月島保育園","province":"東京都","city":"中央区","address":"中央区月島2-10-3","lat":35.66351,"lon":139.78418},{"name":"アンジェリカ月島保育園","province":"東京都","city":"中央区","address":"中央区月島2-13-5オルフェ月島ビル2・3階","lat":35.663,"lon":139.78348},{"name":"クオリスキッズ月島保育園","province":"東京都","city":"中央区","address":"中央区月島3-16-1アヴェルーナ月島1~3F","lat":35.6623,"lon":139.78017},{"name":"月島雲母保育園","province":"東京都","city":"中央区","address":"中央区月島3-26-11レジデンスシャルマン月島1階","lat":35.6622,"lon":139.77852},{"name":"さくらさくみらい東仲通り","province":"東京都","city":"中央区","address":"中央区月島4-3-14","lat":35.66125,"lon":139.78284},{"name":"さくらさくみらい　月の岬","province":"東京都","city":"中央区","address":"中央区月島4-4-11","lat":35.66077,"lon":139.78395},{"name":"月島聖ルカ保育園","province":"東京都","city":"中央区","address":"中央区月島4-5-8","lat":35.66042,"lon":139.78348},{"name":"晴海保育園","province":"東京都","city":"中央区","address":"中央区晴海1-5-15","lat":35.65961,"lon":139.78447},{"name":"太陽の子晴海トリトン保育園","province":"東京都","city":"中央区","address":"中央区晴海1-8-2晴海トリトンスクエア展示棟3階","lat":35.65556,"lon":139.78183},{"name":"ポピンズナーサリースクール晴海","province":"東京都","city":"中央区","address":"中央区晴海2-1-40晴海フロント2階","lat":35.65663,"lon":139.78456},{"name":"晴海こども園","province":"東京都","city":"中央区","address":"中央区晴海2-4-31","lat":35.6549091,"lon":139.7839798},{"name":"さくらさくみらい晴海","province":"東京都","city":"中央区","address":"中央区晴海2-5-24晴海センタービル1階","lat":35.65546,"lon":139.7827},{"name":"アスク晴海３丁目保育園","province":"東京都","city":"中央区","address":"中央区晴海3-10-1Daiwa晴海ビル1F","lat":35.65395,"lon":139.77927},{"name":"小学館アカデミー晴海保育園","province":"東京都","city":"中央区","address":"中央区晴海3-6-8スカイリンクタワー2F","lat":35.65557,"lon":139.77844},{"name":"勝どき保育園","province":"東京都","city":"中央区","address":"中央区勝どき1-4-1","lat":35.66024,"lon":139.77724},{"name":"かちどき西保育園","province":"東京都","city":"中央区","address":"中央区勝どき1-8-1-3F","lat":35.65958,"lon":139.77692},{"name":"勝どきちとせ保育園","province":"東京都","city":"中央区","address":"中央区勝どき2-16-3","lat":35.65791,"lon":139.7784},{"name":"まなびの森保育園勝どき","province":"東京都","city":"中央区","address":"中央区勝どき3-3-7KNリバーシティ2階","lat":35.65937,"lon":139.77493},{"name":"ほっぺるランド勝どき","province":"東京都","city":"中央区","address":"中央区勝どき3-4-4","lat":35.65895,"lon":139.77534},{"name":"ほっぺるランド清澄通り勝どき","province":"東京都","city":"中央区","address":"中央区勝どき3-7-2","lat":35.65804,"lon":139.77519},{"name":"アスク勝どき保育園","province":"東京都","city":"中央区","address":"中央区勝どき4-8-14","lat":35.65673,"lon":139.77563},{"name":"さくらさくみらい　勝どき","province":"東京都","city":"中央区","address":"中央区勝どき4-8-4","lat":35.65673,"lon":139.77563},{"name":"ベネッセ勝どき保育園","province":"東京都","city":"中央区","address":"中央区勝どき5-1-17勝どきザ・リバーフロント2F","lat":35.65795,"lon":139.77255},{"name":"ほっぺるランド新島橋かちどき","province":"東京都","city":"中央区","address":"中央区勝どき5-2-15EDGE勝どき1・2階","lat":35.65706,"lon":139.77344},{"name":"勝どきえほん保育園","province":"東京都","city":"中央区","address":"中央区勝どき6-1-9","lat":35.65616,"lon":139.77435},{"name":"ニチイキッズさわやか勝どき６丁目保育園","province":"東京都","city":"中央区","address":"中央区勝どき6-3-1ザ・トーキョータワーズシータワー3階","lat":35.65488,"lon":139.77367},{"name":"小学館アカデミー勝どきこども園","province":"東京都","city":"中央区","address":"中央区勝どき一丁目3番1号ブリリアイストタワー勝どき2階","lat":35.6608469,"lon":139.7769477},{"name":"まなびの森保育園銀座","province":"東京都","city":"中央区","address":"中央区銀座1-12-6","lat":35.67436,"lon":139.77005},{"name":"中央区立福祉センターふれあい作業所","province":"東京都","city":"中央区","address":"中央区晴海1-4-1","lat":35.65868,"lon":139.78584},{"name":"中央区","province":"東京都","city":"中央区","address":"中央区築地1-1-1","lat":35.6706,"lon":139.77202},{"name":"中央区保健所","province":"東京都","city":"中央区","address":"中央区明石町12-1","lat":35.66659,"lon":139.77684},{"name":"日本橋保健センター","province":"東京都","city":"中央区","address":"中央区日本橋堀留町1-1-1","lat":35.68706,"lon":139.77928},{"name":"月島保健センター","province":"東京都","city":"中央区","address":"中央区月島2-10-3","lat":35.66351,"lon":139.78418},{"name":"銀座六丁目地下駐輪場","province":"東京都","city":"中央区","address":"東京都中央区銀座6丁目10-1","lat":35.66942747,"lon":139.76411969},{"name":"入船橋駐輪場","province":"東京都","city":"中央区","address":"東京都中央区明石町1-34","lat":35.66961108,"lon":139.77549095},{"name":"築地市場駅地下駐輪場","province":"東京都","city":"中央区","address":"東京都中央区築地5丁目1-1","lat":35.66557519,"lon":139.76734737},{"name":"備前橋第三駐輪場","province":"東京都","city":"中央区","address":"東京都中央区築地7丁目5-16","lat":35.66630028,"lon":139.7734246},{"name":"人形町一丁目駐輪場","province":"東京都","city":"中央区","address":"東京都中央区日本橋人形町1丁目12-11","lat":35.68394313,"lon":139.78360711},{"name":"人形町通り駐輪場","province":"東京都","city":"中央区","address":"東京都中央区日本橋人形町1丁目14-8","lat":35.68404035,"lon":139.78389044},{"name":"人形町二丁目地下駐輪場","province":"東京都","city":"中央区","address":"東京都中央区日本橋人形町2丁目12-1","lat":35.68472085,"lon":139.78457942},{"name":"人形町三丁目駐輪場","province":"東京都","city":"中央区","address":"東京都中央区日本橋人形町3丁目8-1","lat":35.68668726,"lon":139.78242961},{"name":"蛎殻町駐輪場","province":"東京都","city":"中央区","address":"東京都中央区日本橋蛎殻町2丁目1-1","lat":35.68240173,"lon":139.78664047},{"name":"箱崎町駐輪場","province":"東京都","city":"中央区","address":"東京都中央区日本橋箱崎町24-2","lat":35.68043524,"lon":139.78652633},{"name":"清杉通り駐輪場","province":"東京都","city":"中央区","address":"東京都中央区日本橋横山町9-7","lat":35.69392542,"lon":139.78475729},{"name":"浜町公園地下駐輪場","province":"東京都","city":"中央区","address":"東京都中央区日本橋浜町2丁目59-48","lat":35.6874597,"lon":139.79043576},{"name":"日本橋二丁目地下駐輪場","province":"東京都","city":"中央区","address":"東京都中央区日本橋2丁目10-8","lat":35.68089873,"lon":139.77471297},{"name":"茅場町駐輪場","province":"東京都","city":"中央区","address":"東京都中央区日本橋茅場町2丁目17-13","lat":35.67896299,"lon":139.78101518},{"name":"月島駅前第一駐輪場","province":"東京都","city":"中央区","address":"東京都中央区月島2丁目1-1","lat":35.66374256,"lon":139.7850265},{"name":"月島駅地下駐輪場","province":"東京都","city":"中央区","address":"東京都中央区月島2丁目10-3","lat":35.66326202,"lon":139.78397937},{"name":"八重洲二丁目地下駐輪場","province":"東京都","city":"中央区","address":"東京都中央区八重洲2丁目1-4","lat":35.67966539,"lon":139.76981333},{"name":"中央区地域包括支援センター","province":"東京都","city":"中央区","address":"中央区築地1-1-1区役所4階","lat":35.670841,"lon":139.771927},{"name":"京橋おとしより相談センター","province":"東京都","city":"中央区","address":"中央区明石町1-6リハポート明石等複合施設1階","lat":35.669617,"lon":139.776657},{"name":"日本橋おとしより相談センター","province":"東京都","city":"中央区","address":"中央区日本橋小伝馬町5-1十思スクエア1階","lat":35.691414,"lon":139.777466},{"name":"人形町おとしより相談センター（日本橋おとしより相談センターの分室）","province":"東京都","city":"中央区","address":"中央区日本橋人形町2-32-4日本橋医師会人形町ビル1階","lat":35.682903,"lon":139.775345},{"name":"月島おとしより相談センター","province":"東京都","city":"中央区","address":"中央区月島4-1-1月島区民センター1階","lat":43.062607,"lon":141.655518},{"name":"勝どきおとしより相談センター（月島おとしより相談センター分室）","province":"東京都","city":"中央区","address":"中央区勝どき5-1-17勝どきザ・リバーフロント1階","lat":35.661423,"lon":139.776581},{"name":"中央区立福祉センター","province":"東京都","city":"中央区","address":"東京都中央区明石町12-1","lat":35.66657812,"lon":139.77679376},{"name":"アトリエ・ガラパゴスデイサービス","province":"東京都","city":"中央区","address":"東京都中央区東日本橋3丁目2-4","lat":35.69086735,"lon":139.78217957},{"name":"一般社団法人障害者就労支援協会コンフィデンス日本橋","province":"東京都","city":"中央区","address":"東京都中央区日本橋室町1丁目5-15","lat":35.68572878,"lon":139.77464639},{"name":"あい保育園日本橋","province":"東京都","city":"中央区","address":"中央区日本橋富沢町9-10稲村ビル1階","lat":35.6892,"lon":139.78236},{"name":"AIAI NURSERY 日本橋浜町","province":"東京都","city":"中央区","address":"中央区日本橋浜町1-9-12日本橋プラヤビル2階","lat":35.6903,"lon":139.7877},{"name":"あい保育園水天宮","province":"東京都","city":"中央区","address":"中央区日本橋蛎殻町1-29-9ネオテック水天宮ビル1・2階","lat":35.68326,"lon":139.78365},{"name":"THREE　STAR　NURSERY蛎殻町園","province":"東京都","city":"中央区","address":"中央区日本橋蛎殻町2-15-5水天宮CPビル1~4F","lat":35.68425,"lon":139.78699},{"name":"あい保育園新川","province":"東京都","city":"中央区","address":"中央区新川1-26-9新川イワデビル1.2階","lat":35.67604,"lon":139.78358},{"name":"ＴＨＲＥＥ　　ＳＴＡＲ　ＮＵＲＳＥＲＹ蛎殻町園","province":"東京都","city":"中央区","address":"中央区日本橋蛎殻町2-15-5水天宮CPビル1~4F","lat":35.68425,"lon":139.78699},{"name":"あい・あい保育園日本橋浜町園","province":"東京都","city":"中央区","address":"中央区日本橋浜町1-9-12日本橋プラヤビル2階","lat":35.6903,"lon":139.7877},{"name":"学栄ナーサリー日本橋蛎殻町保育園","province":"東京都","city":"中央区","address":"中央区日本橋蛎殻町2-15-5","lat":35.68425,"lon":139.78699},{"name":"十思保育園","province":"東京都","city":"中央区","address":"中央区日本橋小伝馬町5-1","lat":35.69107,"lon":139.77741},{"name":"にじいろ保育園小伝馬町","province":"東京都","city":"中央区","address":"中央区日本橋小伝馬町13-7銀泉日本橋小伝馬町ビル1~4F","lat":35.691,"lon":139.77947},{"name":"人形町保育園","province":"東京都","city":"中央区","address":"中央区日本橋人形町2-14-5","lat":35.68449,"lon":139.78507},{"name":"グローバルキッズかきがら園","province":"東京都","city":"中央区","address":"中央区日本橋蛎殻町1-16-11EDGE日本橋蛎殻町1・2階","lat":35.68313,"lon":139.78267},{"name":"コビープリスクールはこざき","province":"東京都","city":"中央区","address":"中央区日本橋箱崎町17ー9箱崎升喜ビル1・2階","lat":35.68049,"lon":139.78513},{"name":"ＥＤＯ日本橋保育園","province":"東京都","city":"中央区","address":"中央区日本橋3-15-10","lat":35.67888,"lon":139.77507},{"name":"太陽の子新川保育園","province":"東京都","city":"中央区","address":"中央区新川1-24-1ユニゾ新川永代通りビル2階","lat":35.67662,"lon":139.78536},{"name":"あい保育園新川","province":"東京都","city":"中央区","address":"中央区新川1-26-9新川イワデビル1.2階","lat":35.67604,"lon":139.78359},{"name":"桜川保育園","province":"東京都","city":"中央区","address":"中央区入船1-1-13","lat":35.67357,"lon":139.77757},{"name":"保育所ま?anitize]む月島駅前園","province":"東京都","city":"中央区","address":"中央区佃2-10-9ライオンズタワー月島1F","lat":35.66609,"lon":139.78441},{"name":"太陽の子月島保育園","province":"東京都","city":"中央区","address":"中央区月島1-5-2キャピタルゲートプレイス2階","lat":35.66377,"lon":139.78331},{"name":"小学館アカデミー晴海保育園","province":"東京都","city":"中央区","address":"中央区晴海3-6-8スカイリンクタワー2F","lat":35.65558,"lon":139.77844},{"name":"アスク勝どき保育園","province":"東京都","city":"中央区","address":"中央区勝どき4-8-14","lat":35.65673,"lon":139.77564},{"name":"ほっぺるランド勝どき","province":"東京都","city":"中央区","address":"中央区勝どき3-4-4","lat":35.65895,"lon":139.77535},{"name":"テンダーラビング保育園東日本橋","province":"東京都","city":"中央区","address":"中央区東日本橋1-4-6東日本橋一丁目ビル1・2階","lat":35.69075,"lon":139.78493},{"name":"かふう保育園日本橋","province":"東京都","city":"中央区","address":"中央区日本橋富沢町10-18日本橋富沢町スクエアビル2階","lat":35.68782,"lon":139.78362},{"name":"太陽の子新川保育園","province":"東京都","city":"中央区","address":"中央区新川一丁目24番1号ユニゾ新川永代通りビル2階","lat":43.06157,"lon":141.77623},{"name":"あい保育園新川","province":"東京都","city":"中央区","address":"中央区新川1-26-9新川イワデビル1・2階","lat":40.82233,"lon":140.74895},{"name":"ぽけっとランド明石町保育園","province":"東京都","city":"中央区","address":"中央区明石町7-15ぱぱす明石町ビル2・3階","lat":35.669,"lon":139.7774},{"name":"晴海保育園","province":"東京都","city":"中央区","address":"中央区晴海1-5-15","lat":35.64951,"lon":139.77505},{"name":"さくらさくみらい晴海","province":"東京都","city":"中央区","address":"中央区晴海2-5-24晴海センタービル1階","lat":35.65195,"lon":139.77342},{"name":"ベネッセ勝どき保育園","province":"東京都","city":"中央区","address":"中央区勝どき5-1-17勝どきザ・リバーフロント2階","lat":35.66142,"lon":139.77658},{"name":"室町二丁目","province":"東京都","city":"中央区","address":"東京都中央区日本橋室町1丁目5-5","lat":35.68619816,"lon":139.77438807},{"name":"本町二丁目","province":"東京都","city":"中央区","address":"東京都中央区日本橋本町2丁目5-1","lat":35.68734532,"lon":139.7762047},{"name":"京橋一丁目","province":"東京都","city":"中央区","address":"東京都中央区日本橋3丁目12-2","lat":35.67858507,"lon":139.7743713},{"name":"鍛冶橋","province":"東京都","city":"中央区","address":"東京都中央区八重洲2丁目8-21","lat":35.67695173,"lon":139.7671775},{"name":"室町二丁目第二","province":"東京都","city":"中央区","address":"東京都中央区日本橋室町2丁目4-3","lat":35.68745634,"lon":139.77387974},{"name":"浜町中の橋","province":"東京都","city":"中央区","address":"東京都中央区日本橋浜町2丁目23-7","lat":35.68567645,"lon":139.78778543},{"name":"人形町","province":"東京都","city":"中央区","address":"東京都中央区日本橋人形町3丁目7-13","lat":35.68632617,"lon":139.78191571},{"name":"日本橋支所前","province":"東京都","city":"中央区","address":"東京都中央区日本橋蛎殻町2丁目2-4","lat":35.68279609,"lon":139.78566821},{"name":"東日本橋三丁目","province":"東京都","city":"中央区","address":"東京都中央区東日本橋3丁目8-2","lat":35.69135901,"lon":139.78379343},{"name":"箱崎町","province":"東京都","city":"中央区","address":"東京都中央区日本橋箱崎町41-13","lat":35.68119908,"lon":139.78695424},{"name":"ターミナルビル前","province":"東京都","city":"中央区","address":"東京都中央区日本橋蛎殻町1丁目35-5","lat":35.68174621,"lon":139.78603201},{"name":"隅田川大橋北詰","province":"東京都","city":"中央区","address":"東京都中央区日本橋箱崎町25-9","lat":35.68040193,"lon":139.78695136},{"name":"鎧橋東詰","province":"東京都","city":"中央区","address":"東京都中央区日本橋小網町7-2","lat":35.68210712,"lon":139.78100152},{"name":"築地四丁目","province":"東京都","city":"中央区","address":"東京都中央区築地3丁目16-12","lat":35.66649186,"lon":139.7709998},{"name":"数寄屋橋","province":"東京都","city":"中央区","address":"東京都中央区銀座4丁目1-2","lat":35.67281041,"lon":139.76328075},{"name":"入船橋","province":"東京都","city":"中央区","address":"東京都中央区新富2丁目14-6","lat":35.67041376,"lon":139.77486875},{"name":"土橋","province":"東京都","city":"中央区","address":"東京都中央区銀座8丁目3-7","lat":35.66870796,"lon":139.75892294},{"name":"聖路加病院前","province":"東京都","city":"中央区","address":"東京都中央区明石町12-1","lat":35.66657812,"lon":139.77679376},{"name":"築地警察署前","province":"東京都","city":"中央区","address":"東京都中央区築地1丁目6","lat":35.67027478,"lon":139.77131348},{"name":"築地暁橋","province":"東京都","city":"中央区","address":"東京都中央区明石町11-15","lat":35.66711412,"lon":139.77481056},{"name":"聖路加ガーデン前","province":"東京都","city":"中央区","address":"東京都中央区明石町13-1","lat":35.66615041,"lon":139.77768536},{"name":"明石小学校前","province":"東京都","city":"中央区","address":"東京都中央区明石町9-1","lat":35.66741137,"lon":139.77705481},{"name":"月島三丁目","province":"東京都","city":"中央区","address":"東京都中央区月島1丁目27-9","lat":35.66316198,"lon":139.78207955},{"name":"勝どき駅前","province":"東京都","city":"中央区","address":"東京都中央区勝どき1丁目7-1","lat":35.65987332,"lon":139.77761338},{"name":"初見橋","province":"東京都","city":"中央区","address":"東京都中央区佃2丁目17-8","lat":35.664723,"lon":139.7848487},{"name":"新月橋","province":"東京都","city":"中央区","address":"東京都中央区月島1丁目2-9","lat":35.66522013,"lon":139.78346268},{"name":"月島出張所前","province":"東京都","city":"中央区","address":"東京都中央区月島3丁目12-5","lat":35.66231205,"lon":139.78151296},{"name":"晴海二丁目","province":"東京都","city":"中央区","address":"東京都中央区晴海1丁目8-10","lat":35.65637941,"lon":139.78234084},{"name":"晴月橋南","province":"東京都","city":"中央区","address":"東京都中央区晴海1丁目6","lat":35.65872641,"lon":139.78401006},{"name":"佃二丁目北","province":"東京都","city":"中央区","address":"東京都中央区佃2丁目11","lat":35.66661448,"lon":139.78540973},{"name":"三井記念美術館","province":"東京都","city":"中央区","address":"中央区日本橋室町2-1-1三井会館7階","lat":35.686293,"lon":139.772996},{"name":"聖路加国際病院","province":"東京都","city":"中央区","address":"東京都中央区明石町9-1","lat":35.66741137,"lon":139.77705481},{"name":"東京都味噌工業協同組合","province":"東京都","city":"中央区","address":"東京都中央区日本橋浜町2丁目16-5","lat":35.68747342,"lon":139.78640757},{"name":"全国味噌工業協同組合連合会","province":"東京都","city":"中央区","address":"東京都中央区新川1丁目26-19","lat":35.67648277,"lon":139.78356776},{"name":"日本醤油協会","province":"東京都","city":"中央区","address":"東京都中央区日本橋小網町3-11","lat":35.68117393,"lon":139.7826819},{"name":"晴海給水所","province":"東京都","city":"中央区","address":"東京都中央区晴海1丁目6-3","lat":35.65852366,"lon":139.78411284},{"name":"区立あかつき公園","province":"東京都","city":"中央区","address":"東京都中央区築地7丁目19-1","lat":35.66666142,"lon":139.7758105},{"name":"区立堀留児童公園","province":"東京都","city":"中央区","address":"東京都中央区日本橋堀留町1丁目1-16","lat":35.68635386,"lon":139.77931298},{"name":"佃水門","province":"東京都","city":"中央区","address":"東京都中央区晴海1丁目1-26","lat":35.66197894,"lon":139.7876958},{"name":"朝潮水門（水防倉庫）","province":"東京都","city":"中央区","address":"東京都中央区勝どき6丁目3","lat":35.65549314,"lon":139.77306391},{"name":"築地川水門","province":"東京都","city":"中央区","address":"東京都中央区浜離宮庭園1-1","lat":35.66256987,"lon":139.76322283},{"name":"浜離宮排水機場","province":"東京都","city":"中央区","address":"東京都中央区浜離宮庭園1-1","lat":35.66256987,"lon":139.76322283},{"name":"汐留川水門","province":"東京都","city":"中央区","address":"東京都中央区浜離宮庭園1-1","lat":35.66256987,"lon":139.76322283},{"name":"東京都味噌工業協同組合","province":"東京都","city":"中央区","address":"東京都中央区日本橋浜町2丁目16-5","lat":35.68747342,"lon":139.78640757},{"name":"全国味噌工業協同組合連合会","province":"東京都","city":"中央区","address":"東京都中央区新川1丁目26-19","lat":35.67648277,"lon":139.78356776},{"name":"中央区立月島運動場","province":"東京都","city":"中央区","address":"東京都中央区晴海1丁目3-29","lat":35.65907089,"lon":139.78637652},{"name":"中央区立豊海運動公園","province":"東京都","city":"中央区","address":"東京都中央区豊海町3-19","lat":35.65321559,"lon":139.77225293},{"name":"（一社）東京工業団体連合会","province":"東京都","city":"中央区","address":"東京都中央区銀座2丁目10-18","lat":35.67279666,"lon":139.76867751},{"name":"（公社）東京のあすを創る協会","province":"東京都","city":"中央区","address":"東京都中央区八重洲2丁目11-7","lat":35.67560743,"lon":139.76750252},{"name":"東京都青年国際交流機構(東京都ＩＹＥＯ)","province":"東京都","city":"中央区","address":"東京都中央区日本橋人形町2丁目35-14","lat":35.68502368,"lon":139.7864602},{"name":"(公財)全国青少年教化協議会","province":"東京都","city":"中央区","address":"東京都中央区築地3丁目7-5","lat":35.66768902,"lon":139.77355509},{"name":"（特定非営利活動法人）日本ガーディアン・エンジェルス","province":"東京都","city":"中央区","address":"東京都中央区新川1丁目29-13","lat":35.67598566,"lon":139.78516219},{"name":"東京都商店街振興組合連合会","province":"東京都","city":"中央区","address":"東京都中央区銀座2丁目10-18","lat":35.67279666,"lon":139.76867751},{"name":"＊?月島社会教育会館","province":"東京都","city":"中央区","address":"中央区月島4-1-1月島区民センター内","lat":35.662043,"lon":139.782269},{"name":"＊?月島社会教育会館晴海分館アートはるみ","province":"東京都","city":"中央区","address":"中央区晴海1-4-1月島第三小学校等複合施設内","lat":35.659003,"lon":139.785775},{"name":"＊?築地社会教育会館","province":"東京都","city":"中央区","address":"中央区築地4-15-1","lat":35.666501,"lon":139.768069},{"name":"＊?日本橋社会教育会館","province":"東京都","city":"中央区","address":"中央区日本橋人形町1-1-17日本橋小学校等複合施設内","lat":35.684764,"lon":139.781493},{"name":"＊?女性センター「ブーケ２１」","province":"東京都","city":"中央区","address":"中央区湊1-1-1","lat":35.673627,"lon":139.779352},{"name":"＊?郷土天文館","province":"東京都","city":"中央区","address":"中央区明石町12-1","lat":35.666635,"lon":139.776739},{"name":"中央清掃工場","province":"東京都","city":"中央区","address":"東京都中央区晴海5丁目2-1","lat":35.652134,"lon":139.775604},{"name":"晴海客船ターミナル","province":"東京都","city":"中央区","address":"東京都中央区晴海5丁目","lat":35.65203246,"lon":139.77483607},{"name":"中央区","province":"東京都","city":"中央区","address":"中央区築地1-1-1","lat":35.670586,"lon":139.772002},{"name":"複合施設中央区保健所\"","province":"東京都","city":"中央区","address":"東京都中央区明石町12-1","lat":35.66657812,"lon":139.77679376},{"name":"宝町駅（都営浅草線）","province":"東京都","city":"中央区","address":"東京都中央区京橋2丁目13-11","lat":35.67561312,"lon":139.77248543},{"name":"東銀座駅（都営浅草線）","province":"東京都","city":"中央区","address":"東京都中央区銀座4丁目10-10","lat":35.67006636,"lon":139.76691664},{"name":"築地市場駅（都営大江戸線）","province":"東京都","city":"中央区","address":"東京都中央区築地5丁目1-2","lat":35.6653252,"lon":139.76662799},{"name":"月島スポーツプラザ","province":"東京都","city":"中央区","address":"東京都中央区月島1丁目9-2","lat":35.66515624,"lon":139.78299884},{"name":"月島図書館","province":"東京都","city":"中央区","address":"東京都中央区月島4丁目1-1","lat":35.66204544,"lon":139.78211847},{"name":"日本橋駅（都営浅草線）","province":"東京都","city":"中央区","address":"東京都中央区日本橋1丁目13-1","lat":35.68221529,"lon":139.77554072},{"name":"複合施設（日本橋図書館）\"","province":"東京都","city":"中央区","address":"東京都中央区日本橋人形町1丁目1-17","lat":35.68469854,"lon":139.78139615},{"name":"人形町駅（都営浅草線）","province":"東京都","city":"中央区","address":"東京都中央区日本橋人形町3丁目7-13","lat":35.68632617,"lon":139.78191571},{"name":"総合スポーツセンター","province":"東京都","city":"中央区","address":"東京都中央区日本橋浜町2丁目59-1","lat":35.68785406,"lon":139.78937729},{"name":"浜町駅（都営新宿線）","province":"東京都","city":"中央区","address":"東京都中央区日本橋浜町2丁目59-3","lat":35.68874832,"lon":139.78755762},{"name":"馬喰横山駅（都営新宿線）","province":"東京都","city":"中央区","address":"東京都中央区日本橋横山町4-13","lat":35.69192002,"lon":139.78272122},{"name":"東日本橋駅（都営浅草線）","province":"東京都","city":"中央区","address":"東京都中央区東日本橋3丁目11-8","lat":35.69231449,"lon":139.78467121},{"name":"東京舞台芸術活動支援センター","province":"東京都","city":"中央区","address":"東京都中央区日本橋箱崎町18-14","lat":35.68017135,"lon":139.78563735},{"name":"築地市場","province":"東京都","city":"中央区","address":"東京都中央区築地5丁目2-1","lat":35.66515585,"lon":139.76925834},{"name":"晴海総合高等学校","province":"東京都","city":"中央区","address":"東京都中央区晴海1丁目2-1","lat":35.65991522,"lon":139.78568212},{"name":"晴海ふ頭","province":"東京都","city":"中央区","address":"東京都中央区晴海2丁目","lat":35.6549074,"lon":139.78393517},{"name":"月島ふ頭","province":"東京都","city":"中央区","address":"東京都中央区豊海町","lat":35.65314056,"lon":139.77090583},{"name":"常盤橋","province":"東京都","city":"中央区","address":"東京都中央区日本橋本石町2丁目1","lat":35.6869841,"lon":139.77150202},{"name":"中央区立総合スポーツセンター","province":"東京都","city":"中央区","address":"東京都中央区日本橋浜町2丁目59-1","lat":35.68785406,"lon":139.78937729},{"name":"中央区本庁舎","province":"東京都","city":"中央区","address":"中央区築地1-1-1","lat":35.670651,"lon":139.771861},{"name":"第一建設事務所","province":"東京都","city":"中央区","address":"中央区明石町2-4","lat":35.66915,"lon":139.7777},{"name":"西東京管理局新富分室","province":"東京都","city":"中央区","address":"中央区新富1-1-3","lat":35.67387,"lon":139.7729},{"name":"東東京管理局","province":"東京都","city":"中央区","address":"中央区日本橋箱崎町43-5","lat":35.68227,"lon":139.7891},{"name":"第一方面交通機動隊","province":"東京都","city":"中央区","address":"中央区晴海1-1-24","lat":35.66121,"lon":139.7874},{"name":"中央警察署","province":"東京都","city":"中央区","address":"中央区日本橋兜町14-2","lat":35.68044,"lon":139.7771},{"name":"月島警察署","province":"東京都","city":"中央区","address":"中央区勝どき6-7-19","lat":35.65475,"lon":139.7715},{"name":"築地警察署","province":"東京都","city":"中央区","address":"中央区築地1-6-1","lat":35.67025,"lon":139.7714},{"name":"久松警察署","province":"東京都","city":"中央区","address":"中央区日本橋久松町8-1","lat":35.68836,"lon":139.7847},{"name":"京橋消防署","province":"東京都","city":"中央区","address":"中央区京橋3-14-1","lat":35.67439,"lon":139.7723},{"name":"日本橋消防署","province":"東京都","city":"中央区","address":"中央区日本橋兜町14-12","lat":35.68013,"lon":139.7776},{"name":"臨港消防署","province":"東京都","city":"中央区","address":"中央区晴海5-1-27","lat":35.6519,"lon":139.7736},{"name":"中央清掃工場","province":"東京都","city":"中央区","address":"中央区晴海5-2-1","lat":35.65247,"lon":139.7759},{"name":"中央区立月島運動場","province":"東京都","city":"中央区","address":"中央区晴海1-3-29","lat":35.65917,"lon":139.7863},{"name":"新川","province":"東京都","city":"中央区","address":"中央区新川2丁目地先","lat":35.67488,"lon":139.7825},{"name":"明石町","province":"東京都","city":"中央区","address":"中央区明石町地先","lat":35.66779,"lon":139.7771},{"name":"箱崎町","province":"東京都","city":"中央区","address":"中央区日本橋箱崎町地先","lat":35.68021,"lon":139.7854},{"name":"東京電力（株）銀座支社","province":"東京都","city":"中央区","address":"中央区銀座3-3-18","lat":35.67324,"lon":139.7653},{"name":"常盤橋","province":"東京都","city":"中央区","address":"東京都中央区日本橋本石町2丁目1","lat":35.6869841,"lon":139.77150202},{"name":"新川二丁目５番緑地","province":"東京都","city":"中央区","address":"東京都中央区新川2丁目5-9","lat":35.67653268,"lon":139.78056802},{"name":"放課後等デイサービス　ポジリブ","province":"東京都","city":"中央区","address":"中央区日本橋久松町6-9ASONE日本橋East2階","lat":35.689481,"lon":139.784357},{"name":"放課後等デイサービス　ミライエ日本橋","province":"東京都","city":"中央区","address":"中央区日本橋蛎殻町2-5-3","lat":35.683924,"lon":139.785185},{"name":"児童デイサービス　スマイル日本橋","province":"東京都","city":"中央区","address":"中央区日本橋茅場町2-17-9長尾ビル201号室","lat":35.678607,"lon":139.780696},{"name":"ゆうゆうらいふアカデミー中央","province":"東京都","city":"中央区","address":"中央区新川2-18-5ASビル2階","lat":35.674519,"lon":139.781649},{"name":"トリプル・ハート","province":"東京都","city":"中央区","address":"中央区新富2-2-142階","lat":35.671872,"lon":139.772563},{"name":"中央区立福祉センター","province":"東京都","city":"中央区","address":"中央区明石町12-1","lat":35.666506,"lon":139.777035},{"name":"啓成会義肢研究製作所","province":"東京都","city":"中央区","address":"中央区日本橋本町4-5-13和光純薬ビル","lat":35.690639,"lon":139.774563},{"name":"中央区立福祉センターふれあい作業所","province":"東京都","city":"中央区","address":"中央区晴海1-4-1","lat":35.658851,"lon":139.785538},{"name":"東京都八重洲駐車場","province":"東京都","city":"中央区","address":"東京都中央区日本橋3丁目","lat":35.6798321,"lon":139.77222703},{"name":"東京都日本橋駐車場","province":"東京都","city":"中央区","address":"東京都中央区日本橋1丁目","lat":35.68257362,"lon":139.77708232},{"name":"東京都宝町駐車場","province":"東京都","city":"中央区","address":"東京都中央区日本橋3丁目","lat":35.6798321,"lon":139.77222703},{"name":"東京都新京橋駐車場","province":"東京都","city":"中央区","address":"東京都中央区京橋3丁目","lat":35.67571581,"lon":139.76939125},{"name":"東京都東銀座駐車場","province":"東京都","city":"中央区","address":"東京都中央区銀座5丁目","lat":35.67068289,"lon":139.76467514},{"name":"\"中央区立京橋図書館 \"","province":"東京都","city":"中央区","address":"東京都中央区新富1-13-14","lat":35.673688,"lon":139.7756},{"name":"中央区立日本橋図書館","province":"東京都","city":"中央区","address":"東京都中央区日本橋人形町1-1-17","lat":35.684273,"lon":139.78123},{"name":"\"中央区立月島図書館 \"","province":"東京都","city":"中央区","address":"東京都中央区月島4-1-1","lat":35.661921,"lon":139.78192},{"name":"NewWork日本橋","province":"東京都","city":"中央区","address":"東京都中央区日本橋2丁目8-6","lat":35.68144035,"lon":139.77513517},{"name":"H1T銀座","province":"東京都","city":"中央区","address":"東京都中央区銀座4丁目6-11","lat":35.67116898,"lon":139.76550284},{"name":"浜離宮恩賜庭園","province":"東京都","city":"中央区","address":"東京都中央区浜離宮庭園","lat":35.659737,"lon":139.763493},{"name":"晴海給水所","province":"東京都","city":"中央区","address":"東京都中央区晴海1-6-3","lat":35.65832,"lon":139.78408},{"name":"区立あかつき公園","province":"東京都","city":"中央区","address":"東京都中央区築地7-19-1","lat":35.665987,"lon":139.776889},{"name":"区立堀留児童公園","province":"東京都","city":"中央区","address":"東京都中央区日本橋堀留町1-1-16","lat":35.6871001,"lon":139.779214},{"name":"中央区立福祉センターふれあい作業所","province":"東京都","city":"中央区","address":"中央区晴海1-4-1","lat":35.65868,"lon":139.78584},{"name":"中央区","province":"東京都","city":"中央区","address":"中央区築地1-1-1","lat":35.6706,"lon":139.77202},{"name":"銀座六丁目地下駐輪場","province":"東京都","city":"中央区","address":"東京都中央区銀座6丁目10-1","lat":35.66942747,"lon":139.76411969},{"name":"入船橋駐輪場","province":"東京都","city":"中央区","address":"東京都中央区明石町1-34","lat":35.66961108,"lon":139.77549095},{"name":"築地市場駅地下駐輪場","province":"東京都","city":"中央区","address":"東京都中央区築地5丁目1-1","lat":35.66557519,"lon":139.76734737},{"name":"備前橋第三駐輪場","province":"東京都","city":"中央区","address":"東京都中央区築地7丁目5-16","lat":35.66630028,"lon":139.7734246},{"name":"人形町一丁目駐輪場","province":"東京都","city":"中央区","address":"東京都中央区日本橋人形町1丁目12-11","lat":35.68394313,"lon":139.78360711},{"name":"人形町通り駐輪場","province":"東京都","city":"中央区","address":"東京都中央区日本橋人形町1丁目14-8","lat":35.68404035,"lon":139.78389044},{"name":"人形町二丁目地下駐輪場","province":"東京都","city":"中央区","address":"東京都中央区日本橋人形町2丁目12-1","lat":35.68472085,"lon":139.78457942},{"name":"人形町三丁目駐輪場","province":"東京都","city":"中央区","address":"東京都中央区日本橋人形町3丁目8-1","lat":35.68668726,"lon":139.78242961},{"name":"蛎殻町駐輪場","province":"東京都","city":"中央区","address":"東京都中央区日本橋蛎殻町2丁目1-1","lat":35.68240173,"lon":139.78664047},{"name":"箱崎町駐輪場","province":"東京都","city":"中央区","address":"東京都中央区日本橋箱崎町24-2","lat":35.68043524,"lon":139.78652633},{"name":"清杉通り駐輪場","province":"東京都","city":"中央区","address":"東京都中央区日本橋横山町9-7","lat":35.69392542,"lon":139.78475729},{"name":"浜町公園地下駐輪場","province":"東京都","city":"中央区","address":"東京都中央区日本橋浜町2丁目59-48","lat":35.6874597,"lon":139.79043576},{"name":"日本橋二丁目地下駐輪場","province":"東京都","city":"中央区","address":"東京都中央区日本橋2丁目10-8","lat":35.68089873,"lon":139.77471297},{"name":"茅場町駐輪場","province":"東京都","city":"中央区","address":"東京都中央区日本橋茅場町2丁目17-13","lat":35.67896299,"lon":139.78101518},{"name":"月島駅前第一駐輪場","province":"東京都","city":"中央区","address":"東京都中央区月島2丁目1-1","lat":35.66374256,"lon":139.7850265},{"name":"月島駅地下駐輪場","province":"東京都","city":"中央区","address":"東京都中央区月島2丁目10-3","lat":35.66326202,"lon":139.78397937},{"name":"八重洲二丁目地下駐輪場","province":"東京都","city":"中央区","address":"東京都中央区八重洲2丁目1-4","lat":35.67966539,"lon":139.76981333},{"name":"中央区地域包括支援センター","province":"東京都","city":"中央区","address":"中央区築地1-1-1区役所4階","lat":35.670841,"lon":139.771927},{"name":"京橋おとしより相談センター","province":"東京都","city":"中央区","address":"中央区明石町1-6リハポート明石等複合施設1階","lat":35.669617,"lon":139.776657},{"name":"日本橋おとしより相談センター","province":"東京都","city":"中央区","address":"中央区日本橋小伝馬町5-1十思スクエア1階","lat":35.691414,"lon":139.777466},{"name":"人形町おとしより相談センター（日本橋おとしより相談センターの分室）","province":"東京都","city":"中央区","address":"中央区日本橋人形町2-32-4日本橋医師会人形町ビル1階","lat":35.682903,"lon":139.775345},{"name":"月島おとしより相談センター","province":"東京都","city":"中央区","address":"中央区月島4-1-1月島区民センター1階","lat":43.062607,"lon":141.655518},{"name":"勝どきおとしより相談センター（月島おとしより相談センター分室）","province":"東京都","city":"中央区","address":"中央区勝どき5-1-17勝どきザ・リバーフロント1階","lat":35.661423,"lon":139.776581},{"name":"室町二丁目","province":"東京都","city":"中央区","address":"東京都中央区日本橋室町1丁目5-5","lat":35.68619816,"lon":139.77438807},{"name":"本町二丁目","province":"東京都","city":"中央区","address":"東京都中央区日本橋本町2丁目5-1","lat":35.68734532,"lon":139.7762047},{"name":"京橋一丁目","province":"東京都","city":"中央区","address":"東京都中央区日本橋3丁目12-2","lat":35.67858507,"lon":139.7743713},{"name":"鍛冶橋","province":"東京都","city":"中央区","address":"東京都中央区八重洲2丁目8-21","lat":35.67695173,"lon":139.7671775},{"name":"室町二丁目第二","province":"東京都","city":"中央区","address":"東京都中央区日本橋室町2丁目4-3","lat":35.68745634,"lon":139.77387974},{"name":"浜町中の橋","province":"東京都","city":"中央区","address":"東京都中央区日本橋浜町2丁目23-7","lat":35.68567645,"lon":139.78778543},{"name":"人形町","province":"東京都","city":"中央区","address":"東京都中央区日本橋人形町3丁目7-13","lat":35.68632617,"lon":139.78191571},{"name":"日本橋支所前","province":"東京都","city":"中央区","address":"東京都中央区日本橋蛎殻町2丁目2-4","lat":35.68279609,"lon":139.78566821},{"name":"東日本橋三丁目","province":"東京都","city":"中央区","address":"東京都中央区東日本橋3丁目8-2","lat":35.69135901,"lon":139.78379343},{"name":"箱崎町","province":"東京都","city":"中央区","address":"東京都中央区日本橋箱崎町41-13","lat":35.68119908,"lon":139.78695424},{"name":"ターミナルビル前","province":"東京都","city":"中央区","address":"東京都中央区日本橋蛎殻町1丁目35-5","lat":35.68174621,"lon":139.78603201},{"name":"隅田川大橋北詰","province":"東京都","city":"中央区","address":"東京都中央区日本橋箱崎町25-9","lat":35.68040193,"lon":139.78695136},{"name":"鎧橋東詰","province":"東京都","city":"中央区","address":"東京都中央区日本橋小網町7-2","lat":35.68210712,"lon":139.78100152},{"name":"築地四丁目","province":"東京都","city":"中央区","address":"東京都中央区築地3丁目16-12","lat":35.66649186,"lon":139.7709998},{"name":"数寄屋橋","province":"東京都","city":"中央区","address":"東京都中央区銀座4丁目1-2","lat":35.67281041,"lon":139.76328075},{"name":"入船橋","province":"東京都","city":"中央区","address":"東京都中央区新富2丁目14-6","lat":35.67041376,"lon":139.77486875},{"name":"土橋","province":"東京都","city":"中央区","address":"東京都中央区銀座8丁目3-7","lat":35.66870796,"lon":139.75892294},{"name":"聖路加病院前","province":"東京都","city":"中央区","address":"東京都中央区明石町12-1","lat":35.66657812,"lon":139.77679376},{"name":"築地警察署前","province":"東京都","city":"中央区","address":"東京都中央区築地1丁目6","lat":35.67027478,"lon":139.77131348},{"name":"築地暁橋","province":"東京都","city":"中央区","address":"東京都中央区明石町11-15","lat":35.66711412,"lon":139.77481056},{"name":"聖路加ガーデン前","province":"東京都","city":"中央区","address":"東京都中央区明石町13-1","lat":35.66615041,"lon":139.77768536},{"name":"明石小学校前","province":"東京都","city":"中央区","address":"東京都中央区明石町9-1","lat":35.66741137,"lon":139.77705481},{"name":"月島三丁目","province":"東京都","city":"中央区","address":"東京都中央区月島1丁目27-9","lat":35.66316198,"lon":139.78207955},{"name":"勝どき駅前","province":"東京都","city":"中央区","address":"東京都中央区勝どき1丁目7-1","lat":35.65987332,"lon":139.77761338},{"name":"初見橋","province":"東京都","city":"中央区","address":"東京都中央区佃2丁目17-8","lat":35.664723,"lon":139.7848487},{"name":"新月橋","province":"東京都","city":"中央区","address":"東京都中央区月島1丁目2-9","lat":35.66522013,"lon":139.78346268},{"name":"月島出張所前","province":"東京都","city":"中央区","address":"東京都中央区月島3丁目12-5","lat":35.66231205,"lon":139.78151296},{"name":"晴海二丁目","province":"東京都","city":"中央区","address":"東京都中央区晴海1丁目8-10","lat":35.65637941,"lon":139.78234084},{"name":"晴月橋南","province":"東京都","city":"中央区","address":"東京都中央区晴海1丁目6","lat":35.65872641,"lon":139.78401006},{"name":"佃二丁目北","province":"東京都","city":"中央区","address":"東京都中央区佃2丁目11","lat":35.66661448,"lon":139.78540973},{"name":"（一社）東京工業団体連合会","province":"東京都","city":"中央区","address":"東京都中央区銀座2丁目10-18","lat":35.67279666,"lon":139.76867751},{"name":"（公社）東京のあすを創る協会","province":"東京都","city":"中央区","address":"東京都中央区八重洲2丁目11-7","lat":35.67560743,"lon":139.76750252},{"name":"東京都青年国際交流機構(東京都ＩＹＥＯ)","province":"東京都","city":"中央区","address":"東京都中央区日本橋人形町2丁目35-14","lat":35.68502368,"lon":139.7864602},{"name":"(公財)全国青少年教化協議会","province":"東京都","city":"中央区","address":"東京都中央区築地3丁目7-5","lat":35.66768902,"lon":139.77355509},{"name":"（特定非営利活動法人）日本ガーディアン・エンジェルス","province":"東京都","city":"中央区","address":"東京都中央区新川1丁目29-13","lat":35.67598566,"lon":139.78516219},{"name":"東京都商店街振興組合連合会","province":"東京都","city":"中央区","address":"東京都中央区銀座2丁目10-18","lat":35.67279666,"lon":139.76867751},{"name":"＊?月島社会教育会館","province":"東京都","city":"中央区","address":"中央区月島4-1-1月島区民センター内","lat":35.662043,"lon":139.782269},{"name":"＊?月島社会教育会館晴海分館アートはるみ","province":"東京都","city":"中央区","address":"中央区晴海1-4-1月島第三小学校等複合施設内","lat":35.659003,"lon":139.785775},{"name":"＊?築地社会教育会館","province":"東京都","city":"中央区","address":"中央区築地4-15-1","lat":35.666501,"lon":139.768069},{"name":"＊?日本橋社会教育会館","province":"東京都","city":"中央区","address":"中央区日本橋人形町1-1-17日本橋小学校等複合施設内","lat":35.684764,"lon":139.781493},{"name":"＊?女性センター「ブーケ２１」","province":"東京都","city":"中央区","address":"中央区湊1-1-1","lat":35.673627,"lon":139.779352},{"name":"＊?郷土天文館","province":"東京都","city":"中央区","address":"中央区明石町12-1","lat":35.666635,"lon":139.776739},{"name":"中央清掃工場","province":"東京都","city":"中央区","address":"東京都中央区晴海5丁目2-1","lat":35.652134,"lon":139.775604},{"name":"晴海客船ターミナル","province":"東京都","city":"中央区","address":"東京都中央区晴海5丁目","lat":35.65203246,"lon":139.77483607},{"name":"中央区","province":"東京都","city":"中央区","address":"中央区築地1-1-1","lat":35.670586,"lon":139.772002},{"name":"複合施設中央区保健所\"","province":"東京都","city":"中央区","address":"東京都中央区明石町12-1","lat":35.66657812,"lon":139.77679376},{"name":"宝町駅（都営浅草線）","province":"東京都","city":"中央区","address":"東京都中央区京橋2丁目13-11","lat":35.67561312,"lon":139.77248543},{"name":"東銀座駅（都営浅草線）","province":"東京都","city":"中央区","address":"東京都中央区銀座4丁目10-10","lat":35.67006636,"lon":139.76691664},{"name":"築地市場駅（都営大江戸線）","province":"東京都","city":"中央区","address":"東京都中央区築地5丁目1-2","lat":35.6653252,"lon":139.76662799},{"name":"月島スポーツプラザ","province":"東京都","city":"中央区","address":"東京都中央区月島1丁目9-2","lat":35.66515624,"lon":139.78299884},{"name":"月島図書館","province":"東京都","city":"中央区","address":"東京都中央区月島4丁目1-1","lat":35.66204544,"lon":139.78211847},{"name":"日本橋駅（都営浅草線）","province":"東京都","city":"中央区","address":"東京都中央区日本橋1丁目13-1","lat":35.68221529,"lon":139.77554072},{"name":"複合施設（日本橋図書館）\"","province":"東京都","city":"中央区","address":"東京都中央区日本橋人形町1丁目1-17","lat":35.68469854,"lon":139.78139615},{"name":"人形町駅（都営浅草線）","province":"東京都","city":"中央区","address":"東京都中央区日本橋人形町3丁目7-13","lat":35.68632617,"lon":139.78191571},{"name":"総合スポーツセンター","province":"東京都","city":"中央区","address":"東京都中央区日本橋浜町2丁目59-1","lat":35.68785406,"lon":139.78937729},{"name":"浜町駅（都営新宿線）","province":"東京都","city":"中央区","address":"東京都中央区日本橋浜町2丁目59-3","lat":35.68874832,"lon":139.78755762},{"name":"馬喰横山駅（都営新宿線）","province":"東京都","city":"中央区","address":"東京都中央区日本橋横山町4-13","lat":35.69192002,"lon":139.78272122},{"name":"東日本橋駅（都営浅草線）","province":"東京都","city":"中央区","address":"東京都中央区東日本橋3丁目11-8","lat":35.69231449,"lon":139.78467121},{"name":"晴海ふ頭","province":"東京都","city":"中央区","address":"東京都中央区晴海2丁目","lat":35.6549074,"lon":139.78393517},{"name":"月島ふ頭","province":"東京都","city":"中央区","address":"東京都中央区豊海町","lat":35.65314056,"lon":139.77090583},{"name":"常盤橋","province":"東京都","city":"中央区","address":"東京都中央区日本橋本石町2丁目1","lat":35.6869841,"lon":139.77150202},{"name":"第一建設事務所","province":"東京都","city":"中央区","address":"中央区明石町2-4","lat":35.66915,"lon":139.7777},{"name":"西東京管理局新富分室","province":"東京都","city":"中央区","address":"中央区新富1-1-3","lat":35.67387,"lon":139.7729},{"name":"東東京管理局","province":"東京都","city":"中央区","address":"中央区日本橋箱崎町43-5","lat":35.68227,"lon":139.7891},{"name":"第一方面交通機動隊","province":"東京都","city":"中央区","address":"中央区晴海1-1-24","lat":35.66121,"lon":139.7874},{"name":"中央警察署","province":"東京都","city":"中央区","address":"中央区日本橋兜町14-2","lat":35.68044,"lon":139.7771},{"name":"月島警察署","province":"東京都","city":"中央区","address":"中央区勝どき6-7-19","lat":35.65475,"lon":139.7715},{"name":"築地警察署","province":"東京都","city":"中央区","address":"中央区築地1-6-1","lat":35.67025,"lon":139.7714},{"name":"久松警察署","province":"東京都","city":"中央区","address":"中央区日本橋久松町8-1","lat":35.68836,"lon":139.7847},{"name":"京橋消防署","province":"東京都","city":"中央区","address":"中央区京橋3-14-1","lat":35.67439,"lon":139.7723},{"name":"日本橋消防署","province":"東京都","city":"中央区","address":"中央区日本橋兜町14-12","lat":35.68013,"lon":139.7776},{"name":"臨港消防署","province":"東京都","city":"中央区","address":"中央区晴海5-1-27","lat":35.6519,"lon":139.7736},{"name":"中央清掃工場","province":"東京都","city":"中央区","address":"中央区晴海5-2-1","lat":35.65247,"lon":139.7759},{"name":"中央区立月島運動場","province":"東京都","city":"中央区","address":"中央区晴海1-3-29","lat":35.65917,"lon":139.7863},{"name":"新川","province":"東京都","city":"中央区","address":"中央区新川2丁目地先","lat":35.67488,"lon":139.7825},{"name":"明石町","province":"東京都","city":"中央区","address":"中央区明石町地先","lat":35.66779,"lon":139.7771},{"name":"箱崎町","province":"東京都","city":"中央区","address":"中央区日本橋箱崎町地先","lat":35.68021,"lon":139.7854},{"name":"東京電力（株）銀座支社","province":"東京都","city":"中央区","address":"中央区銀座3-3-18","lat":35.67324,"lon":139.7653},{"name":"常盤橋","province":"東京都","city":"中央区","address":"東京都中央区日本橋本石町2丁目1","lat":35.6869841,"lon":139.77150202},{"name":"新川二丁目５番緑地","province":"東京都","city":"中央区","address":"東京都中央区新川2丁目5-9","lat":35.67653268,"lon":139.78056802},{"name":"放課後等デイサービス　ポジリブ","province":"東京都","city":"中央区","address":"中央区日本橋久松町6-9ASONE日本橋East2階","lat":35.689481,"lon":139.784357},{"name":"放課後等デイサービス　ミライエ日本橋","province":"東京都","city":"中央区","address":"中央区日本橋蛎殻町2-5-3","lat":35.683924,"lon":139.785185},{"name":"児童デイサービス　スマイル日本橋","province":"東京都","city":"中央区","address":"中央区日本橋茅場町2-17-9長尾ビル201号室","lat":35.678607,"lon":139.780696},{"name":"ゆうゆうらいふアカデミー中央","province":"東京都","city":"中央区","address":"中央区新川2-18-5ASビル2階","lat":35.674519,"lon":139.781649},{"name":"トリプル・ハート","province":"東京都","city":"中央区","address":"中央区新富2-2-142階","lat":35.671872,"lon":139.772563},{"name":"中央区立福祉センター","province":"東京都","city":"中央区","address":"中央区明石町12-1","lat":35.666506,"lon":139.777035},{"name":"啓成会義肢研究製作所","province":"東京都","city":"中央区","address":"中央区日本橋本町4-5-13和光純薬ビル","lat":35.690639,"lon":139.774563},{"name":"中央区立福祉センターふれあい作業所","province":"東京都","city":"中央区","address":"中央区晴海1-4-1","lat":35.658851,"lon":139.785538},{"name":"\"中央区立京橋図書館 \"","province":"東京都","city":"中央区","address":"東京都中央区新富1-13-14","lat":35.673688,"lon":139.7756},{"name":"中央区立日本橋図書館","province":"東京都","city":"中央区","address":"東京都中央区日本橋人形町1-1-17","lat":35.684273,"lon":139.78123},{"name":"\"中央区立月島図書館 \"","province":"東京都","city":"中央区","address":"東京都中央区月島4-1-1","lat":35.661921,"lon":139.78192},{"name":"NewWork日本橋","province":"東京都","city":"中央区","address":"東京都中央区日本橋2丁目8-6","lat":35.68144035,"lon":139.77513517},{"name":"H1T銀座","province":"東京都","city":"中央区","address":"東京都中央区銀座4丁目6-11","lat":35.67116898,"lon":139.76550284},{"name":"浜離宮恩賜庭園","province":"東京都","city":"中央区","address":"東京都中央区浜離宮庭園","lat":35.659737,"lon":139.763493},{"name":"晴海給水所","province":"東京都","city":"中央区","address":"東京都中央区晴海1-6-3","lat":35.65832,"lon":139.78408},{"name":"区立あかつき公園","province":"東京都","city":"中央区","address":"東京都中央区築地7-19-1","lat":35.665987,"lon":139.776889},{"name":"区立堀留児童公園","province":"東京都","city":"中央区","address":"東京都中央区日本橋堀留町1-1-16","lat":35.6871001,"lon":139.779214},{"name":"中央区立福祉センターふれあい作業所","province":"東京都","city":"中央区","address":"中央区晴海1-4-1","lat":35.65868,"lon":139.78584},{"name":"銀座六丁目地下駐輪場","province":"東京都","city":"中央区","address":"東京都中央区銀座6丁目10-1","lat":35.66942747,"lon":139.76411969},{"name":"入船橋駐輪場","province":"東京都","city":"中央区","address":"東京都中央区明石町1-34","lat":35.66961108,"lon":139.77549095},{"name":"築地市場駅地下駐輪場","province":"東京都","city":"中央区","address":"東京都中央区築地5丁目1-1","lat":35.66557519,"lon":139.76734737},{"name":"備前橋第三駐輪場","province":"東京都","city":"中央区","address":"東京都中央区築地7丁目5-16","lat":35.66630028,"lon":139.7734246},{"name":"人形町一丁目駐輪場","province":"東京都","city":"中央区","address":"東京都中央区日本橋人形町1丁目12-11","lat":35.68394313,"lon":139.78360711},{"name":"人形町通り駐輪場","province":"東京都","city":"中央区","address":"東京都中央区日本橋人形町1丁目14-8","lat":35.68404035,"lon":139.78389044},{"name":"人形町二丁目地下駐輪場","province":"東京都","city":"中央区","address":"東京都中央区日本橋人形町2丁目12-1","lat":35.68472085,"lon":139.78457942},{"name":"人形町三丁目駐輪場","province":"東京都","city":"中央区","address":"東京都中央区日本橋人形町3丁目8-1","lat":35.68668726,"lon":139.78242961},{"name":"蛎殻町駐輪場","province":"東京都","city":"中央区","address":"東京都中央区日本橋蛎殻町2丁目1-1","lat":35.68240173,"lon":139.78664047},{"name":"箱崎町駐輪場","province":"東京都","city":"中央区","address":"東京都中央区日本橋箱崎町24-2","lat":35.68043524,"lon":139.78652633},{"name":"清杉通り駐輪場","province":"東京都","city":"中央区","address":"東京都中央区日本橋横山町9-7","lat":35.69392542,"lon":139.78475729},{"name":"浜町公園地下駐輪場","province":"東京都","city":"中央区","address":"東京都中央区日本橋浜町2丁目59-48","lat":35.6874597,"lon":139.79043576},{"name":"日本橋二丁目地下駐輪場","province":"東京都","city":"中央区","address":"東京都中央区日本橋2丁目10-8","lat":35.68089873,"lon":139.77471297},{"name":"茅場町駐輪場","province":"東京都","city":"中央区","address":"東京都中央区日本橋茅場町2丁目17-13","lat":35.67896299,"lon":139.78101518},{"name":"月島駅前第一駐輪場","province":"東京都","city":"中央区","address":"東京都中央区月島2丁目1-1","lat":35.66374256,"lon":139.7850265},{"name":"月島駅地下駐輪場","province":"東京都","city":"中央区","address":"東京都中央区月島2丁目10-3","lat":35.66326202,"lon":139.78397937},{"name":"八重洲二丁目地下駐輪場","province":"東京都","city":"中央区","address":"東京都中央区八重洲2丁目1-4","lat":35.67966539,"lon":139.76981333},{"name":"中央区地域包括支援センター","province":"東京都","city":"中央区","address":"中央区築地1-1-1区役所4階","lat":35.670841,"lon":139.771927},{"name":"京橋おとしより相談センター","province":"東京都","city":"中央区","address":"中央区明石町1-6リハポート明石等複合施設1階","lat":35.669617,"lon":139.776657},{"name":"日本橋おとしより相談センター","province":"東京都","city":"中央区","address":"中央区日本橋小伝馬町5-1十思スクエア1階","lat":35.691414,"lon":139.777466},{"name":"人形町おとしより相談センター（日本橋おとしより相談センターの分室）","province":"東京都","city":"中央区","address":"中央区日本橋人形町2-32-4日本橋医師会人形町ビル1階","lat":35.682903,"lon":139.775345},{"name":"月島おとしより相談センター","province":"東京都","city":"中央区","address":"中央区月島4-1-1月島区民センター1階","lat":43.062607,"lon":141.655518},{"name":"勝どきおとしより相談センター（月島おとしより相談センター分室）","province":"東京都","city":"中央区","address":"中央区勝どき5-1-17勝どきザ・リバーフロント1階","lat":35.661423,"lon":139.776581},{"name":"室町二丁目","province":"東京都","city":"中央区","address":"東京都中央区日本橋室町1丁目5-5","lat":35.68619816,"lon":139.77438807},{"name":"本町二丁目","province":"東京都","city":"中央区","address":"東京都中央区日本橋本町2丁目5-1","lat":35.68734532,"lon":139.7762047},{"name":"京橋一丁目","province":"東京都","city":"中央区","address":"東京都中央区日本橋3丁目12-2","lat":35.67858507,"lon":139.7743713},{"name":"鍛冶橋","province":"東京都","city":"中央区","address":"東京都中央区八重洲2丁目8-21","lat":35.67695173,"lon":139.7671775},{"name":"室町二丁目第二","province":"東京都","city":"中央区","address":"東京都中央区日本橋室町2丁目4-3","lat":35.68745634,"lon":139.77387974},{"name":"浜町中の橋","province":"東京都","city":"中央区","address":"東京都中央区日本橋浜町2丁目23-7","lat":35.68567645,"lon":139.78778543},{"name":"人形町","province":"東京都","city":"中央区","address":"東京都中央区日本橋人形町3丁目7-13","lat":35.68632617,"lon":139.78191571},{"name":"日本橋支所前","province":"東京都","city":"中央区","address":"東京都中央区日本橋蛎殻町2丁目2-4","lat":35.68279609,"lon":139.78566821},{"name":"東日本橋三丁目","province":"東京都","city":"中央区","address":"東京都中央区東日本橋3丁目8-2","lat":35.69135901,"lon":139.78379343},{"name":"箱崎町","province":"東京都","city":"中央区","address":"東京都中央区日本橋箱崎町41-13","lat":35.68119908,"lon":139.78695424},{"name":"ターミナルビル前","province":"東京都","city":"中央区","address":"東京都中央区日本橋蛎殻町1丁目35-5","lat":35.68174621,"lon":139.78603201},{"name":"隅田川大橋北詰","province":"東京都","city":"中央区","address":"東京都中央区日本橋箱崎町25-9","lat":35.68040193,"lon":139.78695136},{"name":"鎧橋東詰","province":"東京都","city":"中央区","address":"東京都中央区日本橋小網町7-2","lat":35.68210712,"lon":139.78100152},{"name":"築地四丁目","province":"東京都","city":"中央区","address":"東京都中央区築地3丁目16-12","lat":35.66649186,"lon":139.7709998},{"name":"数寄屋橋","province":"東京都","city":"中央区","address":"東京都中央区銀座4丁目1-2","lat":35.67281041,"lon":139.76328075},{"name":"入船橋","province":"東京都","city":"中央区","address":"東京都中央区新富2丁目14-6","lat":35.67041376,"lon":139.77486875},{"name":"土橋","province":"東京都","city":"中央区","address":"東京都中央区銀座8丁目3-7","lat":35.66870796,"lon":139.75892294},{"name":"聖路加病院前","province":"東京都","city":"中央区","address":"東京都中央区明石町12-1","lat":35.66657812,"lon":139.77679376},{"name":"築地警察署前","province":"東京都","city":"中央区","address":"東京都中央区築地1丁目6","lat":35.67027478,"lon":139.77131348},{"name":"築地暁橋","province":"東京都","city":"中央区","address":"東京都中央区明石町11-15","lat":35.66711412,"lon":139.77481056},{"name":"聖路加ガーデン前","province":"東京都","city":"中央区","address":"東京都中央区明石町13-1","lat":35.66615041,"lon":139.77768536},{"name":"明石小学校前","province":"東京都","city":"中央区","address":"東京都中央区明石町9-1","lat":35.66741137,"lon":139.77705481},{"name":"月島三丁目","province":"東京都","city":"中央区","address":"東京都中央区月島1丁目27-9","lat":35.66316198,"lon":139.78207955},{"name":"勝どき駅前","province":"東京都","city":"中央区","address":"東京都中央区勝どき1丁目7-1","lat":35.65987332,"lon":139.77761338},{"name":"初見橋","province":"東京都","city":"中央区","address":"東京都中央区佃2丁目17-8","lat":35.664723,"lon":139.7848487},{"name":"新月橋","province":"東京都","city":"中央区","address":"東京都中央区月島1丁目2-9","lat":35.66522013,"lon":139.78346268},{"name":"月島出張所前","province":"東京都","city":"中央区","address":"東京都中央区月島3丁目12-5","lat":35.66231205,"lon":139.78151296},{"name":"晴海二丁目","province":"東京都","city":"中央区","address":"東京都中央区晴海1丁目8-10","lat":35.65637941,"lon":139.78234084},{"name":"晴月橋南","province":"東京都","city":"中央区","address":"東京都中央区晴海1丁目6","lat":35.65872641,"lon":139.78401006},{"name":"佃二丁目北","province":"東京都","city":"中央区","address":"東京都中央区佃2丁目11","lat":35.66661448,"lon":139.78540973},{"name":"（一社）東京工業団体連合会","province":"東京都","city":"中央区","address":"東京都中央区銀座2丁目10-18","lat":35.67279666,"lon":139.76867751},{"name":"（公社）東京のあすを創る協会","province":"東京都","city":"中央区","address":"東京都中央区八重洲2丁目11-7","lat":35.67560743,"lon":139.76750252},{"name":"東京都青年国際交流機構(東京都ＩＹＥＯ)","province":"東京都","city":"中央区","address":"東京都中央区日本橋人形町2丁目35-14","lat":35.68502368,"lon":139.7864602},{"name":"(公財)全国青少年教化協議会","province":"東京都","city":"中央区","address":"東京都中央区築地3丁目7-5","lat":35.66768902,"lon":139.77355509},{"name":"（特定非営利活動法人）日本ガーディアン・エンジェルス","province":"東京都","city":"中央区","address":"東京都中央区新川1丁目29-13","lat":35.67598566,"lon":139.78516219},{"name":"東京都商店街振興組合連合会","province":"東京都","city":"中央区","address":"東京都中央区銀座2丁目10-18","lat":35.67279666,"lon":139.76867751},{"name":"＊?月島社会教育会館","province":"東京都","city":"中央区","address":"中央区月島4-1-1月島区民センター内","lat":35.662043,"lon":139.782269},{"name":"＊?月島社会教育会館晴海分館アートはるみ","province":"東京都","city":"中央区","address":"中央区晴海1-4-1月島第三小学校等複合施設内","lat":35.659003,"lon":139.785775},{"name":"＊?築地社会教育会館","province":"東京都","city":"中央区","address":"中央区築地4-15-1","lat":35.666501,"lon":139.768069},{"name":"＊?日本橋社会教育会館","province":"東京都","city":"中央区","address":"中央区日本橋人形町1-1-17日本橋小学校等複合施設内","lat":35.684764,"lon":139.781493},{"name":"＊?郷土天文館","province":"東京都","city":"中央区","address":"中央区明石町12-1","lat":35.666635,"lon":139.776739},{"name":"中央清掃工場","province":"東京都","city":"中央区","address":"東京都中央区晴海5丁目2-1","lat":35.652134,"lon":139.775604},{"name":"晴海客船ターミナル","province":"東京都","city":"中央区","address":"東京都中央区晴海5丁目","lat":35.65203246,"lon":139.77483607},{"name":"複合施設中央区保健所\"","province":"東京都","city":"中央区","address":"東京都中央区明石町12-1","lat":35.66657812,"lon":139.77679376},{"name":"宝町駅（都営浅草線）","province":"東京都","city":"中央区","address":"東京都中央区京橋2丁目13-11","lat":35.67561312,"lon":139.77248543},{"name":"東銀座駅（都営浅草線）","province":"東京都","city":"中央区","address":"東京都中央区銀座4丁目10-10","lat":35.67006636,"lon":139.76691664},{"name":"築地市場駅（都営大江戸線）","province":"東京都","city":"中央区","address":"東京都中央区築地5丁目1-2","lat":35.6653252,"lon":139.76662799},{"name":"月島スポーツプラザ","province":"東京都","city":"中央区","address":"東京都中央区月島1丁目9-2","lat":35.66515624,"lon":139.78299884},{"name":"月島図書館","province":"東京都","city":"中央区","address":"東京都中央区月島4丁目1-1","lat":35.66204544,"lon":139.78211847},{"name":"日本橋駅（都営浅草線）","province":"東京都","city":"中央区","address":"東京都中央区日本橋1丁目13-1","lat":35.68221529,"lon":139.77554072},{"name":"複合施設（日本橋図書館）\"","province":"東京都","city":"中央区","address":"東京都中央区日本橋人形町1丁目1-17","lat":35.68469854,"lon":139.78139615},{"name":"人形町駅（都営浅草線）","province":"東京都","city":"中央区","address":"東京都中央区日本橋人形町3丁目7-13","lat":35.68632617,"lon":139.78191571},{"name":"総合スポーツセンター","province":"東京都","city":"中央区","address":"東京都中央区日本橋浜町2丁目59-1","lat":35.68785406,"lon":139.78937729},{"name":"浜町駅（都営新宿線）","province":"東京都","city":"中央区","address":"東京都中央区日本橋浜町2丁目59-3","lat":35.68874832,"lon":139.78755762},{"name":"馬喰横山駅（都営新宿線）","province":"東京都","city":"中央区","address":"東京都中央区日本橋横山町4-13","lat":35.69192002,"lon":139.78272122},{"name":"東日本橋駅（都営浅草線）","province":"東京都","city":"中央区","address":"東京都中央区東日本橋3丁目11-8","lat":35.69231449,"lon":139.78467121},{"name":"晴海ふ頭","province":"東京都","city":"中央区","address":"東京都中央区晴海2丁目","lat":35.6549074,"lon":139.78393517},{"name":"月島ふ頭","province":"東京都","city":"中央区","address":"東京都中央区豊海町","lat":35.65314056,"lon":139.77090583},{"name":"常盤橋","province":"東京都","city":"中央区","address":"東京都中央区日本橋本石町2丁目1","lat":35.6869841,"lon":139.77150202},{"name":"第一建設事務所","province":"東京都","city":"中央区","address":"中央区明石町2-4","lat":35.66915,"lon":139.7777},{"name":"西東京管理局新富分室","province":"東京都","city":"中央区","address":"中央区新富1-1-3","lat":35.67387,"lon":139.7729},{"name":"東東京管理局","province":"東京都","city":"中央区","address":"中央区日本橋箱崎町43-5","lat":35.68227,"lon":139.7891},{"name":"東京電力（株）銀座支社","province":"東京都","city":"中央区","address":"中央区銀座3-3-18","lat":35.67324,"lon":139.7653},{"name":"常盤橋","province":"東京都","city":"中央区","address":"東京都中央区日本橋本石町2丁目1","lat":35.6869841,"lon":139.77150202},{"name":"新川二丁目５番緑地","province":"東京都","city":"中央区","address":"東京都中央区新川2丁目5-9","lat":35.67653268,"lon":139.78056802},{"name":"放課後等デイサービス　ポジリブ","province":"東京都","city":"中央区","address":"中央区日本橋久松町6-9ASONE日本橋East2階","lat":35.689481,"lon":139.784357},{"name":"放課後等デイサービス　ミライエ日本橋","province":"東京都","city":"中央区","address":"中央区日本橋蛎殻町2-5-3","lat":35.683924,"lon":139.785185},{"name":"児童デイサービス　スマイル日本橋","province":"東京都","city":"中央区","address":"中央区日本橋茅場町2-17-9長尾ビル201号室","lat":35.678607,"lon":139.780696},{"name":"ゆうゆうらいふアカデミー中央","province":"東京都","city":"中央区","address":"中央区新川2-18-5ASビル2階","lat":35.674519,"lon":139.781649},{"name":"トリプル・ハート","province":"東京都","city":"中央区","address":"中央区新富2-2-142階","lat":35.671872,"lon":139.772563},{"name":"中央区立福祉センター","province":"東京都","city":"中央区","address":"中央区明石町12-1","lat":35.666506,"lon":139.777035},{"name":"啓成会義肢研究製作所","province":"東京都","city":"中央区","address":"中央区日本橋本町4-5-13和光純薬ビル","lat":35.690639,"lon":139.774563},{"name":"中央区立福祉センターふれあい作業所","province":"東京都","city":"中央区","address":"中央区晴海1-4-1","lat":35.658851,"lon":139.785538},{"name":"\"中央区立京橋図書館 \"","province":"東京都","city":"中央区","address":"東京都中央区新富1-13-14","lat":35.673688,"lon":139.7756},{"name":"中央区立日本橋図書館","province":"東京都","city":"中央区","address":"東京都中央区日本橋人形町1-1-17","lat":35.684273,"lon":139.78123},{"name":"\"中央区立月島図書館 \"","province":"東京都","city":"中央区","address":"東京都中央区月島4-1-1","lat":35.661921,"lon":139.78192},{"name":"NewWork日本橋","province":"東京都","city":"中央区","address":"東京都中央区日本橋2丁目8-6","lat":35.68144035,"lon":139.77513517},{"name":"H1T銀座","province":"東京都","city":"中央区","address":"東京都中央区銀座4丁目6-11","lat":35.67116898,"lon":139.76550284},{"name":"浜離宮恩賜庭園","province":"東京都","city":"中央区","address":"東京都中央区浜離宮庭園","lat":35.659737,"lon":139.763493},{"name":"晴海給水所","province":"東京都","city":"中央区","address":"東京都中央区晴海1-6-3","lat":35.65832,"lon":139.78408},{"name":"区立あかつき公園","province":"東京都","city":"中央区","address":"東京都中央区築地7-19-1","lat":35.665987,"lon":139.776889},{"name":"区立堀留児童公園","province":"東京都","city":"中央区","address":"東京都中央区日本橋堀留町1-1-16","lat":35.6871001,"lon":139.779214},{"name":"中央区立福祉センターふれあい作業所","province":"東京都","city":"中央区","address":"中央区晴海1-4-1","lat":35.65868,"lon":139.78584},{"name":"銀座六丁目地下駐輪場","province":"東京都","city":"中央区","address":"東京都中央区銀座6丁目10-1","lat":35.66942747,"lon":139.76411969},{"name":"入船橋駐輪場","province":"東京都","city":"中央区","address":"東京都中央区明石町1-34","lat":35.66961108,"lon":139.77549095},{"name":"築地市場駅地下駐輪場","province":"東京都","city":"中央区","address":"東京都中央区築地5丁目1-1","lat":35.66557519,"lon":139.76734737},{"name":"備前橋第三駐輪場","province":"東京都","city":"中央区","address":"東京都中央区築地7丁目5-16","lat":35.66630028,"lon":139.7734246},{"name":"人形町一丁目駐輪場","province":"東京都","city":"中央区","address":"東京都中央区日本橋人形町1丁目12-11","lat":35.68394313,"lon":139.78360711},{"name":"人形町通り駐輪場","province":"東京都","city":"中央区","address":"東京都中央区日本橋人形町1丁目14-8","lat":35.68404035,"lon":139.78389044},{"name":"人形町二丁目地下駐輪場","province":"東京都","city":"中央区","address":"東京都中央区日本橋人形町2丁目12-1","lat":35.68472085,"lon":139.78457942},{"name":"人形町三丁目駐輪場","province":"東京都","city":"中央区","address":"東京都中央区日本橋人形町3丁目8-1","lat":35.68668726,"lon":139.78242961},{"name":"蛎殻町駐輪場","province":"東京都","city":"中央区","address":"東京都中央区日本橋蛎殻町2丁目1-1","lat":35.68240173,"lon":139.78664047},{"name":"箱崎町駐輪場","province":"東京都","city":"中央区","address":"東京都中央区日本橋箱崎町24-2","lat":35.68043524,"lon":139.78652633},{"name":"清杉通り駐輪場","province":"東京都","city":"中央区","address":"東京都中央区日本橋横山町9-7","lat":35.69392542,"lon":139.78475729},{"name":"浜町公園地下駐輪場","province":"東京都","city":"中央区","address":"東京都中央区日本橋浜町2丁目59-48","lat":35.6874597,"lon":139.79043576},{"name":"日本橋二丁目地下駐輪場","province":"東京都","city":"中央区","address":"東京都中央区日本橋2丁目10-8","lat":35.68089873,"lon":139.77471297},{"name":"茅場町駐輪場","province":"東京都","city":"中央区","address":"東京都中央区日本橋茅場町2丁目17-13","lat":35.67896299,"lon":139.78101518},{"name":"月島駅前第一駐輪場","province":"東京都","city":"中央区","address":"東京都中央区月島2丁目1-1","lat":35.66374256,"lon":139.7850265},{"name":"月島駅地下駐輪場","province":"東京都","city":"中央区","address":"東京都中央区月島2丁目10-3","lat":35.66326202,"lon":139.78397937},{"name":"八重洲二丁目地下駐輪場","province":"東京都","city":"中央区","address":"東京都中央区八重洲2丁目1-4","lat":35.67966539,"lon":139.76981333},{"name":"室町二丁目","province":"東京都","city":"中央区","address":"東京都中央区日本橋室町1丁目5-5","lat":35.68619816,"lon":139.77438807},{"name":"本町二丁目","province":"東京都","city":"中央区","address":"東京都中央区日本橋本町2丁目5-1","lat":35.68734532,"lon":139.7762047},{"name":"京橋一丁目","province":"東京都","city":"中央区","address":"東京都中央区日本橋3丁目12-2","lat":35.67858507,"lon":139.7743713},{"name":"鍛冶橋","province":"東京都","city":"中央区","address":"東京都中央区八重洲2丁目8-21","lat":35.67695173,"lon":139.7671775},{"name":"室町二丁目第二","province":"東京都","city":"中央区","address":"東京都中央区日本橋室町2丁目4-3","lat":35.68745634,"lon":139.77387974},{"name":"浜町中の橋","province":"東京都","city":"中央区","address":"東京都中央区日本橋浜町2丁目23-7","lat":35.68567645,"lon":139.78778543},{"name":"人形町","province":"東京都","city":"中央区","address":"東京都中央区日本橋人形町3丁目7-13","lat":35.68632617,"lon":139.78191571},{"name":"日本橋支所前","province":"東京都","city":"中央区","address":"東京都中央区日本橋蛎殻町2丁目2-4","lat":35.68279609,"lon":139.78566821},{"name":"東日本橋三丁目","province":"東京都","city":"中央区","address":"東京都中央区東日本橋3丁目8-2","lat":35.69135901,"lon":139.78379343},{"name":"箱崎町","province":"東京都","city":"中央区","address":"東京都中央区日本橋箱崎町41-13","lat":35.68119908,"lon":139.78695424},{"name":"ターミナルビル前","province":"東京都","city":"中央区","address":"東京都中央区日本橋蛎殻町1丁目35-5","lat":35.68174621,"lon":139.78603201},{"name":"隅田川大橋北詰","province":"東京都","city":"中央区","address":"東京都中央区日本橋箱崎町25-9","lat":35.68040193,"lon":139.78695136},{"name":"鎧橋東詰","province":"東京都","city":"中央区","address":"東京都中央区日本橋小網町7-2","lat":35.68210712,"lon":139.78100152},{"name":"築地四丁目","province":"東京都","city":"中央区","address":"東京都中央区築地3丁目16-12","lat":35.66649186,"lon":139.7709998},{"name":"数寄屋橋","province":"東京都","city":"中央区","address":"東京都中央区銀座4丁目1-2","lat":35.67281041,"lon":139.76328075},{"name":"入船橋","province":"東京都","city":"中央区","address":"東京都中央区新富2丁目14-6","lat":35.67041376,"lon":139.77486875},{"name":"土橋","province":"東京都","city":"中央区","address":"東京都中央区銀座8丁目3-7","lat":35.66870796,"lon":139.75892294},{"name":"聖路加病院前","province":"東京都","city":"中央区","address":"東京都中央区明石町12-1","lat":35.66657812,"lon":139.77679376},{"name":"築地警察署前","province":"東京都","city":"中央区","address":"東京都中央区築地1丁目6","lat":35.67027478,"lon":139.77131348},{"name":"築地暁橋","province":"東京都","city":"中央区","address":"東京都中央区明石町11-15","lat":35.66711412,"lon":139.77481056},{"name":"聖路加ガーデン前","province":"東京都","city":"中央区","address":"東京都中央区明石町13-1","lat":35.66615041,"lon":139.77768536},{"name":"明石小学校前","province":"東京都","city":"中央区","address":"東京都中央区明石町9-1","lat":35.66741137,"lon":139.77705481},{"name":"月島三丁目","province":"東京都","city":"中央区","address":"東京都中央区月島1丁目27-9","lat":35.66316198,"lon":139.78207955},{"name":"勝どき駅前","province":"東京都","city":"中央区","address":"東京都中央区勝どき1丁目7-1","lat":35.65987332,"lon":139.77761338},{"name":"初見橋","province":"東京都","city":"中央区","address":"東京都中央区佃2丁目17-8","lat":35.664723,"lon":139.7848487},{"name":"新月橋","province":"東京都","city":"中央区","address":"東京都中央区月島1丁目2-9","lat":35.66522013,"lon":139.78346268},{"name":"月島出張所前","province":"東京都","city":"中央区","address":"東京都中央区月島3丁目12-5","lat":35.66231205,"lon":139.78151296},{"name":"晴海二丁目","province":"東京都","city":"中央区","address":"東京都中央区晴海1丁目8-10","lat":35.65637941,"lon":139.78234084},{"name":"晴月橋南","province":"東京都","city":"中央区","address":"東京都中央区晴海1丁目6","lat":35.65872641,"lon":139.78401006},{"name":"佃二丁目北","province":"東京都","city":"中央区","address":"東京都中央区佃2丁目11","lat":35.66661448,"lon":139.78540973},{"name":"（一社）東京工業団体連合会","province":"東京都","city":"中央区","address":"東京都中央区銀座2丁目10-18","lat":35.67279666,"lon":139.76867751},{"name":"（公社）東京のあすを創る協会","province":"東京都","city":"中央区","address":"東京都中央区八重洲2丁目11-7","lat":35.67560743,"lon":139.76750252},{"name":"東京都青年国際交流機構(東京都ＩＹＥＯ)","province":"東京都","city":"中央区","address":"東京都中央区日本橋人形町2丁目35-14","lat":35.68502368,"lon":139.7864602},{"name":"(公財)全国青少年教化協議会","province":"東京都","city":"中央区","address":"東京都中央区築地3丁目7-5","lat":35.66768902,"lon":139.77355509},{"name":"（特定非営利活動法人）日本ガーディアン・エンジェルス","province":"東京都","city":"中央区","address":"東京都中央区新川1丁目29-13","lat":35.67598566,"lon":139.78516219},{"name":"東京都商店街振興組合連合会","province":"東京都","city":"中央区","address":"東京都中央区銀座2丁目10-18","lat":35.67279666,"lon":139.76867751},{"name":"＊?月島社会教育会館","province":"東京都","city":"中央区","address":"中央区月島4-1-1月島区民センター内","lat":35.662043,"lon":139.782269},{"name":"＊?月島社会教育会館晴海分館アートはるみ","province":"東京都","city":"中央区","address":"中央区晴海1-4-1月島第三小学校等複合施設内","lat":35.659003,"lon":139.785775},{"name":"＊?築地社会教育会館","province":"東京都","city":"中央区","address":"中央区築地4-15-1","lat":35.666501,"lon":139.768069},{"name":"＊?日本橋社会教育会館","province":"東京都","city":"中央区","address":"中央区日本橋人形町1-1-17日本橋小学校等複合施設内","lat":35.684764,"lon":139.781493},{"name":"＊?郷土天文館","province":"東京都","city":"中央区","address":"中央区明石町12-1","lat":35.666635,"lon":139.776739},{"name":"中央清掃工場","province":"東京都","city":"中央区","address":"東京都中央区晴海5丁目2-1","lat":35.652134,"lon":139.775604},{"name":"晴海客船ターミナル","province":"東京都","city":"中央区","address":"東京都中央区晴海5丁目","lat":35.65203246,"lon":139.77483607},{"name":"複合施設中央区保健所\"","province":"東京都","city":"中央区","address":"東京都中央区明石町12-1","lat":35.66657812,"lon":139.77679376},{"name":"宝町駅（都営浅草線）","province":"東京都","city":"中央区","address":"東京都中央区京橋2丁目13-11","lat":35.67561312,"lon":139.77248543},{"name":"東銀座駅（都営浅草線）","province":"東京都","city":"中央区","address":"東京都中央区銀座4丁目10-10","lat":35.67006636,"lon":139.76691664},{"name":"築地市場駅（都営大江戸線）","province":"東京都","city":"中央区","address":"東京都中央区築地5丁目1-2","lat":35.6653252,"lon":139.76662799},{"name":"月島スポーツプラザ","province":"東京都","city":"中央区","address":"東京都中央区月島1丁目9-2","lat":35.66515624,"lon":139.78299884},{"name":"月島図書館","province":"東京都","city":"中央区","address":"東京都中央区月島4丁目1-1","lat":35.66204544,"lon":139.78211847},{"name":"日本橋駅（都営浅草線）","province":"東京都","city":"中央区","address":"東京都中央区日本橋1丁目13-1","lat":35.68221529,"lon":139.77554072},{"name":"複合施設（日本橋図書館）\"","province":"東京都","city":"中央区","address":"東京都中央区日本橋人形町1丁目1-17","lat":35.68469854,"lon":139.78139615},{"name":"人形町駅（都営浅草線）","province":"東京都","city":"中央区","address":"東京都中央区日本橋人形町3丁目7-13","lat":35.68632617,"lon":139.78191571},{"name":"総合スポーツセンター","province":"東京都","city":"中央区","address":"東京都中央区日本橋浜町2丁目59-1","lat":35.68785406,"lon":139.78937729},{"name":"浜町駅（都営新宿線）","province":"東京都","city":"中央区","address":"東京都中央区日本橋浜町2丁目59-3","lat":35.68874832,"lon":139.78755762},{"name":"馬喰横山駅（都営新宿線）","province":"東京都","city":"中央区","address":"東京都中央区日本橋横山町4-13","lat":35.69192002,"lon":139.78272122},{"name":"東日本橋駅（都営浅草線）","province":"東京都","city":"中央区","address":"東京都中央区東日本橋3丁目11-8","lat":35.69231449,"lon":139.78467121},{"name":"晴海ふ頭","province":"東京都","city":"中央区","address":"東京都中央区晴海2丁目","lat":35.6549074,"lon":139.78393517},{"name":"月島ふ頭","province":"東京都","city":"中央区","address":"東京都中央区豊海町","lat":35.65314056,"lon":139.77090583},{"name":"常盤橋","province":"東京都","city":"中央区","address":"東京都中央区日本橋本石町2丁目1","lat":35.6869841,"lon":139.77150202},{"name":"東京電力（株）銀座支社","province":"東京都","city":"中央区","address":"中央区銀座3-3-18","lat":35.67324,"lon":139.7653},{"name":"常盤橋","province":"東京都","city":"中央区","address":"東京都中央区日本橋本石町2丁目1","lat":35.6869841,"lon":139.77150202},{"name":"新川二丁目５番緑地","province":"東京都","city":"中央区","address":"東京都中央区新川2丁目5-9","lat":35.67653268,"lon":139.78056802},{"name":"放課後等デイサービス　ポジリブ","province":"東京都","city":"中央区","address":"中央区日本橋久松町6-9ASONE日本橋East2階","lat":35.689481,"lon":139.784357},{"name":"放課後等デイサービス　ミライエ日本橋","province":"東京都","city":"中央区","address":"中央区日本橋蛎殻町2-5-3","lat":35.683924,"lon":139.785185},{"name":"児童デイサービス　スマイル日本橋","province":"東京都","city":"中央区","address":"中央区日本橋茅場町2-17-9長尾ビル201号室","lat":35.678607,"lon":139.780696},{"name":"ゆうゆうらいふアカデミー中央","province":"東京都","city":"中央区","address":"中央区新川2-18-5ASビル2階","lat":35.674519,"lon":139.781649},{"name":"トリプル・ハート","province":"東京都","city":"中央区","address":"中央区新富2-2-142階","lat":35.671872,"lon":139.772563},{"name":"中央区立福祉センター","province":"東京都","city":"中央区","address":"中央区明石町12-1","lat":35.666506,"lon":139.777035},{"name":"啓成会義肢研究製作所","province":"東京都","city":"中央区","address":"中央区日本橋本町4-5-13和光純薬ビル","lat":35.690639,"lon":139.774563},{"name":"中央区立福祉センターふれあい作業所","province":"東京都","city":"中央区","address":"中央区晴海1-4-1","lat":35.658851,"lon":139.785538},{"name":"\"中央区立京橋図書館 \"","province":"東京都","city":"中央区","address":"東京都中央区新富1-13-14","lat":35.673688,"lon":139.7756},{"name":"中央区立日本橋図書館","province":"東京都","city":"中央区","address":"東京都中央区日本橋人形町1-1-17","lat":35.684273,"lon":139.78123},{"name":"\"中央区立月島図書館 \"","province":"東京都","city":"中央区","address":"東京都中央区月島4-1-1","lat":35.661921,"lon":139.78192},{"name":"NewWork日本橋","province":"東京都","city":"中央区","address":"東京都中央区日本橋2丁目8-6","lat":35.68144035,"lon":139.77513517},{"name":"H1T銀座","province":"東京都","city":"中央区","address":"東京都中央区銀座4丁目6-11","lat":35.67116898,"lon":139.76550284},{"name":"浜離宮恩賜庭園","province":"東京都","city":"中央区","address":"東京都中央区浜離宮庭園","lat":35.659737,"lon":139.763493},{"name":"晴海給水所","province":"東京都","city":"中央区","address":"東京都中央区晴海1-6-3","lat":35.65832,"lon":139.78408},{"name":"区立あかつき公園","province":"東京都","city":"中央区","address":"東京都中央区築地7-19-1","lat":35.665987,"lon":139.776889},{"name":"区立堀留児童公園","province":"東京都","city":"中央区","address":"東京都中央区日本橋堀留町1-1-16","lat":35.6871001,"lon":139.779214},{"name":"中央区立福祉センターふれあい作業所","province":"東京都","city":"中央区","address":"中央区晴海1-4-1","lat":35.65868,"lon":139.78584},{"name":"銀座六丁目地下駐輪場","province":"東京都","city":"中央区","address":"東京都中央区銀座6丁目10-1","lat":35.66942747,"lon":139.76411969},{"name":"入船橋駐輪場","province":"東京都","city":"中央区","address":"東京都中央区明石町1-34","lat":35.66961108,"lon":139.77549095},{"name":"築地市場駅地下駐輪場","province":"東京都","city":"中央区","address":"東京都中央区築地5丁目1-1","lat":35.66557519,"lon":139.76734737},{"name":"備前橋第三駐輪場","province":"東京都","city":"中央区","address":"東京都中央区築地7丁目5-16","lat":35.66630028,"lon":139.7734246},{"name":"人形町一丁目駐輪場","province":"東京都","city":"中央区","address":"東京都中央区日本橋人形町1丁目12-11","lat":35.68394313,"lon":139.78360711},{"name":"人形町通り駐輪場","province":"東京都","city":"中央区","address":"東京都中央区日本橋人形町1丁目14-8","lat":35.68404035,"lon":139.78389044},{"name":"人形町二丁目地下駐輪場","province":"東京都","city":"中央区","address":"東京都中央区日本橋人形町2丁目12-1","lat":35.68472085,"lon":139.78457942},{"name":"人形町三丁目駐輪場","province":"東京都","city":"中央区","address":"東京都中央区日本橋人形町3丁目8-1","lat":35.68668726,"lon":139.78242961},{"name":"蛎殻町駐輪場","province":"東京都","city":"中央区","address":"東京都中央区日本橋蛎殻町2丁目1-1","lat":35.68240173,"lon":139.78664047},{"name":"箱崎町駐輪場","province":"東京都","city":"中央区","address":"東京都中央区日本橋箱崎町24-2","lat":35.68043524,"lon":139.78652633},{"name":"清杉通り駐輪場","province":"東京都","city":"中央区","address":"東京都中央区日本橋横山町9-7","lat":35.69392542,"lon":139.78475729},{"name":"浜町公園地下駐輪場","province":"東京都","city":"中央区","address":"東京都中央区日本橋浜町2丁目59-48","lat":35.6874597,"lon":139.79043576},{"name":"日本橋二丁目地下駐輪場","province":"東京都","city":"中央区","address":"東京都中央区日本橋2丁目10-8","lat":35.68089873,"lon":139.77471297},{"name":"茅場町駐輪場","province":"東京都","city":"中央区","address":"東京都中央区日本橋茅場町2丁目17-13","lat":35.67896299,"lon":139.78101518},{"name":"月島駅前第一駐輪場","province":"東京都","city":"中央区","address":"東京都中央区月島2丁目1-1","lat":35.66374256,"lon":139.7850265},{"name":"月島駅地下駐輪場","province":"東京都","city":"中央区","address":"東京都中央区月島2丁目10-3","lat":35.66326202,"lon":139.78397937},{"name":"八重洲二丁目地下駐輪場","province":"東京都","city":"中央区","address":"東京都中央区八重洲2丁目1-4","lat":35.67966539,"lon":139.76981333},{"name":"室町二丁目","province":"東京都","city":"中央区","address":"東京都中央区日本橋室町1丁目5-5","lat":35.68619816,"lon":139.77438807},{"name":"本町二丁目","province":"東京都","city":"中央区","address":"東京都中央区日本橋本町2丁目5-1","lat":35.68734532,"lon":139.7762047},{"name":"京橋一丁目","province":"東京都","city":"中央区","address":"東京都中央区日本橋3丁目12-2","lat":35.67858507,"lon":139.7743713},{"name":"鍛冶橋","province":"東京都","city":"中央区","address":"東京都中央区八重洲2丁目8-21","lat":35.67695173,"lon":139.7671775},{"name":"室町二丁目第二","province":"東京都","city":"中央区","address":"東京都中央区日本橋室町2丁目4-3","lat":35.68745634,"lon":139.77387974},{"name":"浜町中の橋","province":"東京都","city":"中央区","address":"東京都中央区日本橋浜町2丁目23-7","lat":35.68567645,"lon":139.78778543},{"name":"人形町","province":"東京都","city":"中央区","address":"東京都中央区日本橋人形町3丁目7-13","lat":35.68632617,"lon":139.78191571},{"name":"日本橋支所前","province":"東京都","city":"中央区","address":"東京都中央区日本橋蛎殻町2丁目2-4","lat":35.68279609,"lon":139.78566821},{"name":"東日本橋三丁目","province":"東京都","city":"中央区","address":"東京都中央区東日本橋3丁目8-2","lat":35.69135901,"lon":139.78379343},{"name":"箱崎町","province":"東京都","city":"中央区","address":"東京都中央区日本橋箱崎町41-13","lat":35.68119908,"lon":139.78695424},{"name":"ターミナルビル前","province":"東京都","city":"中央区","address":"東京都中央区日本橋蛎殻町1丁目35-5","lat":35.68174621,"lon":139.78603201},{"name":"隅田川大橋北詰","province":"東京都","city":"中央区","address":"東京都中央区日本橋箱崎町25-9","lat":35.68040193,"lon":139.78695136},{"name":"鎧橋東詰","province":"東京都","city":"中央区","address":"東京都中央区日本橋小網町7-2","lat":35.68210712,"lon":139.78100152},{"name":"築地四丁目","province":"東京都","city":"中央区","address":"東京都中央区築地3丁目16-12","lat":35.66649186,"lon":139.7709998},{"name":"数寄屋橋","province":"東京都","city":"中央区","address":"東京都中央区銀座4丁目1-2","lat":35.67281041,"lon":139.76328075},{"name":"入船橋","province":"東京都","city":"中央区","address":"東京都中央区新富2丁目14-6","lat":35.67041376,"lon":139.77486875},{"name":"土橋","province":"東京都","city":"中央区","address":"東京都中央区銀座8丁目3-7","lat":35.66870796,"lon":139.75892294},{"name":"聖路加病院前","province":"東京都","city":"中央区","address":"東京都中央区明石町12-1","lat":35.66657812,"lon":139.77679376},{"name":"築地警察署前","province":"東京都","city":"中央区","address":"東京都中央区築地1丁目6","lat":35.67027478,"lon":139.77131348},{"name":"築地暁橋","province":"東京都","city":"中央区","address":"東京都中央区明石町11-15","lat":35.66711412,"lon":139.77481056},