{"keyword":"破損","data":[{"name":"中央区地域包括支援センター","province":"東京都","city":"中央区","address":"中央区築地1-1-1区役所4階","lat":35.670841,"lon":139.771927},{"name":"京橋おとしより相談センター","province":"東京都","city":"中央区","address":"中央区明石町1-6リハポート明石等複合施設1階","lat":35.669617,"lon":139.776657},{"name":"日本橋おとしより相談センター","province":"東京都","city":"中央区","address":"中央区日本橋小伝馬町5-1十思スクエア1階","lat":35.691414,"lon":139.777466},{"name":"人形町おとしより相談センター（日本橋おとしより相談センターの分室）","province":"東京都","city":"中央区","address":"中央区日本橋人形町2-32-4日本橋医師会人形町ビル1階","lat":35.682903,"lon":139.775345},{"name":"月島おとしより相談センター","province":"東京都","city":"中央区","address":"中央区月島4-1-1月島区民センター1階","lat":43.062607,"lon":141.655518},{"name":"勝どきおとしより相談センター（月島おとしより相談センター分室）","province":"東京都","city":"中央区","address":"中央区勝どき5-1-17勝どきザ・リバーフロント1階","lat":35.661423,"lon":139.776581},{"name":"室町二丁目","province":"東京都","city":"中央区","address":"東京都中央区日本橋室町1丁目5-5","lat":35.68619816,"lon":139.77438807},{"name":"本町二丁目","province":"東京都","city":"中央区","address":"東京都中央区日本橋本町2丁目5-1","lat":35.68734532,"lon":139.7762047},{"name":"京橋一丁目","province":"東京都","city":"中央区","address":"東京都中央区日本橋3丁目12-2","lat":35.67858507,"lon":139.7743713},{"name":"鍛冶橋","province":"東京都","city":"中央区","address":"東京都中央区八重洲2丁目8-21","lat":35.67695173,"lon":139.7671775},{"name":"室町二丁目第二","province":"東京都","city":"中央区","address":"東京都中央区日本橋室町2丁目4-3","lat":35.68745634,"lon":139.77387974},{"name":"浜町中の橋","province":"東京都","city":"中央区","address":"東京都中央区日本橋浜町2丁目23-7","lat":35.68567645,"lon":139.78778543},{"name":"人形町","province":"東京都","city":"中央区","address":"東京都中央区日本橋人形町3丁目7-13","lat":35.68632617,"lon":139.78191571},{"name":"日本橋支所前","province":"東京都","city":"中央区","address":"東京都中央区日本橋蛎殻町2丁目2-4","lat":35.68279609,"lon":139.78566821},{"name":"東日本橋三丁目","province":"東京都","city":"中央区","address":"東京都中央区東日本橋3丁目8-2","lat":35.69135901,"lon":139.78379343},{"name":"箱崎町","province":"東京都","city":"中央区","address":"東京都中央区日本橋箱崎町41-13","lat":35.68119908,"lon":139.78695424},{"name":"ターミナルビル前","province":"東京都","city":"中央区","address":"東京都中央区日本橋蛎殻町1丁目35-5","lat":35.68174621,"lon":139.78603201},{"name":"隅田川大橋北詰","province":"東京都","city":"中央区","address":"東京都中央区日本橋箱崎町25-9","lat":35.68040193,"lon":139.78695136},{"name":"鎧橋東詰","province":"東京都","city":"中央区","address":"東京都中央区日本橋小網町7-2","lat":35.68210712,"lon":139.78100152},{"name":"築地四丁目","province":"東京都","city":"中央区","address":"東京都中央区築地3丁目16-12","lat":35.66649186,"lon":139.7709998},{"name":"数寄屋橋","province":"東京都","city":"中央区","address":"東京都中央区銀座4丁目1-2","lat":35.67281041,"lon":139.76328075},{"name":"入船橋","province":"東京都","city":"中央区","address":"東京都中央区新富2丁目14-6","lat":35.67041376,"lon":139.77486875},{"name":"土橋","province":"東京都","city":"中央区","address":"東京都中央区銀座8丁目3-7","lat":35.66870796,"lon":139.75892294},{"name":"聖路加病院前","province":"東京都","city":"中央区","address":"東京都中央区明石町12-1","lat":35.66657812,"lon":139.77679376},{"name":"築地警察署前","province":"東京都","city":"中央区","address":"東京都中央区築地1丁目6","lat":35.67027478,"lon":139.77131348},{"name":"築地暁橋","province":"東京都","city":"中央区","address":"東京都中央区明石町11-15","lat":35.66711412,"lon":139.77481056},{"name":"聖路加ガーデン前","province":"東京都","city":"中央区","address":"東京都中央区明石町13-1","lat":35.66615041,"lon":139.77768536},{"name":"明石小学校前","province":"東京都","city":"中央区","address":"東京都中央区明石町9-1","lat":35.66741137,"lon":139.77705481},{"name":"月島三丁目","province":"東京都","city":"中央区","address":"東京都中央区月島1丁目27-9","lat":35.66316198,"lon":139.78207955},{"name":"勝どき駅前","province":"東京都","city":"中央区","address":"東京都中央区勝どき1丁目7-1","lat":35.65987332,"lon":139.77761338},{"name":"初見橋","province":"東京都","city":"中央区","address":"東京都中央区佃2丁目17-8","lat":35.664723,"lon":139.7848487},{"name":"新月橋","province":"東京都","city":"中央区","address":"東京都中央区月島1丁目2-9","lat":35.66522013,"lon":139.78346268},{"name":"月島出張所前","province":"東京都","city":"中央区","address":"東京都中央区月島3丁目12-5","lat":35.66231205,"lon":139.78151296},{"name":"晴海二丁目","province":"東京都","city":"中央区","address":"東京都中央区晴海1丁目8-10","lat":35.65637941,"lon":139.78234084},{"name":"晴月橋南","province":"東京都","city":"中央区","address":"東京都中央区晴海1丁目6","lat":35.65872641,"lon":139.78401006},{"name":"佃二丁目北","province":"東京都","city":"中央区","address":"東京都中央区佃2丁目11","lat":35.66661448,"lon":139.78540973},{"name":"晴海給水所","province":"東京都","city":"中央区","address":"東京都中央区晴海1丁目6-3","lat":35.65852366,"lon":139.78411284},{"name":"区立あかつき公園","province":"東京都","city":"中央区","address":"東京都中央区築地7丁目19-1","lat":35.66666142,"lon":139.7758105},{"name":"区立堀留児童公園","province":"東京都","city":"中央区","address":"東京都中央区日本橋堀留町1丁目1-16","lat":35.68635386,"lon":139.77931298},{"name":"佃水門","province":"東京都","city":"中央区","address":"東京都中央区晴海1丁目1-26","lat":35.66197894,"lon":139.7876958},{"name":"朝潮水門（水防倉庫）","province":"東京都","city":"中央区","address":"東京都中央区勝どき6丁目3","lat":35.65549314,"lon":139.77306391},{"name":"築地川水門","province":"東京都","city":"中央区","address":"東京都中央区浜離宮庭園1-1","lat":35.66256987,"lon":139.76322283},{"name":"浜離宮排水機場","province":"東京都","city":"中央区","address":"東京都中央区浜離宮庭園1-1","lat":35.66256987,"lon":139.76322283},{"name":"汐留川水門","province":"東京都","city":"中央区","address":"東京都中央区浜離宮庭園1-1","lat":35.66256987,"lon":139.76322283},{"name":"１中央清掃工場","province":"東京都","city":"中央区","address":"東京都中央区晴海5丁目2-1","lat":35.65238522,"lon":139.77588597},{"name":"中央区地域包括支援センター","province":"東京都","city":"中央区","address":"中央区築地1-1-1区役所4階","lat":35.670841,"lon":139.771927},{"name":"京橋おとしより相談センター","province":"東京都","city":"中央区","address":"中央区明石町1-6リハポート明石等複合施設1階","lat":35.669617,"lon":139.776657},{"name":"日本橋おとしより相談センター","province":"東京都","city":"中央区","address":"中央区日本橋小伝馬町5-1十思スクエア1階","lat":35.691414,"lon":139.777466},{"name":"人形町おとしより相談センター（日本橋おとしより相談センターの分室）","province":"東京都","city":"中央区","address":"中央区日本橋人形町2-32-4日本橋医師会人形町ビル1階","lat":35.682903,"lon":139.775345},{"name":"月島おとしより相談センター","province":"東京都","city":"中央区","address":"中央区月島4-1-1月島区民センター1階","lat":43.062607,"lon":141.655518},{"name":"勝どきおとしより相談センター（月島おとしより相談センター分室）","province":"東京都","city":"中央区","address":"中央区勝どき5-1-17勝どきザ・リバーフロント1階","lat":35.661423,"lon":139.776581},{"name":"室町二丁目","province":"東京都","city":"中央区","address":"東京都中央区日本橋室町1丁目5-5","lat":35.68619816,"lon":139.77438807},{"name":"本町二丁目","province":"東京都","city":"中央区","address":"東京都中央区日本橋本町2丁目5-1","lat":35.68734532,"lon":139.7762047},{"name":"京橋一丁目","province":"東京都","city":"中央区","address":"東京都中央区日本橋3丁目12-2","lat":35.67858507,"lon":139.7743713},{"name":"鍛冶橋","province":"東京都","city":"中央区","address":"東京都中央区八重洲2丁目8-21","lat":35.67695173,"lon":139.7671775},{"name":"室町二丁目第二","province":"東京都","city":"中央区","address":"東京都中央区日本橋室町2丁目4-3","lat":35.68745634,"lon":139.77387974},{"name":"浜町中の橋","province":"東京都","city":"中央区","address":"東京都中央区日本橋浜町2丁目23-7","lat":35.68567645,"lon":139.78778543},{"name":"人形町","province":"東京都","city":"中央区","address":"東京都中央区日本橋人形町3丁目7-13","lat":35.68632617,"lon":139.78191571},{"name":"日本橋支所前","province":"東京都","city":"中央区","address":"東京都中央区日本橋蛎殻町2丁目2-4","lat":35.68279609,"lon":139.78566821},{"name":"東日本橋三丁目","province":"東京都","city":"中央区","address":"東京都中央区東日本橋3丁目8-2","lat":35.69135901,"lon":139.78379343},{"name":"箱崎町","province":"東京都","city":"中央区","address":"東京都中央区日本橋箱崎町41-13","lat":35.68119908,"lon":139.78695424},{"name":"ターミナルビル前","province":"東京都","city":"中央区","address":"東京都中央区日本橋蛎殻町1丁目35-5","lat":35.68174621,"lon":139.78603201},{"name":"隅田川大橋北詰","province":"東京都","city":"中央区","address":"東京都中央区日本橋箱崎町25-9","lat":35.68040193,"lon":139.78695136},{"name":"鎧橋東詰","province":"東京都","city":"中央区","address":"東京都中央区日本橋小網町7-2","lat":35.68210712,"lon":139.78100152},{"name":"築地四丁目","province":"東京都","city":"中央区","address":"東京都中央区築地3丁目16-12","lat":35.66649186,"lon":139.7709998},{"name":"数寄屋橋","province":"東京都","city":"中央区","address":"東京都中央区銀座4丁目1-2","lat":35.67281041,"lon":139.76328075},{"name":"入船橋","province":"東京都","city":"中央区","address":"東京都中央区新富2丁目14-6","lat":35.67041376,"lon":139.77486875},{"name":"土橋","province":"東京都","city":"中央区","address":"東京都中央区銀座8丁目3-7","lat":35.66870796,"lon":139.75892294},{"name":"聖路加病院前","province":"東京都","city":"中央区","address":"東京都中央区明石町12-1","lat":35.66657812,"lon":139.77679376},{"name":"築地警察署前","province":"東京都","city":"中央区","address":"東京都中央区築地1丁目6","lat":35.67027478,"lon":139.77131348},{"name":"築地暁橋","province":"東京都","city":"中央区","address":"東京都中央区明石町11-15","lat":35.66711412,"lon":139.77481056},{"name":"聖路加ガーデン前","province":"東京都","city":"中央区","address":"東京都中央区明石町13-1","lat":35.66615041,"lon":139.77768536},{"name":"明石小学校前","province":"東京都","city":"中央区","address":"東京都中央区明石町9-1","lat":35.66741137,"lon":139.77705481},{"name":"月島三丁目","province":"東京都","city":"中央区","address":"東京都中央区月島1丁目27-9","lat":35.66316198,"lon":139.78207955},{"name":"勝どき駅前","province":"東京都","city":"中央区","address":"東京都中央区勝どき1丁目7-1","lat":35.65987332,"lon":139.77761338},{"name":"初見橋","province":"東京都","city":"中央区","address":"東京都中央区佃2丁目17-8","lat":35.664723,"lon":139.7848487},{"name":"新月橋","province":"東京都","city":"中央区","address":"東京都中央区月島1丁目2-9","lat":35.66522013,"lon":139.78346268},{"name":"月島出張所前","province":"東京都","city":"中央区","address":"東京都中央区月島3丁目12-5","lat":35.66231205,"lon":139.78151296},{"name":"晴海二丁目","province":"東京都","city":"中央区","address":"東京都中央区晴海1丁目8-10","lat":35.65637941,"lon":139.78234084},{"name":"晴月橋南","province":"東京都","city":"中央区","address":"東京都中央区晴海1丁目6","lat":35.65872641,"lon":139.78401006},{"name":"佃二丁目北","province":"東京都","city":"中央区","address":"東京都中央区佃2丁目11","lat":35.66661448,"lon":139.78540973},{"name":"晴海給水所","province":"東京都","city":"中央区","address":"東京都中央区晴海1丁目6-3","lat":35.65852366,"lon":139.78411284},{"name":"区立あかつき公園","province":"東京都","city":"中央区","address":"東京都中央区築地7丁目19-1","lat":35.66666142,"lon":139.7758105},{"name":"区立堀留児童公園","province":"東京都","city":"中央区","address":"東京都中央区日本橋堀留町1丁目1-16","lat":35.68635386,"lon":139.77931298},{"name":"佃水門","province":"東京都","city":"中央区","address":"東京都中央区晴海1丁目1-26","lat":35.66197894,"lon":139.7876958},{"name":"朝潮水門（水防倉庫）","province":"東京都","city":"中央区","address":"東京都中央区勝どき6丁目3","lat":35.65549314,"lon":139.77306391},{"name":"築地川水門","province":"東京都","city":"中央区","address":"東京都中央区浜離宮庭園1-1","lat":35.66256987,"lon":139.76322283},{"name":"浜離宮排水機場","province":"東京都","city":"中央区","address":"東京都中央区浜離宮庭園1-1","lat":35.66256987,"lon":139.76322283},{"name":"汐留川水門","province":"東京都","city":"中央区","address":"東京都中央区浜離宮庭園1-1","lat":35.66256987,"lon":139.76322283},{"name":"１中央清掃工場","province":"東京都","city":"中央区","address":"東京都中央区晴海5丁目2-1","lat":35.65238522,"lon":139.77588597},{"name":"中央区地域包括支援センター","province":"東京都","city":"中央区","address":"中央区築地1-1-1区役所4階","lat":35.670841,"lon":139.771927},{"name":"京橋おとしより相談センター","province":"東京都","city":"中央区","address":"中央区明石町1-6リハポート明石等複合施設1階","lat":35.669617,"lon":139.776657},{"name":"日本橋おとしより相談センター","province":"東京都","city":"中央区","address":"中央区日本橋小伝馬町5-1十思スクエア1階","lat":35.691414,"lon":139.777466},{"name":"人形町おとしより相談センター（日本橋おとしより相談センターの分室）","province":"東京都","city":"中央区","address":"中央区日本橋人形町2-32-4日本橋医師会人形町ビル1階","lat":35.682903,"lon":139.775345},{"name":"月島おとしより相談センター","province":"東京都","city":"中央区","address":"中央区月島4-1-1月島区民センター1階","lat":43.062607,"lon":141.655518},{"name":"勝どきおとしより相談センター（月島おとしより相談センター分室）","province":"東京都","city":"中央区","address":"中央区勝どき5-1-17勝どきザ・リバーフロント1階","lat":35.661423,"lon":139.776581},{"name":"室町二丁目","province":"東京都","city":"中央区","address":"東京都中央区日本橋室町1丁目5-5","lat":35.68619816,"lon":139.77438807},{"name":"本町二丁目","province":"東京都","city":"中央区","address":"東京都中央区日本橋本町2丁目5-1","lat":35.68734532,"lon":139.7762047},{"name":"京橋一丁目","province":"東京都","city":"中央区","address":"東京都中央区日本橋3丁目12-2","lat":35.67858507,"lon":139.7743713},{"name":"鍛冶橋","province":"東京都","city":"中央区","address":"東京都中央区八重洲2丁目8-21","lat":35.67695173,"lon":139.7671775},{"name":"室町二丁目第二","province":"東京都","city":"中央区","address":"東京都中央区日本橋室町2丁目4-3","lat":35.68745634,"lon":139.77387974},{"name":"浜町中の橋","province":"東京都","city":"中央区","address":"東京都中央区日本橋浜町2丁目23-7","lat":35.68567645,"lon":139.78778543},{"name":"人形町","province":"東京都","city":"中央区","address":"東京都中央区日本橋人形町3丁目7-13","lat":35.68632617,"lon":139.78191571},{"name":"日本橋支所前","province":"東京都","city":"中央区","address":"東京都中央区日本橋蛎殻町2丁目2-4","lat":35.68279609,"lon":139.78566821},{"name":"東日本橋三丁目","province":"東京都","city":"中央区","address":"東京都中央区東日本橋3丁目8-2","lat":35.69135901,"lon":139.78379343},{"name":"箱崎町","province":"東京都","city":"中央区","address":"東京都中央区日本橋箱崎町41-13","lat":35.68119908,"lon":139.78695424},{"name":"ターミナルビル前","province":"東京都","city":"中央区","address":"東京都中央区日本橋蛎殻町1丁目35-5","lat":35.68174621,"lon":139.78603201},{"name":"隅田川大橋北詰","province":"東京都","city":"中央区","address":"東京都中央区日本橋箱崎町25-9","lat":35.68040193,"lon":139.78695136},{"name":"鎧橋東詰","province":"東京都","city":"中央区","address":"東京都中央区日本橋小網町7-2","lat":35.68210712,"lon":139.78100152},{"name":"築地四丁目","province":"東京都","city":"中央区","address":"東京都中央区築地3丁目16-12","lat":35.66649186,"lon":139.7709998},{"name":"数寄屋橋","province":"東京都","city":"中央区","address":"東京都中央区銀座4丁目1-2","lat":35.67281041,"lon":139.76328075},{"name":"入船橋","province":"東京都","city":"中央区","address":"東京都中央区新富2丁目14-6","lat":35.67041376,"lon":139.77486875},{"name":"土橋","province":"東京都","city":"中央区","address":"東京都中央区銀座8丁目3-7","lat":35.66870796,"lon":139.75892294},{"name":"聖路加病院前","province":"東京都","city":"中央区","address":"東京都中央区明石町12-1","lat":35.66657812,"lon":139.77679376},{"name":"築地警察署前","province":"東京都","city":"中央区","address":"東京都中央区築地1丁目6","lat":35.67027478,"lon":139.77131348},{"name":"築地暁橋","province":"東京都","city":"中央区","address":"東京都中央区明石町11-15","lat":35.66711412,"lon":139.77481056},{"name":"聖路加ガーデン前","province":"東京都","city":"中央区","address":"東京都中央区明石町13-1","lat":35.66615041,"lon":139.77768536},{"name":"明石小学校前","province":"東京都","city":"中央区","address":"東京都中央区明石町9-1","lat":35.66741137,"lon":139.77705481},{"name":"月島三丁目","province":"東京都","city":"中央区","address":"東京都中央区月島1丁目27-9","lat":35.66316198,"lon":139.78207955},{"name":"勝どき駅前","province":"東京都","city":"中央区","address":"東京都中央区勝どき1丁目7-1","lat":35.65987332,"lon":139.77761338},{"name":"初見橋","province":"東京都","city":"中央区","address":"東京都中央区佃2丁目17-8","lat":35.664723,"lon":139.7848487},{"name":"新月橋","province":"東京都","city":"中央区","address":"東京都中央区月島1丁目2-9","lat":35.66522013,"lon":139.78346268},{"name":"月島出張所前","province":"東京都","city":"中央区","address":"東京都中央区月島3丁目12-5","lat":35.66231205,"lon":139.78151296},{"name":"晴海二丁目","province":"東京都","city":"中央区","address":"東京都中央区晴海1丁目8-10","lat":35.65637941,"lon":139.78234084},{"name":"晴月橋南","province":"東京都","city":"中央区","address":"東京都中央区晴海1丁目6","lat":35.65872641,"lon":139.78401006},{"name":"佃二丁目北","province":"東京都","city":"中央区","address":"東京都中央区佃2丁目11","lat":35.66661448,"lon":139.78540973},{"name":"晴海給水所","province":"東京都","city":"中央区","address":"東京都中央区晴海1丁目6-3","lat":35.65852366,"lon":139.78411284},{"name":"区立あかつき公園","province":"東京都","city":"中央区","address":"東京都中央区築地7丁目19-1","lat":35.66666142,"lon":139.7758105},{"name":"区立堀留児童公園","province":"東京都","city":"中央区","address":"東京都中央区日本橋堀留町1丁目1-16","lat":35.68635386,"lon":139.77931298},{"name":"佃水門","province":"東京都","city":"中央区","address":"東京都中央区晴海1丁目1-26","lat":35.66197894,"lon":139.7876958},{"name":"朝潮水門（水防倉庫）","province":"東京都","city":"中央区","address":"東京都中央区勝どき6丁目3","lat":35.65549314,"lon":139.77306391},{"name":"築地川水門","province":"東京都","city":"中央区","address":"東京都中央区浜離宮庭園1-1","lat":35.66256987,"lon":139.76322283},{"name":"浜離宮排水機場","province":"東京都","city":"中央区","address":"東京都中央区浜離宮庭園1-1","lat":35.66256987,"lon":139.76322283},{"name":"汐留川水門","province":"東京都","city":"中央区","address":"東京都中央区浜離宮庭園1-1","lat":35.66256987,"lon":139.76322283},{"name":"１中央清掃工場","province":"東京都","city":"中央区","address":"東京都中央区晴海5丁目2-1","lat":35.65238522,"lon":139.77588597},{"name":"中央区地域包括支援センター","province":"東京都","city":"中央区","address":"中央区築地1-1-1区役所4階","lat":35.670841,"lon":139.771927},{"name":"京橋おとしより相談センター","province":"東京都","city":"中央区","address":"中央区明石町1-6リハポート明石等複合施設1階","lat":35.669617,"lon":139.776657},{"name":"日本橋おとしより相談センター","province":"東京都","city":"中央区","address":"中央区日本橋小伝馬町5-1十思スクエア1階","lat":35.691414,"lon":139.777466},{"name":"人形町おとしより相談センター（日本橋おとしより相談センターの分室）","province":"東京都","city":"中央区","address":"中央区日本橋人形町2-32-4日本橋医師会人形町ビル1階","lat":35.682903,"lon":139.775345},{"name":"月島おとしより相談センター","province":"東京都","city":"中央区","address":"中央区月島4-1-1月島区民センター1階","lat":43.062607,"lon":141.655518},{"name":"勝どきおとしより相談センター（月島おとしより相談センター分室）","province":"東京都","city":"中央区","address":"中央区勝どき5-1-17勝どきザ・リバーフロント1階","lat":35.661423,"lon":139.776581},{"name":"室町二丁目","province":"東京都","city":"中央区","address":"東京都中央区日本橋室町1丁目5-5","lat":35.68619816,"lon":139.77438807},{"name":"本町二丁目","province":"東京都","city":"中央区","address":"東京都中央区日本橋本町2丁目5-1","lat":35.68734532,"lon":139.7762047},{"name":"京橋一丁目","province":"東京都","city":"中央区","address":"東京都中央区日本橋3丁目12-2","lat":35.67858507,"lon":139.7743713},{"name":"鍛冶橋","province":"東京都","city":"中央区","address":"東京都中央区八重洲2丁目8-21","lat":35.67695173,"lon":139.7671775},{"name":"室町二丁目第二","province":"東京都","city":"中央区","address":"東京都中央区日本橋室町2丁目4-3","lat":35.68745634,"lon":139.77387974},{"name":"浜町中の橋","province":"東京都","city":"中央区","address":"東京都中央区日本橋浜町2丁目23-7","lat":35.68567645,"lon":139.78778543},{"name":"人形町","province":"東京都","city":"中央区","address":"東京都中央区日本橋人形町3丁目7-13","lat":35.68632617,"lon":139.78191571},{"name":"日本橋支所前","province":"東京都","city":"中央区","address":"東京都中央区日本橋蛎殻町2丁目2-4","lat":35.68279609,"lon":139.78566821},{"name":"東日本橋三丁目","province":"東京都","city":"中央区","address":"東京都中央区東日本橋3丁目8-2","lat":35.69135901,"lon":139.78379343},{"name":"箱崎町","province":"東京都","city":"中央区","address":"東京都中央区日本橋箱崎町41-13","lat":35.68119908,"lon":139.78695424},{"name":"ターミナルビル前","province":"東京都","city":"中央区","address":"東京都中央区日本橋蛎殻町1丁目35-5","lat":35.68174621,"lon":139.78603201},{"name":"隅田川大橋北詰","province":"東京都","city":"中央区","address":"東京都中央区日本橋箱崎町25-9","lat":35.68040193,"lon":139.78695136},{"name":"鎧橋東詰","province":"東京都","city":"中央区","address":"東京都中央区日本橋小網町7-2","lat":35.68210712,"lon":139.78100152},{"name":"築地四丁目","province":"東京都","city":"中央区","address":"東京都中央区築地3丁目16-12","lat":35.66649186,"lon":139.7709998},{"name":"数寄屋橋","province":"東京都","city":"中央区","address":"東京都中央区銀座4丁目1-2","lat":35.67281041,"lon":139.76328075},{"name":"入船橋","province":"東京都","city":"中央区","address":"東京都中央区新富2丁目14-6","lat":35.67041376,"lon":139.77486875},{"name":"土橋","province":"東京都","city":"中央区","address":"東京都中央区銀座8丁目3-7","lat":35.66870796,"lon":139.75892294},{"name":"聖路加病院前","province":"東京都","city":"中央区","address":"東京都中央区明石町12-1","lat":35.66657812,"lon":139.77679376},{"name":"築地警察署前","province":"東京都","city":"中央区","address":"東京都中央区築地1丁目6","lat":35.67027478,"lon":139.77131348},{"name":"築地暁橋","province":"東京都","city":"中央区","address":"東京都中央区明石町11-15","lat":35.66711412,"lon":139.77481056},{"name":"聖路加ガーデン前","province":"東京都","city":"中央区","address":"東京都中央区明石町13-1","lat":35.66615041,"lon":139.77768536},{"name":"明石小学校前","province":"東京都","city":"中央区","address":"東京都中央区明石町9-1","lat":35.66741137,"lon":139.77705481},{"name":"月島三丁目","province":"東京都","city":"中央区","address":"東京都中央区月島1丁目27-9","lat":35.66316198,"lon":139.78207955},{"name":"勝どき駅前","province":"東京都","city":"中央区","address":"東京都中央区勝どき1丁目7-1","lat":35.65987332,"lon":139.77761338},{"name":"初見橋","province":"東京都","city":"中央区","address":"東京都中央区佃2丁目17-8","lat":35.664723,"lon":139.7848487},{"name":"新月橋","province":"東京都","city":"中央区","address":"東京都中央区月島1丁目2-9","lat":35.66522013,"lon":139.78346268},{"name":"月島出張所前","province":"東京都","city":"中央区","address":"東京都中央区月島3丁目12-5","lat":35.66231205,"lon":139.78151296},{"name":"晴海二丁目","province":"東京都","city":"中央区","address":"東京都中央区晴海1丁目8-10","lat":35.65637941,"lon":139.78234084},{"name":"晴月橋南","province":"東京都","city":"中央区","address":"東京都中央区晴海1丁目6","lat":35.65872641,"lon":139.78401006},{"name":"佃二丁目北","province":"東京都","city":"中央区","address":"東京都中央区佃2丁目11","lat":35.66661448,"lon":139.78540973},{"name":"晴海給水所","province":"東京都","city":"中央区","address":"東京都中央区晴海1丁目6-3","lat":35.65852366,"lon":139.78411284},{"name":"区立あかつき公園","province":"東京都","city":"中央区","address":"東京都中央区築地7丁目19-1","lat":35.66666142,"lon":139.7758105},{"name":"区立堀留児童公園","province":"東京都","city":"中央区","address":"東京都中央区日本橋堀留町1丁目1-16","lat":35.68635386,"lon":139.77931298},{"name":"佃水門","province":"東京都","city":"中央区","address":"東京都中央区晴海1丁目1-26","lat":35.66197894,"lon":139.7876958},{"name":"朝潮水門（水防倉庫）","province":"東京都","city":"中央区","address":"東京都中央区勝どき6丁目3","lat":35.65549314,"lon":139.77306391},{"name":"築地川水門","province":"東京都","city":"中央区","address":"東京都中央区浜離宮庭園1-1","lat":35.66256987,"lon":139.76322283},{"name":"浜離宮排水機場","province":"東京都","city":"中央区","address":"東京都中央区浜離宮庭園1-1","lat":35.66256987,"lon":139.76322283},{"name":"汐留川水門","province":"東京都","city":"中央区","address":"東京都中央区浜離宮庭園1-1","lat":35.66256987,"lon":139.76322283},{"name":"１中央清掃工場","province":"東京都","city":"中央区","address":"東京都中央区晴海5丁目2-1","lat":35.65238522,"lon":139.77588597},{"name":"中央区地域包括支援センター","province":"東京都","city":"中央区","address":"中央区築地1-1-1区役所4階","lat":35.670841,"lon":139.771927},{"name":"京橋おとしより相談センター","province":"東京都","city":"中央区","address":"中央区明石町1-6リハポート明石等複合施設1階","lat":35.669617,"lon":139.776657},{"name":"日本橋おとしより相談センター","province":"東京都","city":"中央区","address":"中央区日本橋小伝馬町5-1十思スクエア1階","lat":35.691414,"lon":139.777466},{"name":"人形町おとしより相談センター（日本橋おとしより相談センターの分室）","province":"東京都","city":"中央区","address":"中央区日本橋人形町2-32-4日本橋医師会人形町ビル1階","lat":35.682903,"lon":139.775345},{"name":"月島おとしより相談センター","province":"東京都","city":"中央区","address":"中央区月島4-1-1月島区民センター1階","lat":43.062607,"lon":141.655518},{"name":"勝どきおとしより相談センター（月島おとしより相談センター分室）","province":"東京都","city":"中央区","address":"中央区勝どき5-1-17勝どきザ・リバーフロント1階","lat":35.661423,"lon":139.776581},{"name":"室町二丁目","province":"東京都","city":"中央区","address":"東京都中央区日本橋室町1丁目5-5","lat":35.68619816,"lon":139.77438807},{"name":"本町二丁目","province":"東京都","city":"中央区","address":"東京都中央区日本橋本町2丁目5-1","lat":35.68734532,"lon":139.7762047},{"name":"京橋一丁目","province":"東京都","city":"中央区","address":"東京都中央区日本橋3丁目12-2","lat":35.67858507,"lon":139.7743713},{"name":"鍛冶橋","province":"東京都","city":"中央区","address":"東京都中央区八重洲2丁目8-21","lat":35.67695173,"lon":139.7671775},{"name":"室町二丁目第二","province":"東京都","city":"中央区","address":"東京都中央区日本橋室町2丁目4-3","lat":35.68745634,"lon":139.77387974},{"name":"浜町中の橋","province":"東京都","city":"中央区","address":"東京都中央区日本橋浜町2丁目23-7","lat":35.68567645,"lon":139.78778543},{"name":"人形町","province":"東京都","city":"中央区","address":"東京都中央区日本橋人形町3丁目7-13","lat":35.68632617,"lon":139.78191571},{"name":"日本橋支所前","province":"東京都","city":"中央区","address":"東京都中央区日本橋蛎殻町2丁目2-4","lat":35.68279609,"lon":139.78566821},{"name":"東日本橋三丁目","province":"東京都","city":"中央区","address":"東京都中央区東日本橋3丁目8-2","lat":35.69135901,"lon":139.78379343},{"name":"箱崎町","province":"東京都","city":"中央区","address":"東京都中央区日本橋箱崎町41-13","lat":35.68119908,"lon":139.78695424},{"name":"ターミナルビル前","province":"東京都","city":"中央区","address":"東京都中央区日本橋蛎殻町1丁目35-5","lat":35.68174621,"lon":139.78603201},{"name":"隅田川大橋北詰","province":"東京都","city":"中央区","address":"東京都中央区日本橋箱崎町25-9","lat":35.68040193,"lon":139.78695136},{"name":"鎧橋東詰","province":"東京都","city":"中央区","address":"東京都中央区日本橋小網町7-2","lat":35.68210712,"lon":139.78100152},{"name":"築地四丁目","province":"東京都","city":"中央区","address":"東京都中央区築地3丁目16-12","lat":35.66649186,"lon":139.7709998},{"name":"数寄屋橋","province":"東京都","city":"中央区","address":"東京都中央区銀座4丁目1-2","lat":35.67281041,"lon":139.76328075},{"name":"入船橋","province":"東京都","city":"中央区","address":"東京都中央区新富2丁目14-6","lat":35.67041376,"lon":139.77486875},{"name":"土橋","province":"東京都","city":"中央区","address":"東京都中央区銀座8丁目3-7","lat":35.66870796,"lon":139.75892294},{"name":"聖路加病院前","province":"東京都","city":"中央区","address":"東京都中央区明石町12-1","lat":35.66657812,"lon":139.77679376},{"name":"築地警察署前","province":"東京都","city":"中央区","address":"東京都中央区築地1丁目6","lat":35.67027478,"lon":139.77131348},{"name":"築地暁橋","province":"東京都","city":"中央区","address":"東京都中央区明石町11-15","lat":35.66711412,"lon":139.77481056},{"name":"聖路加ガーデン前","province":"東京都","city":"中央区","address":"東京都中央区明石町13-1","lat":35.66615041,"lon":139.77768536},{"name":"明石小学校前","province":"東京都","city":"中央区","address":"東京都中央区明石町9-1","lat":35.66741137,"lon":139.77705481},{"name":"月島三丁目","province":"東京都","city":"中央区","address":"東京都中央区月島1丁目27-9","lat":35.66316198,"lon":139.78207955},{"name":"勝どき駅前","province":"東京都","city":"中央区","address":"東京都中央区勝どき1丁目7-1","lat":35.65987332,"lon":139.77761338},{"name":"初見橋","province":"東京都","city":"中央区","address":"東京都中央区佃2丁目17-8","lat":35.664723,"lon":139.7848487},{"name":"新月橋","province":"東京都","city":"中央区","address":"東京都中央区月島1丁目2-9","lat":35.66522013,"lon":139.78346268},{"name":"月島出張所前","province":"東京都","city":"中央区","address":"東京都中央区月島3丁目12-5","lat":35.66231205,"lon":139.78151296},{"name":"晴海二丁目","province":"東京都","city":"中央区","address":"東京都中央区晴海1丁目8-10","lat":35.65637941,"lon":139.78234084},{"name":"晴月橋南","province":"東京都","city":"中央区","address":"東京都中央区晴海1丁目6","lat":35.65872641,"lon":139.78401006},{"name":"佃二丁目北","province":"東京都","city":"中央区","address":"東京都中央区佃2丁目11","lat":35.66661448,"lon":139.78540973},{"name":"晴海給水所","province":"東京都","city":"中央区","address":"東京都中央区晴海1丁目6-3","lat":35.65852366,"lon":139.78411284},{"name":"区立あかつき公園","province":"東京都","city":"中央区","address":"東京都中央区築地7丁目19-1","lat":35.66666142,"lon":139.7758105},{"name":"区立堀留児童公園","province":"東京都","city":"中央区","address":"東京都中央区日本橋堀留町1丁目1-16","lat":35.68635386,"lon":139.77931298},{"name":"佃水門","province":"東京都","city":"中央区","address":"東京都中央区晴海1丁目1-26","lat":35.66197894,"lon":139.7876958},{"name":"朝潮水門（水防倉庫）","province":"東京都","city":"中央区","address":"東京都中央区勝どき6丁目3","lat":35.65549314,"lon":139.77306391},{"name":"築地川水門","province":"東京都","city":"中央区","address":"東京都中央区浜離宮庭園1-1","lat":35.66256987,"lon":139.76322283},{"name":"浜離宮排水機場","province":"東京都","city":"中央区","address":"東京都中央区浜離宮庭園1-1","lat":35.66256987,"lon":139.76322283},{"name":"汐留川水門","province":"東京都","city":"中央区","address":"東京都中央区浜離宮庭園1-1","lat":35.66256987,"lon":139.76322283},{"name":"１中央清掃工場","province":"東京都","city":"中央区","address":"東京都中央区晴海5丁目2-1","lat":35.65238522,"lon":139.77588597},{"name":"中央区地域包括支援センター","province":"東京都","city":"中央区","address":"中央区築地1-1-1区役所4階","lat":35.670841,"lon":139.771927},{"name":"京橋おとしより相談センター","province":"東京都","city":"中央区","address":"中央区明石町1-6リハポート明石等複合施設1階","lat":35.669617,"lon":139.776657},{"name":"日本橋おとしより相談センター","province":"東京都","city":"中央区","address":"中央区日本橋小伝馬町5-1十思スクエア1階","lat":35.691414,"lon":139.777466},{"name":"人形町おとしより相談センター（日本橋おとしより相談センターの分室）","province":"東京都","city":"中央区","address":"中央区日本橋人形町2-32-4日本橋医師会人形町ビル1階","lat":35.682903,"lon":139.775345},{"name":"月島おとしより相談センター","province":"東京都","city":"中央区","address":"中央区月島4-1-1月島区民センター1階","lat":43.062607,"lon":141.655518},{"name":"勝どきおとしより相談センター（月島おとしより相談センター分室）","province":"東京都","city":"中央区","address":"中央区勝どき5-1-17勝どきザ・リバーフロント1階","lat":35.661423,"lon":139.776581},{"name":"室町二丁目","province":"東京都","city":"中央区","address":"東京都中央区日本橋室町1丁目5-5","lat":35.68619816,"lon":139.77438807},{"name":"本町二丁目","province":"東京都","city":"中央区","address":"東京都中央区日本橋本町2丁目5-1","lat":35.68734532,"lon":139.7762047},{"name":"京橋一丁目","province":"東京都","city":"中央区","address":"東京都中央区日本橋3丁目12-2","lat":35.67858507,"lon":139.7743713},{"name":"鍛冶橋","province":"東京都","city":"中央区","address":"東京都中央区八重洲2丁目8-21","lat":35.67695173,"lon":139.7671775},{"name":"室町二丁目第二","province":"東京都","city":"中央区","address":"東京都中央区日本橋室町2丁目4-3","lat":35.68745634,"lon":139.77387974},{"name":"浜町中の橋","province":"東京都","city":"中央区","address":"東京都中央区日本橋浜町2丁目23-7","lat":35.68567645,"lon":139.78778543},{"name":"人形町","province":"東京都","city":"中央区","address":"東京都中央区日本橋人形町3丁目7-13","lat":35.68632617,"lon":139.78191571},{"name":"日本橋支所前","province":"東京都","city":"中央区","address":"東京都中央区日本橋蛎殻町2丁目2-4","lat":35.68279609,"lon":139.78566821},{"name":"東日本橋三丁目","province":"東京都","city":"中央区","address":"東京都中央区東日本橋3丁目8-2","lat":35.69135901,"lon":139.78379343},{"name":"箱崎町","province":"東京都","city":"中央区","address":"東京都中央区日本橋箱崎町41-13","lat":35.68119908,"lon":139.78695424},{"name":"ターミナルビル前","province":"東京都","city":"中央区","address":"東京都中央区日本橋蛎殻町1丁目35-5","lat":35.68174621,"lon":139.78603201},{"name":"隅田川大橋北詰","province":"東京都","city":"中央区","address":"東京都中央区日本橋箱崎町25-9","lat":35.68040193,"lon":139.78695136},{"name":"鎧橋東詰","province":"東京都","city":"中央区","address":"東京都中央区日本橋小網町7-2","lat":35.68210712,"lon":139.78100152},{"name":"築地四丁目","province":"東京都","city":"中央区","address":"東京都中央区築地3丁目16-12","lat":35.66649186,"lon":139.7709998},{"name":"数寄屋橋","province":"東京都","city":"中央区","address":"東京都中央区銀座4丁目1-2","lat":35.67281041,"lon":139.76328075},{"name":"入船橋","province":"東京都","city":"中央区","address":"東京都中央区新富2丁目14-6","lat":35.67041376,"lon":139.77486875},{"name":"土橋","province":"東京都","city":"中央区","address":"東京都中央区銀座8丁目3-7","lat":35.66870796,"lon":139.75892294},{"name":"聖路加病院前","province":"東京都","city":"中央区","address":"東京都中央区明石町12-1","lat":35.66657812,"lon":139.77679376},{"name":"築地警察署前","province":"東京都","city":"中央区","address":"東京都中央区築地1丁目6","lat":35.67027478,"lon":139.77131348},{"name":"築地暁橋","province":"東京都","city":"中央区","address":"東京都中央区明石町11-15","lat":35.66711412,"lon":139.77481056},{"name":"聖路加ガーデン前","province":"東京都","city":"中央区","address":"東京都中央区明石町13-1","lat":35.66615041,"lon":139.77768536},{"name":"明石小学校前","province":"東京都","city":"中央区","address":"東京都中央区明石町9-1","lat":35.66741137,"lon":139.77705481},{"name":"月島三丁目","province":"東京都","city":"中央区","address":"東京都中央区月島1丁目27-9","lat":35.66316198,"lon":139.78207955},{"name":"勝どき駅前","province":"東京都","city":"中央区","address":"東京都中央区勝どき1丁目7-1","lat":35.65987332,"lon":139.77761338},{"name":"初見橋","province":"東京都","city":"中央区","address":"東京都中央区佃2丁目17-8","lat":35.664723,"lon":139.7848487},{"name":"新月橋","province":"東京都","city":"中央区","address":"東京都中央区月島1丁目2-9","lat":35.66522013,"lon":139.78346268},{"name":"月島出張所前","province":"東京都","city":"中央区","address":"東京都中央区月島3丁目12-5","lat":35.66231205,"lon":139.78151296},{"name":"晴海二丁目","province":"東京都","city":"中央区","address":"東京都中央区晴海1丁目8-10","lat":35.65637941,"lon":139.78234084},{"name":"晴月橋南","province":"東京都","city":"中央区","address":"東京都中央区晴海1丁目6","lat":35.65872641,"lon":139.78401006},{"name":"佃二丁目北","province":"東京都","city":"中央区","address":"東京都中央区佃2丁目11","lat":35.66661448,"lon":139.78540973},{"name":"晴海給水所","province":"東京都","city":"中央区","address":"東京都中央区晴海1丁目6-3","lat":35.65852366,"lon":139.78411284},{"name":"区立あかつき公園","province":"東京都","city":"中央区","address":"東京都中央区築地7丁目19-1","lat":35.66666142,"lon":139.7758105},{"name":"区立堀留児童公園","province":"東京都","city":"中央区","address":"東京都中央区日本橋堀留町1丁目1-16","lat":35.68635386,"lon":139.77931298},{"name":"佃水門","province":"東京都","city":"中央区","address":"東京都中央区晴海1丁目1-26","lat":35.66197894,"lon":139.7876958},{"name":"朝潮水門（水防倉庫）","province":"東京都","city":"中央区","address":"東京都中央区勝どき6丁目3","lat":35.65549314,"lon":139.77306391},{"name":"築地川水門","province":"東京都","city":"中央区","address":"東京都中央区浜離宮庭園1-1","lat":35.66256987,"lon":139.76322283},{"name":"浜離宮排水機場","province":"東京都","city":"中央区","address":"東京都中央区浜離宮庭園1-1","lat":35.66256987,"lon":139.76322283},{"name":"汐留川水門","province":"東京都","city":"中央区","address":"東京都中央区浜離宮庭園1-1","lat":35.66256987,"lon":139.76322283},{"name":"１中央清掃工場","province":"東京都","city":"中央区","address":"東京都中央区晴海5丁目2-1","lat":35.65238522,"lon":139.77588597},{"name":"中央区地域包括支援センター","province":"東京都","city":"中央区","address":"中央区築地1-1-1区役所4階","lat":35.670841,"lon":139.771927},{"name":"京橋おとしより相談センター","province":"東京都","city":"中央区","address":"中央区明石町1-6リハポート明石等複合施設1階","lat":35.669617,"lon":139.776657},{"name":"日本橋おとしより相談センター","province":"東京都","city":"中央区","address":"中央区日本橋小伝馬町5-1十思スクエア1階","lat":35.691414,"lon":139.777466},{"name":"人形町おとしより相談センター（日本橋おとしより相談センターの分室）","province":"東京都","city":"中央区","address":"中央区日本橋人形町2-32-4日本橋医師会人形町ビル1階","lat":35.682903,"lon":139.775345},{"name":"月島おとしより相談センター","province":"東京都","city":"中央区","address":"中央区月島4-1-1月島区民センター1階","lat":43.062607,"lon":141.655518},{"name":"勝どきおとしより相談センター（月島おとしより相談センター分室）","province":"東京都","city":"中央区","address":"中央区勝どき5-1-17勝どきザ・リバーフロント1階","lat":35.661423,"lon":139.776581},{"name":"室町二丁目","province":"東京都","city":"中央区","address":"東京都中央区日本橋室町1丁目5-5","lat":35.68619816,"lon":139.77438807},{"name":"本町二丁目","province":"東京都","city":"中央区","address":"東京都中央区日本橋本町2丁目5-1","lat":35.68734532,"lon":139.7762047},{"name":"京橋一丁目","province":"東京都","city":"中央区","address":"東京都中央区日本橋3丁目12-2","lat":35.67858507,"lon":139.7743713},{"name":"鍛冶橋","province":"東京都","city":"中央区","address":"東京都中央区八重洲2丁目8-21","lat":35.67695173,"lon":139.7671775},{"name":"室町二丁目第二","province":"東京都","city":"中央区","address":"東京都中央区日本橋室町2丁目4-3","lat":35.68745634,"lon":139.77387974},{"name":"浜町中の橋","province":"東京都","city":"中央区","address":"東京都中央区日本橋浜町2丁目23-7","lat":35.68567645,"lon":139.78778543},{"name":"人形町","province":"東京都","city":"中央区","address":"東京都中央区日本橋人形町3丁目7-13","lat":35.68632617,"lon":139.78191571},{"name":"日本橋支所前","province":"東京都","city":"中央区","address":"東京都中央区日本橋蛎殻町2丁目2-4","lat":35.68279609,"lon":139.78566821},{"name":"東日本橋三丁目","province":"東京都","city":"中央区","address":"東京都中央区東日本橋3丁目8-2","lat":35.69135901,"lon":139.78379343},{"name":"箱崎町","province":"東京都","city":"中央区","address":"東京都中央区日本橋箱崎町41-13","lat":35.68119908,"lon":139.78695424},{"name":"ターミナルビル前","province":"東京都","city":"中央区","address":"東京都中央区日本橋蛎殻町1丁目35-5","lat":35.68174621,"lon":139.78603201},{"name":"隅田川大橋北詰","province":"東京都","city":"中央区","address":"東京都中央区日本橋箱崎町25-9","lat":35.68040193,"lon":139.78695136},{"name":"鎧橋東詰","province":"東京都","city":"中央区","address":"東京都中央区日本橋小網町7-2","lat":35.68210712,"lon":139.78100152},{"name":"築地四丁目","province":"東京都","city":"中央区","address":"東京都中央区築地3丁目16-12","lat":35.66649186,"lon":139.7709998},{"name":"数寄屋橋","province":"東京都","city":"中央区","address":"東京都中央区銀座4丁目1-2","lat":35.67281041,"lon":139.76328075},{"name":"入船橋","province":"東京都","city":"中央区","address":"東京都中央区新富2丁目14-6","lat":35.67041376,"lon":139.77486875},{"name":"土橋","province":"東京都","city":"中央区","address":"東京都中央区銀座8丁目3-7","lat":35.66870796,"lon":139.75892294},{"name":"聖路加病院前","province":"東京都","city":"中央区","address":"東京都中央区明石町12-1","lat":35.66657812,"lon":139.77679376},{"name":"築地警察署前","province":"東京都","city":"中央区","address":"東京都中央区築地1丁目6","lat":35.67027478,"lon":139.77131348},{"name":"築地暁橋","province":"東京都","city":"中央区","address":"東京都中央区明石町11-15","lat":35.66711412,"lon":139.77481056},{"name":"聖路加ガーデン前","province":"東京都","city":"中央区","address":"東京都中央区明石町13-1","lat":35.66615041,"lon":139.77768536},{"name":"明石小学校前","province":"東京都","city":"中央区","address":"東京都中央区明石町9-1","lat":35.66741137,"lon":139.77705481},{"name":"月島三丁目","province":"東京都","city":"中央区","address":"東京都中央区月島1丁目27-9","lat":35.66316198,"lon":139.78207955},{"name":"勝どき駅前","province":"東京都","city":"中央区","address":"東京都中央区勝どき1丁目7-1","lat":35.65987332,"lon":139.77761338},{"name":"初見橋","province":"東京都","city":"中央区","address":"東京都中央区佃2丁目17-8","lat":35.664723,"lon":139.7848487},{"name":"新月橋","province":"東京都","city":"中央区","address":"東京都中央区月島1丁目2-9","lat":35.66522013,"lon":139.78346268},{"name":"月島出張所前","province":"東京都","city":"中央区","address":"東京都中央区月島3丁目12-5","lat":35.66231205,"lon":139.78151296},{"name":"晴海二丁目","province":"東京都","city":"中央区","address":"東京都中央区晴海1丁目8-10","lat":35.65637941,"lon":139.78234084},{"name":"晴月橋南","province":"東京都","city":"中央区","address":"東京都中央区晴海1丁目6","lat":35.65872641,"lon":139.78401006},{"name":"佃二丁目北","province":"東京都","city":"中央区","address":"東京都中央区佃2丁目11","lat":35.66661448,"lon":139.78540973},{"name":"晴海給水所","province":"東京都","city":"中央区","address":"東京都中央区晴海1丁目6-3","lat":35.65852366,"lon":139.78411284},{"name":"区立あかつき公園","province":"東京都","city":"中央区","address":"東京都中央区築地7丁目19-1","lat":35.66666142,"lon":139.7758105},{"name":"区立堀留児童公園","province":"東京都","city":"中央区","address":"東京都中央区日本橋堀留町1丁目1-16","lat":35.68635386,"lon":139.77931298},{"name":"佃水門","province":"東京都","city":"中央区","address":"東京都中央区晴海1丁目1-26","lat":35.66197894,"lon":139.7876958},{"name":"朝潮水門（水防倉庫）","province":"東京都","city":"中央区","address":"東京都中央区勝どき6丁目3","lat":35.65549314,"lon":139.77306391},{"name":"築地川水門","province":"東京都","city":"中央区","address":"東京都中央区浜離宮庭園1-1","lat":35.66256987,"lon":139.76322283},{"name":"浜離宮排水機場","province":"東京都","city":"中央区","address":"東京都中央区浜離宮庭園1-1","lat":35.66256987,"lon":139.76322283},{"name":"汐留川水門","province":"東京都","city":"中央区","address":"東京都中央区浜離宮庭園1-1","lat":35.66256987,"lon":139.76322283},{"name":"１中央清掃工場","province":"東京都","city":"中央区","address":"東京都中央区晴海5丁目2-1","lat":35.65238522,"lon":139.77588597},{"name":"中央区地域包括支援センター","province":"東京都","city":"中央区","address":"中央区築地1-1-1区役所4階","lat":35.670841,"lon":139.771927},{"name":"京橋おとしより相談センター","province":"東京都","city":"中央区","address":"中央区明石町1-6リハポート明石等複合施設1階","lat":35.669617,"lon":139.776657},{"name":"日本橋おとしより相談センター","province":"東京都","city":"中央区","address":"中央区日本橋小伝馬町5-1十思スクエア1階","lat":35.691414,"lon":139.777466},{"name":"人形町おとしより相談センター（日本橋おとしより相談センターの分室）","province":"東京都","city":"中央区","address":"中央区日本橋人形町2-32-4日本橋医師会人形町ビル1階","lat":35.682903,"lon":139.775345},{"name":"月島おとしより相談センター","province":"東京都","city":"中央区","address":"中央区月島4-1-1月島区民センター1階","lat":43.062607,"lon":141.655518},{"name":"勝どきおとしより相談センター（月島おとしより相談センター分室）","province":"東京都","city":"中央区","address":"中央区勝どき5-1-17勝どきザ・リバーフロント1階","lat":35.661423,"lon":139.776581},{"name":"室町二丁目","province":"東京都","city":"中央区","address":"東京都中央区日本橋室町1丁目5-5","lat":35.68619816,"lon":139.77438807},{"name":"本町二丁目","province":"東京都","city":"中央区","address":"東京都中央区日本橋本町2丁目5-1","lat":35.68734532,"lon":139.7762047},{"name":"京橋一丁目","province":"東京都","city":"中央区","address":"東京都中央区日本橋3丁目12-2","lat":35.67858507,"lon":139.7743713},{"name":"鍛冶橋","province":"東京都","city":"中央区","address":"東京都中央区八重洲2丁目8-21","lat":35.67695173,"lon":139.7671775},{"name":"室町二丁目第二","province":"東京都","city":"中央区","address":"東京都中央区日本橋室町2丁目4-3","lat":35.68745634,"lon":139.77387974},{"name":"浜町中の橋","province":"東京都","city":"中央区","address":"東京都中央区日本橋浜町2丁目23-7","lat":35.68567645,"lon":139.78778543},{"name":"人形町","province":"東京都","city":"中央区","address":"東京都中央区日本橋人形町3丁目7-13","lat":35.68632617,"lon":139.78191571},{"name":"日本橋支所前","province":"東京都","city":"中央区","address":"東京都中央区日本橋蛎殻町2丁目2-4","lat":35.68279609,"lon":139.78566821},{"name":"東日本橋三丁目","province":"東京都","city":"中央区","address":"東京都中央区東日本橋3丁目8-2","lat":35.69135901,"lon":139.78379343},{"name":"箱崎町","province":"東京都","city":"中央区","address":"東京都中央区日本橋箱崎町41-13","lat":35.68119908,"lon":139.78695424},{"name":"ターミナルビル前","province":"東京都","city":"中央区","address":"東京都中央区日本橋蛎殻町1丁目35-5","lat":35.68174621,"lon":139.78603201},{"name":"隅田川大橋北詰","province":"東京都","city":"中央区","address":"東京都中央区日本橋箱崎町25-9","lat":35.68040193,"lon":139.78695136},{"name":"鎧橋東詰","province":"東京都","city":"中央区","address":"東京都中央区日本橋小網町7-2","lat":35.68210712,"lon":139.78100152},{"name":"築地四丁目","province":"東京都","city":"中央区","address":"東京都中央区築地3丁目16-12","lat":35.66649186,"lon":139.7709998},{"name":"数寄屋橋","province":"東京都","city":"中央区","address":"東京都中央区銀座4丁目1-2","lat":35.67281041,"lon":139.76328075},{"name":"入船橋","province":"東京都","city":"中央区","address":"東京都中央区新富2丁目14-6","lat":35.67041376,"lon":139.77486875},{"name":"土橋","province":"東京都","city":"中央区","address":"東京都中央区銀座8丁目3-7","lat":35.66870796,"lon":139.75892294},{"name":"聖路加病院前","province":"東京都","city":"中央区","address":"東京都中央区明石町12-1","lat":35.66657812,"lon":139.77679376},{"name":"築地警察署前","province":"東京都","city":"中央区","address":"東京都中央区築地1丁目6","lat":35.67027478,"lon":139.77131348},{"name":"築地暁橋","province":"東京都","city":"中央区","address":"東京都中央区明石町11-15","lat":35.66711412,"lon":139.77481056},{"name":"聖路加ガーデン前","province":"東京都","city":"中央区","address":"東京都中央区明石町13-1","lat":35.66615041,"lon":139.77768536},{"name":"明石小学校前","province":"東京都","city":"中央区","address":"東京都中央区明石町9-1","lat":35.66741137,"lon":139.77705481},{"name":"月島三丁目","province":"東京都","city":"中央区","address":"東京都中央区月島1丁目27-9","lat":35.66316198,"lon":139.78207955},{"name":"勝どき駅前","province":"東京都","city":"中央区","address":"東京都中央区勝どき1丁目7-1","lat":35.65987332,"lon":139.77761338},{"name":"初見橋","province":"東京都","city":"中央区","address":"東京都中央区佃2丁目17-8","lat":35.664723,"lon":139.7848487},{"name":"新月橋","province":"東京都","city":"中央区","address":"東京都中央区月島1丁目2-9","lat":35.66522013,"lon":139.78346268},{"name":"月島出張所前","province":"東京都","city":"中央区","address":"東京都中央区月島3丁目12-5","lat":35.66231205,"lon":139.78151296},{"name":"晴海二丁目","province":"東京都","city":"中央区","address":"東京都中央区晴海1丁目8-10","lat":35.65637941,"lon":139.78234084},{"name":"晴月橋南","province":"東京都","city":"中央区","address":"東京都中央区晴海1丁目6","lat":35.65872641,"lon":139.78401006},{"name":"佃二丁目北","province":"東京都","city":"中央区","address":"東京都中央区佃2丁目11","lat":35.66661448,"lon":139.78540973},{"name":"晴海給水所","province":"東京都","city":"中央区","address":"東京都中央区晴海1丁目6-3","lat":35.65852366,"lon":139.78411284},{"name":"区立あかつき公園","province":"東京都","city":"中央区","address":"東京都中央区築地7丁目19-1","lat":35.66666142,"lon":139.7758105},{"name":"区立堀留児童公園","province":"東京都","city":"中央区","address":"東京都中央区日本橋堀留町1丁目1-16","lat":35.68635386,"lon":139.77931298},{"name":"佃水門","province":"東京都","city":"中央区","address":"東京都中央区晴海1丁目1-26","lat":35.66197894,"lon":139.7876958},{"name":"朝潮水門（水防倉庫）","province":"東京都","city":"中央区","address":"東京都中央区勝どき6丁目3","lat":35.65549314,"lon":139.77306391},{"name":"築地川水門","province":"東京都","city":"中央区","address":"東京都中央区浜離宮庭園1-1","lat":35.66256987,"lon":139.76322283},{"name":"浜離宮排水機場","province":"東京都","city":"中央区","address":"東京都中央区浜離宮庭園1-1","lat":35.66256987,"lon":139.76322283},{"name":"汐留川水門","province":"東京都","city":"中央区","address":"東京都中央区浜離宮庭園1-1","lat":35.66256987,"lon":139.76322283},{"name":"１中央清掃工場","province":"東京都","city":"中央区","address":"東京都中央区晴海5丁目2-1","lat":35.65238522,"lon":139.77588597},{"name":"中央区地域包括支援センター","province":"東京都","city":"中央区","address":"中央区築地1-1-1区役所4階","lat":35.670841,"lon":139.771927},{"name":"京橋おとしより相談センター","province":"東京都","city":"中央区","address":"中央区明石町1-6リハポート明石等複合施設1階","lat":35.669617,"lon":139.776657},{"name":"日本橋おとしより相談センター","province":"東京都","city":"中央区","address":"中央区日本橋小伝馬町5-1十思スクエア1階","lat":35.691414,"lon":139.777466},{"name":"人形町おとしより相談センター（日本橋おとしより相談センターの分室）","province":"東京都","city":"中央区","address":"中央区日本橋人形町2-32-4日本橋医師会人形町ビル1階","lat":35.682903,"lon":139.775345},{"name":"月島おとしより相談センター","province":"東京都","city":"中央区","address":"中央区月島4-1-1月島区民センター1階","lat":43.062607,"lon":141.655518},{"name":"勝どきおとしより相談センター（月島おとしより相談センター分室）","province":"東京都","city":"中央区","address":"中央区勝どき5-1-17勝どきザ・リバーフロント1階","lat":35.661423,"lon":139.776581},{"name":"室町二丁目","province":"東京都","city":"中央区","address":"東京都中央区日本橋室町1丁目5-5","lat":35.68619816,"lon":139.77438807},{"name":"本町二丁目","province":"東京都","city":"中央区","address":"東京都中央区日本橋本町2丁目5-1","lat":35.68734532,"lon":139.7762047},{"name":"京橋一丁目","province":"東京都","city":"中央区","address":"東京都中央区日本橋3丁目12-2","lat":35.67858507,"lon":139.7743713},{"name":"鍛冶橋","province":"東京都","city":"中央区","address":"東京都中央区八重洲2丁目8-21","lat":35.67695173,"lon":139.7671775},{"name":"室町二丁目第二","province":"東京都","city":"中央区","address":"東京都中央区日本橋室町2丁目4-3","lat":35.68745634,"lon":139.77387974},{"name":"浜町中の橋","province":"東京都","city":"中央区","address":"東京都中央区日本橋浜町2丁目23-7","lat":35.68567645,"lon":139.78778543},{"name":"人形町","province":"東京都","city":"中央区","address":"東京都中央区日本橋人形町3丁目7-13","lat":35.68632617,"lon":139.78191571},{"name":"日本橋支所前","province":"東京都","city":"中央区","address":"東京都中央区日本橋蛎殻町2丁目2-4","lat":35.68279609,"lon":139.78566821},{"name":"東日本橋三丁目","province":"東京都","city":"中央区","address":"東京都中央区東日本橋3丁目8-2","lat":35.69135901,"lon":139.78379343},{"name":"箱崎町","province":"東京都","city":"中央区","address":"東京都中央区日本橋箱崎町41-13","lat":35.68119908,"lon":139.78695424},{"name":"ターミナルビル前","province":"東京都","city":"中央区","address":"東京都中央区日本橋蛎殻町1丁目35-5","lat":35.68174621,"lon":139.78603201},{"name":"隅田川大橋北詰","province":"東京都","city":"中央区","address":"東京都中央区日本橋箱崎町25-9","lat":35.68040193,"lon":139.78695136},{"name":"鎧橋東詰","province":"東京都","city":"中央区","address":"東京都中央区日本橋小網町7-2","lat":35.68210712,"lon":139.78100152},{"name":"築地四丁目","province":"東京都","city":"中央区","address":"東京都中央区築地3丁目16-12","lat":35.66649186,"lon":139.7709998},{"name":"数寄屋橋","province":"東京都","city":"中央区","address":"東京都中央区銀座4丁目1-2","lat":35.67281041,"lon":139.76328075},{"name":"入船橋","province":"東京都","city":"中央区","address":"東京都中央区新富2丁目14-6","lat":35.67041376,"lon":139.77486875},{"name":"土橋","province":"東京都","city":"中央区","address":"東京都中央区銀座8丁目3-7","lat":35.66870796,"lon":139.75892294},{"name":"聖路加病院前","province":"東京都","city":"中央区","address":"東京都中央区明石町12-1","lat":35.66657812,"lon":139.77679376},{"name":"築地警察署前","province":"東京都","city":"中央区","address":"東京都中央区築地1丁目6","lat":35.67027478,"lon":139.77131348},{"name":"築地暁橋","province":"東京都","city":"中央区","address":"東京都中央区明石町11-15","lat":35.66711412,"lon":139.77481056},{"name":"聖路加ガーデン前","province":"東京都","city":"中央区","address":"東京都中央区明石町13-1","lat":35.66615041,"lon":139.77768536},{"name":"明石小学校前","province":"東京都","city":"中央区","address":"東京都中央区明石町9-1","lat":35.66741137,"lon":139.77705481},{"name":"月島三丁目","province":"東京都","city":"中央区","address":"東京都中央区月島1丁目27-9","lat":35.66316198,"lon":139.78207955},{"name":"勝どき駅前","province":"東京都","city":"中央区","address":"東京都中央区勝どき1丁目7-1","lat":35.65987332,"lon":139.77761338},{"name":"初見橋","province":"東京都","city":"中央区","address":"東京都中央区佃2丁目17-8","lat":35.664723,"lon":139.7848487},{"name":"新月橋","province":"東京都","city":"中央区","address":"東京都中央区月島1丁目2-9","lat":35.66522013,"lon":139.78346268},{"name":"月島出張所前","province":"東京都","city":"中央区","address":"東京都中央区月島3丁目12-5","lat":35.66231205,"lon":139.78151296},{"name":"晴海二丁目","province":"東京都","city":"中央区","address":"東京都中央区晴海1丁目8-10","lat":35.65637941,"lon":139.78234084},{"name":"晴月橋南","province":"東京都","city":"中央区","address":"東京都中央区晴海1丁目6","lat":35.65872641,"lon":139.78401006},{"name":"佃二丁目北","province":"東京都","city":"中央区","address":"東京都中央区佃2丁目11","lat":35.66661448,"lon":139.78540973},{"name":"晴海給水所","province":"東京都","city":"中央区","address":"東京都中央区晴海1丁目6-3","lat":35.65852366,"lon":139.78411284},{"name":"区立あかつき公園","province":"東京都","city":"中央区","address":"東京都中央区築地7丁目19-1","lat":35.66666142,"lon":139.7758105},{"name":"区立堀留児童公園","province":"東京都","city":"中央区","address":"東京都中央区日本橋堀留町1丁目1-16","lat":35.68635386,"lon":139.77931298},{"name":"佃水門","province":"東京都","city":"中央区","address":"東京都中央区晴海1丁目1-26","lat":35.66197894,"lon":139.7876958},{"name":"朝潮水門（水防倉庫）","province":"東京都","city":"中央区","address":"東京都中央区勝どき6丁目3","lat":35.65549314,"lon":139.77306391},{"name":"築地川水門","province":"東京都","city":"中央区","address":"東京都中央区浜離宮庭園1-1","lat":35.66256987,"lon":139.76322283},{"name":"浜離宮排水機場","province":"東京都","city":"中央区","address":"東京都中央区浜離宮庭園1-1","lat":35.66256987,"lon":139.76322283},{"name":"汐留川水門","province":"東京都","city":"中央区","address":"東京都中央区浜離宮庭園1-1","lat":35.66256987,"lon":139.76322283},{"name":"１中央清掃工場","province":"東京都","city":"中央区","address":"東京都中央区晴海5丁目2-1","lat":35.65238522,"lon":139.77588597},{"name":"中央区地域包括支援センター","province":"東京都","city":"中央区","address":"中央区築地1-1-1区役所4階","lat":35.670841,"lon":139.771927},{"name":"京橋おとしより相談センター","province":"東京都","city":"中央区","address":"中央区明石町1-6リハポート明石等複合施設1階","lat":35.669617,"lon":139.776657},{"name":"日本橋おとしより相談センター","province":"東京都","city":"中央区","address":"中央区日本橋小伝馬町5-1十思スクエア1階","lat":35.691414,"lon":139.777466},{"name":"人形町おとしより相談センター（日本橋おとしより相談センターの分室）","province":"東京都","city":"中央区","address":"中央区日本橋人形町2-32-4日本橋医師会人形町ビル1階","lat":35.682903,"lon":139.775345},{"name":"月島おとしより相談センター","province":"東京都","city":"中央区","address":"中央区月島4-1-1月島区民センター1階","lat":43.062607,"lon":141.655518},{"name":"勝どきおとしより相談センター（月島おとしより相談センター分室）","province":"東京都","city":"中央区","address":"中央区勝どき5-1-17勝どきザ・リバーフロント1階","lat":35.661423,"lon":139.776581},{"name":"室町二丁目","province":"東京都","city":"中央区","address":"東京都中央区日本橋室町1丁目5-5","lat":35.68619816,"lon":139.77438807},{"name":"本町二丁目","province":"東京都","city":"中央区","address":"東京都中央区日本橋本町2丁目5-1","lat":35.68734532,"lon":139.7762047},{"name":"京橋一丁目","province":"東京都","city":"中央区","address":"東京都中央区日本橋3丁目12-2","lat":35.67858507,"lon":139.7743713},{"name":"鍛冶橋","province":"東京都","city":"中央区","address":"東京都中央区八重洲2丁目8-21","lat":35.67695173,"lon":139.7671775},{"name":"室町二丁目第二","province":"東京都","city":"中央区","address":"東京都中央区日本橋室町2丁目4-3","lat":35.68745634,"lon":139.77387974},{"name":"浜町中の橋","province":"東京都","city":"中央区","address":"東京都中央区日本橋浜町2丁目23-7","lat":35.68567645,"lon":139.78778543},{"name":"人形町","province":"東京都","city":"中央区","address":"東京都中央区日本橋人形町3丁目7-13","lat":35.68632617,"lon":139.78191571},{"name":"日本橋支所前","province":"東京都","city":"中央区","address":"東京都中央区日本橋蛎殻町2丁目2-4","lat":35.68279609,"lon":139.78566821},{"name":"東日本橋三丁目","province":"東京都","city":"中央区","address":"東京都中央区東日本橋3丁目8-2","lat":35.69135901,"lon":139.78379343},{"name":"箱崎町","province":"東京都","city":"中央区","address":"東京都中央区日本橋箱崎町41-13","lat":35.68119908,"lon":139.78695424},{"name":"ターミナルビル前","province":"東京都","city":"中央区","address":"東京都中央区日本橋蛎殻町1丁目35-5","lat":35.68174621,"lon":139.78603201},{"name":"隅田川大橋北詰","province":"東京都","city":"中央区","address":"東京都中央区日本橋箱崎町25-9","lat":35.68040193,"lon":139.78695136},{"name":"鎧橋東詰","province":"東京都","city":"中央区","address":"東京都中央区日本橋小網町7-2","lat":35.68210712,"lon":139.78100152},{"name":"築地四丁目","province":"東京都","city":"中央区","address":"東京都中央区築地3丁目16-12","lat":35.66649186,"lon":139.7709998},{"name":"数寄屋橋","province":"東京都","city":"中央区","address":"東京都中央区銀座4丁目1-2","lat":35.67281041,"lon":139.76328075},{"name":"入船橋","province":"東京都","city":"中央区","address":"東京都中央区新富2丁目14-6","lat":35.67041376,"lon":139.77486875},{"name":"土橋","province":"東京都","city":"中央区","address":"東京都中央区銀座8丁目3-7","lat":35.66870796,"lon":139.75892294},{"name":"聖路加病院前","province":"東京都","city":"中央区","address":"東京都中央区明石町12-1","lat":35.66657812,"lon":139.77679376},{"name":"築地警察署前","province":"東京都","city":"中央区","address":"東京都中央区築地1丁目6","lat":35.67027478,"lon":139.77131348},{"name":"築地暁橋","province":"東京都","city":"中央区","address":"東京都中央区明石町11-15","lat":35.66711412,"lon":139.77481056},{"name":"聖路加ガーデン前","province":"東京都","city":"中央区","address":"東京都中央区明石町13-1","lat":35.66615041,"lon":139.77768536},{"name":"明石小学校前","province":"東京都","city":"中央区","address":"東京都中央区明石町9-1","lat":35.66741137,"lon":139.77705481},{"name":"月島三丁目","province":"東京都","city":"中央区","address":"東京都中央区月島1丁目27-9","lat":35.66316198,"lon":139.78207955},{"name":"勝どき駅前","province":"東京都","city":"中央区","address":"東京都中央区勝どき1丁目7-1","lat":35.65987332,"lon":139.77761338},{"name":"初見橋","province":"東京都","city":"中央区","address":"東京都中央区佃2丁目17-8","lat":35.664723,"lon":139.7848487},{"name":"新月橋","province":"東京都","city":"中央区","address":"東京都中央区月島1丁目2-9","lat":35.66522013,"lon":139.78346268},{"name":"月島出張所前","province":"東京都","city":"中央区","address":"東京都中央区月島3丁目12-5","lat":35.66231205,"lon":139.78151296},{"name":"晴海二丁目","province":"東京都","city":"中央区","address":"東京都中央区晴海1丁目8-10","lat":35.65637941,"lon":139.78234084},{"name":"晴月橋南","province":"東京都","city":"中央区","address":"東京都中央区晴海1丁目6","lat":35.65872641,"lon":139.78401006},{"name":"佃二丁目北","province":"東京都","city":"中央区","address":"東京都中央区佃2丁目11","lat":35.66661448,"lon":139.78540973},{"name":"晴海給水所","province":"東京都","city":"中央区","address":"東京都中央区晴海1丁目6-3","lat":35.65852366,"lon":139.78411284},{"name":"区立あかつき公園","province":"東京都","city":"中央区","address":"東京都中央区築地7丁目19-1","lat":35.66666142,"lon":139.7758105},{"name":"区立堀留児童公園","province":"東京都","city":"中央区","address":"東京都中央区日本橋堀留町1丁目1-16","lat":35.68635386,"lon":139.77931298},{"name":"佃水門","province":"東京都","city":"中央区","address":"東京都中央区晴海1丁目1-26","lat":35.66197894,"lon":139.7876958},{"name":"朝潮水門（水防倉庫）","province":"東京都","city":"中央区","address":"東京都中央区勝どき6丁目3","lat":35.65549314,"lon":139.77306391},{"name":"築地川水門","province":"東京都","city":"中央区","address":"東京都中央区浜離宮庭園1-1","lat":35.66256987,"lon":139.76322283},{"name":"浜離宮排水機場","province":"東京都","city":"中央区","address":"東京都中央区浜離宮庭園1-1","lat":35.66256987,"lon":139.76322283},{"name":"汐留川水門","province":"東京都","city":"中央区","address":"東京都中央区浜離宮庭園1-1","lat":35.66256987,"lon":139.76322283},{"name":"１中央清掃工場","province":"東京都","city":"中央区","address":"東京都中央区晴海5丁目2-1","lat":35.65238522,"lon":139.77588597},{"name":"中央区地域包括支援センター","province":"東京都","city":"中央区","address":"中央区築地1-1-1区役所4階","lat":35.670841,"lon":139.771927},{"name":"京橋おとしより相談センター","province":"東京都","city":"中央区","address":"中央区明石町1-6リハポート明石等複合施設1階","lat":35.669617,"lon":139.776657},{"name":"日本橋おとしより相談センター","province":"東京都","city":"中央区","address":"中央区日本橋小伝馬町5-1十思スクエア1階","lat":35.691414,"lon":139.777466},{"name":"人形町おとしより相談センター（日本橋おとしより相談センターの分室）","province":"東京都","city":"中央区","address":"中央区日本橋人形町2-32-4日本橋医師会人形町ビル1階","lat":35.682903,"lon":139.775345},{"name":"月島おとしより相談センター","province":"東京都","city":"中央区","address":"中央区月島4-1-1月島区民センター1階","lat":43.062607,"lon":141.655518},{"name":"勝どきおとしより相談センター（月島おとしより相談センター分室）","province":"東京都","city":"中央区","address":"中央区勝どき5-1-17勝どきザ・リバーフロント1階","lat":35.661423,"lon":139.776581},{"name":"室町二丁目","province":"東京都","city":"中央区","address":"東京都中央区日本橋室町1丁目5-5","lat":35.68619816,"lon":139.77438807},{"name":"本町二丁目","province":"東京都","city":"中央区","address":"東京都中央区日本橋本町2丁目5-1","lat":35.68734532,"lon":139.7762047},{"name":"京橋一丁目","province":"東京都","city":"中央区","address":"東京都中央区日本橋3丁目12-2","lat":35.67858507,"lon":139.7743713},{"name":"鍛冶橋","province":"東京都","city":"中央区","address":"東京都中央区八重洲2丁目8-21","lat":35.67695173,"lon":139.7671775},{"name":"室町二丁目第二","province":"東京都","city":"中央区","address":"東京都中央区日本橋室町2丁目4-3","lat":35.68745634,"lon":139.77387974},{"name":"浜町中の橋","province":"東京都","city":"中央区","address":"東京都中央区日本橋浜町2丁目23-7","lat":35.68567645,"lon":139.78778543},{"name":"人形町","province":"東京都","city":"中央区","address":"東京都中央区日本橋人形町3丁目7-13","lat":35.68632617,"lon":139.78191571},{"name":"日本橋支所前","province":"東京都","city":"中央区","address":"東京都中央区日本橋蛎殻町2丁目2-4","lat":35.68279609,"lon":139.78566821},{"name":"東日本橋三丁目","province":"東京都","city":"中央区","address":"東京都中央区東日本橋3丁目8-2","lat":35.69135901,"lon":139.78379343},{"name":"箱崎町","province":"東京都","city":"中央区","address":"東京都中央区日本橋箱崎町41-13","lat":35.68119908,"lon":139.78695424},{"name":"ターミナルビル前","province":"東京都","city":"中央区","address":"東京都中央区日本橋蛎殻町1丁目35-5","lat":35.68174621,"lon":139.78603201},{"name":"隅田川大橋北詰","province":"東京都","city":"中央区","address":"東京都中央区日本橋箱崎町25-9","lat":35.68040193,"lon":139.78695136},{"name":"鎧橋東詰","province":"東京都","city":"中央区","address":"東京都中央区日本橋小網町7-2","lat":35.68210712,"lon":139.78100152},{"name":"築地四丁目","province":"東京都","city":"中央区","address":"東京都中央区築地3丁目16-12","lat":35.66649186,"lon":139.7709998},{"name":"数寄屋橋","province":"東京都","city":"中央区","address":"東京都中央区銀座4丁目1-2","lat":35.67281041,"lon":139.76328075},{"name":"入船橋","province":"東京都","city":"中央区","address":"東京都中央区新富2丁目14-6","lat":35.67041376,"lon":139.77486875},{"name":"土橋","province":"東京都","city":"中央区","address":"東京都中央区銀座8丁目3-7","lat":35.66870796,"lon":139.75892294},{"name":"聖路加病院前","province":"東京都","city":"中央区","address":"東京都中央区明石町12-1","lat":35.66657812,"lon":139.77679376},{"name":"築地警察署前","province":"東京都","city":"中央区","address":"東京都中央区築地1丁目6","lat":35.67027478,"lon":139.77131348},{"name":"築地暁橋","province":"東京都","city":"中央区","address":"東京都中央区明石町11-15","lat":35.66711412,"lon":139.77481056},{"name":"聖路加ガーデン前","province":"東京都","city":"中央区","address":"東京都中央区明石町13-1","lat":35.66615041,"lon":139.77768536},{"name":"明石小学校前","province":"東京都","city":"中央区","address":"東京都中央区明石町9-1","lat":35.66741137,"lon":139.77705481},{"name":"月島三丁目","province":"東京都","city":"中央区","address":"東京都中央区月島1丁目27-9","lat":35.66316198,"lon":139.78207955},{"name":"勝どき駅前","province":"東京都","city":"中央区","address":"東京都中央区勝どき1丁目7-1","lat":35.65987332,"lon":139.77761338},{"name":"初見橋","province":"東京都","city":"中央区","address":"東京都中央区佃2丁目17-8","lat":35.664723,"lon":139.7848487},{"name":"新月橋","province":"東京都","city":"中央区","address":"東京都中央区月島1丁目2-9","lat":35.66522013,"lon":139.78346268},{"name":"月島出張所前","province":"東京都","city":"中央区","address":"東京都中央区月島3丁目12-5","lat":35.66231205,"lon":139.78151296},{"name":"晴海二丁目","province":"東京都","city":"中央区","address":"東京都中央区晴海1丁目8-10","lat":35.65637941,"lon":139.78234084},{"name":"晴月橋南","province":"東京都","city":"中央区","address":"東京都中央区晴海1丁目6","lat":35.65872641,"lon":139.78401006},{"name":"佃二丁目北","province":"東京都","city":"中央区","address":"東京都中央区佃2丁目11","lat":35.66661448,"lon":139.78540973},{"name":"晴海給水所","province":"東京都","city":"中央区","address":"東京都中央区晴海1丁目6-3","lat":35.65852366,"lon":139.78411284},{"name":"区立あかつき公園","province":"東京都","city":"中央区","address":"東京都中央区築地7丁目19-1","lat":35.66666142,"lon":139.7758105},{"name":"区立堀留児童公園","province":"東京都","city":"中央区","address":"東京都中央区日本橋堀留町1丁目1-16","lat":35.68635386,"lon":139.77931298},{"name":"佃水門","province":"東京都","city":"中央区","address":"東京都中央区晴海1丁目1-26","lat":35.66197894,"lon":139.7876958},{"name":"朝潮水門（水防倉庫）","province":"東京都","city":"中央区","address":"東京都中央区勝どき6丁目3","lat":35.65549314,"lon":139.77306391},{"name":"築地川水門","province":"東京都","city":"中央区","address":"東京都中央区浜離宮庭園1-1","lat":35.66256987,"lon":139.76322283},{"name":"浜離宮排水機場","province":"東京都","city":"中央区","address":"東京都中央区浜離宮庭園1-1","lat":35.66256987,"lon":139.76322283},{"name":"汐留川水門","province":"東京都","city":"中央区","address":"東京都中央区浜離宮庭園1-1","lat":35.66256987,"lon":139.76322283},{"name":"１中央清掃工場","province":"東京都","city":"中央区","address":"東京都中央区晴海5丁目2-1","lat":35.65238522,"lon":139.77588597},{"name":"中央区地域包括支援センター","province":"東京都","city":"中央区","address":"中央区築地1-1-1区役所4階","lat":35.670841,"lon":139.771927},{"name":"京橋おとしより相談センター","province":"東京都","city":"中央区","address":"中央区明石町1-6リハポート明石等複合施設1階","lat":35.669617,"lon":139.776657},{"name":"日本橋おとしより相談センター","province":"東京都","city":"中央区","address":"中央区日本橋小伝馬町5-1十思スクエア1階","lat":35.691414,"lon":139.777466},{"name":"人形町おとしより相談センター（日本橋おとしより相談センターの分室）","province":"東京都","city":"中央区","address":"中央区日本橋人形町2-32-4日本橋医師会人形町ビル1階","lat":35.682903,"lon":139.775345},{"name":"月島おとしより相談センター","province":"東京都","city":"中央区","address":"中央区月島4-1-1月島区民センター1階","lat":43.062607,"lon":141.655518},{"name":"勝どきおとしより相談センター（月島おとしより相談センター分室）","province":"東京都","city":"中央区","address":"中央区勝どき5-1-17勝どきザ・リバーフロント1階","lat":35.661423,"lon":139.776581},{"name":"室町二丁目","province":"東京都","city":"中央区","address":"東京都中央区日本橋室町1丁目5-5","lat":35.68619816,"lon":139.77438807},{"name":"本町二丁目","province":"東京都","city":"中央区","address":"東京都中央区日本橋本町2丁目5-1","lat":35.68734532,"lon":139.7762047},{"name":"京橋一丁目","province":"東京都","city":"中央区","address":"東京都中央区日本橋3丁目12-2","lat":35.67858507,"lon":139.7743713},{"name":"鍛冶橋","province":"東京都","city":"中央区","address":"東京都中央区八重洲2丁目8-21","lat":35.67695173,"lon":139.7671775},{"name":"室町二丁目第二","province":"東京都","city":"中央区","address":"東京都中央区日本橋室町2丁目4-3","lat":35.68745634,"lon":139.77387974},{"name":"浜町中の橋","province":"東京都","city":"中央区","address":"東京都中央区日本橋浜町2丁目23-7","lat":35.68567645,"lon":139.78778543},{"name":"人形町","province":"東京都","city":"中央区","address":"東京都中央区日本橋人形町3丁目7-13","lat":35.68632617,"lon":139.78191571},{"name":"日本橋支所前","province":"東京都","city":"中央区","address":"東京都中央区日本橋蛎殻町2丁目2-4","lat":35.68279609,"lon":139.78566821},{"name":"東日本橋三丁目","province":"東京都","city":"中央区","address":"東京都中央区東日本橋3丁目8-2","lat":35.69135901,"lon":139.78379343},{"name":"箱崎町","province":"東京都","city":"中央区","address":"東京都中央区日本橋箱崎町41-13","lat":35.68119908,"lon":139.78695424},{"name":"ターミナルビル前","province":"東京都","city":"中央区","address":"東京都中央区日本橋蛎殻町1丁目35-5","lat":35.68174621,"lon":139.78603201},{"name":"隅田川大橋北詰","province":"東京都","city":"中央区","address":"東京都中央区日本橋箱崎町25-9","lat":35.68040193,"lon":139.78695136},{"name":"鎧橋東詰","province":"東京都","city":"中央区","address":"東京都中央区日本橋小網町7-2","lat":35.68210712,"lon":139.78100152},{"name":"築地四丁目","province":"東京都","city":"中央区","address":"東京都中央区築地3丁目16-12","lat":35.66649186,"lon":139.7709998},{"name":"数寄屋橋","province":"東京都","city":"中央区","address":"東京都中央区銀座4丁目1-2","lat":35.67281041,"lon":139.76328075},{"name":"入船橋","province":"東京都","city":"中央区","address":"東京都中央区新富2丁目14-6","lat":35.67041376,"lon":139.77486875},{"name":"土橋","province":"東京都","city":"中央区","address":"東京都中央区銀座8丁目3-7","lat":35.66870796,"lon":139.75892294},{"name":"聖路加病院前","province":"東京都","city":"中央区","address":"東京都中央区明石町12-1","lat":35.66657812,"lon":139.77679376},{"name":"築地警察署前","province":"東京都","city":"中央区","address":"東京都中央区築地1丁目6","lat":35.67027478,"lon":139.77131348},{"name":"築地暁橋","province":"東京都","city":"中央区","address":"東京都中央区明石町11-15","lat":35.66711412,"lon":139.77481056},{"name":"聖路加ガーデン前","province":"東京都","city":"中央区","address":"東京都中央区明石町13-1","lat":35.66615041,"lon":139.77768536},{"name":"明石小学校前","province":"東京都","city":"中央区","address":"東京都中央区明石町9-1","lat":35.66741137,"lon":139.77705481},{"name":"月島三丁目","province":"東京都","city":"中央区","address":"東京都中央区月島1丁目27-9","lat":35.66316198,"lon":139.78207955},{"name":"勝どき駅前","province":"東京都","city":"中央区","address":"東京都中央区勝どき1丁目7-1","lat":35.65987332,"lon":139.77761338},{"name":"初見橋","province":"東京都","city":"中央区","address":"東京都中央区佃2丁目17-8","lat":35.664723,"lon":139.7848487},{"name":"新月橋","province":"東京都","city":"中央区","address":"東京都中央区月島1丁目2-9","lat":35.66522013,"lon":139.78346268},{"name":"月島出張所前","province":"東京都","city":"中央区","address":"東京都中央区月島3丁目12-5","lat":35.66231205,"lon":139.78151296},{"name":"晴海二丁目","province":"東京都","city":"中央区","address":"東京都中央区晴海1丁目8-10","lat":35.65637941,"lon":139.78234084},{"name":"晴月橋南","province":"東京都","city":"中央区","address":"東京都中央区晴海1丁目6","lat":35.65872641,"lon":139.78401006},{"name":"佃二丁目北","province":"東京都","city":"中央区","address":"東京都中央区佃2丁目11","lat":35.66661448,"lon":139.78540973},{"name":"晴海給水所","province":"東京都","city":"中央区","address":"東京都中央区晴海1丁目6-3","lat":35.65852366,"lon":139.78411284},{"name":"区立あかつき公園","province":"東京都","city":"中央区","address":"東京都中央区築地7丁目19-1","lat":35.66666142,"lon":139.7758105},{"name":"区立堀留児童公園","province":"東京都","city":"中央区","address":"東京都中央区日本橋堀留町1丁目1-16","lat":35.68635386,"lon":139.77931298},{"name":"佃水門","province":"東京都","city":"中央区","address":"東京都中央区晴海1丁目1-26","lat":35.66197894,"lon":139.7876958},{"name":"朝潮水門（水防倉庫）","province":"東京都","city":"中央区","address":"東京都中央区勝どき6丁目3","lat":35.65549314,"lon":139.77306391},{"name":"築地川水門","province":"東京都","city":"中央区","address":"東京都中央区浜離宮庭園1-1","lat":35.66256987,"lon":139.76322283},{"name":"浜離宮排水機場","province":"東京都","city":"中央区","address":"東京都中央区浜離宮庭園1-1","lat":35.66256987,"lon":139.76322283},{"name":"汐留川水門","province":"東京都","city":"中央区","address":"東京都中央区浜離宮庭園1-1","lat":35.66256987,"lon":139.76322283},{"name":"１中央清掃工場","province":"東京都","city":"中央区","address":"東京都中央区晴海5丁目2-1","lat":35.65238522,"lon":139.77588597},{"name":"中央区地域包括支援センター","province":"東京都","city":"中央区","address":"中央区築地1-1-1区役所4階","lat":35.670841,"lon":139.771927},{"name":"京橋おとしより相談センター","province":"東京都","city":"中央区","address":"中央区明石町1-6リハポート明石等複合施設1階","lat":35.669617,"lon":139.776657},{"name":"日本橋おとしより相談センター","province":"東京都","city":"中央区","address":"中央区日本橋小伝馬町5-1十思スクエア1階","lat":35.691414,"lon":139.777466},{"name":"人形町おとしより相談センター（日本橋おとしより相談センターの分室）","province":"東京都","city":"中央区","address":"中央区日本橋人形町2-32-4日本橋医師会人形町ビル1階","lat":35.682903,"lon":139.775345},{"name":"月島おとしより相談センター","province":"東京都","city":"中央区","address":"中央区月島4-1-1月島区民センター1階","lat":43.062607,"lon":141.655518},{"name":"勝どきおとしより相談センター（月島おとしより相談センター分室）","province":"東京都","city":"中央区","address":"中央区勝どき5-1-17勝どきザ・リバーフロント1階","lat":35.661423,"lon":139.776581},{"name":"室町二丁目","province":"東京都","city":"中央区","address":"東京都中央区日本橋室町1丁目5-5","lat":35.68619816,"lon":139.77438807},{"name":"本町二丁目","province":"東京都","city":"中央区","address":"東京都中央区日本橋本町2丁目5-1","lat":35.68734532,"lon":139.7762047},{"name":"京橋一丁目","province":"東京都","city":"中央区","address":"東京都中央区日本橋3丁目12-2","lat":35.67858507,"lon":139.7743713},{"name":"鍛冶橋","province":"東京都","city":"中央区","address":"東京都中央区八重洲2丁目8-21","lat":35.67695173,"lon":139.7671775},{"name":"室町二丁目第二","province":"東京都","city":"中央区","address":"東京都中央区日本橋室町2丁目4-3","lat":35.68745634,"lon":139.77387974},{"name":"浜町中の橋","province":"東京都","city":"中央区","address":"東京都中央区日本橋浜町2丁目23-7","lat":35.68567645,"lon":139.78778543},{"name":"人形町","province":"東京都","city":"中央区","address":"東京都中央区日本橋人形町3丁目7-13","lat":35.68632617,"lon":139.78191571},{"name":"日本橋支所前","province":"東京都","city":"中央区","address":"東京都中央区日本橋蛎殻町2丁目2-4","lat":35.68279609,"lon":139.78566821},{"name":"東日本橋三丁目","province":"東京都","city":"中央区","address":"東京都中央区東日本橋3丁目8-2","lat":35.69135901,"lon":139.78379343},{"name":"箱崎町","province":"東京都","city":"中央区","address":"東京都中央区日本橋箱崎町41-13","lat":35.68119908,"lon":139.78695424},{"name":"ターミナルビル前","province":"東京都","city":"中央区","address":"東京都中央区日本橋蛎殻町1丁目35-5","lat":35.68174621,"lon":139.78603201},{"name":"隅田川大橋北詰","province":"東京都","city":"中央区","address":"東京都中央区日本橋箱崎町25-9","lat":35.68040193,"lon":139.78695136},{"name":"鎧橋東詰","province":"東京都","city":"中央区","address":"東京都中央区日本橋小網町7-2","lat":35.68210712,"lon":139.78100152},{"name":"築地四丁目","province":"東京都","city":"中央区","address":"東京都中央区築地3丁目16-12","lat":35.66649186,"lon":139.7709998},{"name":"数寄屋橋","province":"東京都","city":"中央区","address":"東京都中央区銀座4丁目1-2","lat":35.67281041,"lon":139.76328075},{"name":"入船橋","province":"東京都","city":"中央区","address":"東京都中央区新富2丁目14-6","lat":35.67041376,"lon":139.77486875},{"name":"土橋","province":"東京都","city":"中央区","address":"東京都中央区銀座8丁目3-7","lat":35.66870796,"lon":139.75892294},{"name":"聖路加病院前","province":"東京都","city":"中央区","address":"東京都中央区明石町12-1","lat":35.66657812,"lon":139.77679376},{"name":"築地警察署前","province":"東京都","city":"中央区","address":"東京都中央区築地1丁目6","lat":35.67027478,"lon":139.77131348},{"name":"築地暁橋","province":"東京都","city":"中央区","address":"東京都中央区明石町11-15","lat":35.66711412,"lon":139.77481056},{"name":"聖路加ガーデン前","province":"東京都","city":"中央区","address":"東京都中央区明石町13-1","lat":35.66615041,"lon":139.77768536},{"name":"明石小学校前","province":"東京都","city":"中央区","address":"東京都中央区明石町9-1","lat":35.66741137,"lon":139.77705481},{"name":"月島三丁目","province":"東京都","city":"中央区","address":"東京都中央区月島1丁目27-9","lat":35.66316198,"lon":139.78207955},{"name":"勝どき駅前","province":"東京都","city":"中央区","address":"東京都中央区勝どき1丁目7-1","lat":35.65987332,"lon":139.77761338},{"name":"初見橋","province":"東京都","city":"中央区","address":"東京都中央区佃2丁目17-8","lat":35.664723,"lon":139.7848487},{"name":"新月橋","province":"東京都","city":"中央区","address":"東京都中央区月島1丁目2-9","lat":35.66522013,"lon":139.78346268},{"name":"月島出張所前","province":"東京都","city":"中央区","address":"東京都中央区月島3丁目12-5","lat":35.66231205,"lon":139.78151296},{"name":"晴海二丁目","province":"東京都","city":"中央区","address":"東京都中央区晴海1丁目8-10","lat":35.65637941,"lon":139.78234084},{"name":"晴月橋南","province":"東京都","city":"中央区","address":"東京都中央区晴海1丁目6","lat":35.65872641,"lon":139.78401006},{"name":"佃二丁目北","province":"東京都","city":"中央区","address":"東京都中央区佃2丁目11","lat":35.66661448,"lon":139.78540973},{"name":"晴海給水所","province":"東京都","city":"中央区","address":"東京都中央区晴海1丁目6-3","lat":35.65852366,"lon":139.78411284},{"name":"区立あかつき公園","province":"東京都","city":"中央区","address":"東京都中央区築地7丁目19-1","lat":35.66666142,"lon":139.7758105},{"name":"区立堀留児童公園","province":"東京都","city":"中央区","address":"東京都中央区日本橋堀留町1丁目1-16","lat":35.68635386,"lon":139.77931298},{"name":"佃水門","province":"東京都","city":"中央区","address":"東京都中央区晴海1丁目1-26","lat":35.66197894,"lon":139.7876958},{"name":"朝潮水門（水防倉庫）","province":"東京都","city":"中央区","address":"東京都中央区勝どき6丁目3","lat":35.65549314,"lon":139.77306391},{"name":"築地川水門","province":"東京都","city":"中央区","address":"東京都中央区浜離宮庭園1-1","lat":35.66256987,"lon":139.76322283},{"name":"浜離宮排水機場","province":"東京都","city":"中央区","address":"東京都中央区浜離宮庭園1-1","lat":35.66256987,"lon":139.76322283},{"name":"汐留川水門","province":"東京都","city":"中央区","address":"東京都中央区浜離宮庭園1-1","lat":35.66256987,"lon":139.76322283},{"name":"１中央清掃工場","province":"東京都","city":"中央区","address":"東京都中央区晴海5丁目2-1","lat":35.65238522,"lon":139.77588597},{"name":"中央区地域包括支援センター","province":"東京都","city":"中央区","address":"中央区築地1-1-1区役所4階","lat":35.670841,"lon":139.771927},{"name":"京橋おとしより相談センター","province":"東京都","city":"中央区","address":"中央区明石町1-6リハポート明石等複合施設1階","lat":35.669617,"lon":139.776657},{"name":"日本橋おとしより相談センター","province":"東京都","city":"中央区","address":"中央区日本橋小伝馬町5-1十思スクエア1階","lat":35.691414,"lon":139.777466},{"name":"人形町おとしより相談センター（日本橋おとしより相談センターの分室）","province":"東京都","city":"中央区","address":"中央区日本橋人形町2-32-4日本橋医師会人形町ビル1階","lat":35.682903,"lon":139.775345},{"name":"月島おとしより相談センター","province":"東京都","city":"中央区","address":"中央区月島4-1-1月島区民センター1階","lat":43.062607,"lon":141.655518},{"name":"勝どきおとしより相談センター（月島おとしより相談センター分室）","province":"東京都","city":"中央区","address":"中央区勝どき5-1-17勝どきザ・リバーフロント1階","lat":35.661423,"lon":139.776581},{"name":"室町二丁目","province":"東京都","city":"中央区","address":"東京都中央区日本橋室町1丁目5-5","lat":35.68619816,"lon":139.77438807},{"name":"本町二丁目","province":"東京都","city":"中央区","address":"東京都中央区日本橋本町2丁目5-1","lat":35.68734532,"lon":139.7762047},{"name":"京橋一丁目","province":"東京都","city":"中央区","address":"東京都中央区日本橋3丁目12-2","lat":35.67858507,"lon":139.7743713},{"name":"鍛冶橋","province":"東京都","city":"中央区","address":"東京都中央区八重洲2丁目8-21","lat":35.67695173,"lon":139.7671775},{"name":"室町二丁目第二","province":"東京都","city":"中央区","address":"東京都中央区日本橋室町2丁目4-3","lat":35.68745634,"lon":139.77387974},{"name":"浜町中の橋","province":"東京都","city":"中央区","address":"東京都中央区日本橋浜町2丁目23-7","lat":35.68567645,"lon":139.78778543},{"name":"人形町","province":"東京都","city":"中央区","address":"東京都中央区日本橋人形町3丁目7-13","lat":35.68632617,"lon":139.78191571},{"name":"日本橋支所前","province":"東京都","city":"中央区","address":"東京都中央区日本橋蛎殻町2丁目2-4","lat":35.68279609,"lon":139.78566821},{"name":"東日本橋三丁目","province":"東京都","city":"中央区","address":"東京都中央区東日本橋3丁目8-2","lat":35.69135901,"lon":139.78379343},{"name":"箱崎町","province":"東京都","city":"中央区","address":"東京都中央区日本橋箱崎町41-13","lat":35.68119908,"lon":139.78695424},{"name":"ターミナルビル前","province":"東京都","city":"中央区","address":"東京都中央区日本橋蛎殻町1丁目35-5","lat":35.68174621,"lon":139.78603201},{"name":"隅田川大橋北詰","province":"東京都","city":"中央区","address":"東京都中央区日本橋箱崎町25-9","lat":35.68040193,"lon":139.78695136},{"name":"鎧橋東詰","province":"東京都","city":"中央区","address":"東京都中央区日本橋小網町7-2","lat":35.68210712,"lon":139.78100152},{"name":"築地四丁目","province":"東京都","city":"中央区","address":"東京都中央区築地3丁目16-12","lat":35.66649186,"lon":139.7709998},{"name":"数寄屋橋","province":"東京都","city":"中央区","address":"東京都中央区銀座4丁目1-2","lat":35.67281041,"lon":139.76328075},{"name":"入船橋","province":"東京都","city":"中央区","address":"東京都中央区新富2丁目14-6","lat":35.67041376,"lon":139.77486875},{"name":"土橋","province":"東京都","city":"中央区","address":"東京都中央区銀座8丁目3-7","lat":35.66870796,"lon":139.75892294},{"name":"聖路加病院前","province":"東京都","city":"中央区","address":"東京都中央区明石町12-1","lat":35.66657812,"lon":139.77679376},{"name":"築地警察署前","province":"東京都","city":"中央区","address":"東京都中央区築地1丁目6","lat":35.67027478,"lon":139.77131348},{"name":"築地暁橋","province":"東京都","city":"中央区","address":"東京都中央区明石町11-15","lat":35.66711412,"lon":139.77481056},{"name":"聖路加ガーデン前","province":"東京都","city":"中央区","address":"東京都中央区明石町13-1","lat":35.66615041,"lon":139.77768536},{"name":"明石小学校前","province":"東京都","city":"中央区","address":"東京都中央区明石町9-1","lat":35.66741137,"lon":139.77705481},{"name":"月島三丁目","province":"東京都","city":"中央区","address":"東京都中央区月島1丁目27-9","lat":35.66316198,"lon":139.78207955},{"name":"勝どき駅前","province":"東京都","city":"中央区","address":"東京都中央区勝どき1丁目7-1","lat":35.65987332,"lon":139.77761338},{"name":"初見橋","province":"東京都","city":"中央区","address":"東京都中央区佃2丁目17-8","lat":35.664723,"lon":139.7848487},{"name":"新月橋","province":"東京都","city":"中央区","address":"東京都中央区月島1丁目2-9","lat":35.66522013,"lon":139.78346268},{"name":"月島出張所前","province":"東京都","city":"中央区","address":"東京都中央区月島3丁目12-5","lat":35.66231205,"lon":139.78151296},{"name":"晴海二丁目","province":"東京都","city":"中央区","address":"東京都中央区晴海1丁目8-10","lat":35.65637941,"lon":139.78234084},{"name":"晴月橋南","province":"東京都","city":"中央区","address":"東京都中央区晴海1丁目6","lat":35.65872641,"lon":139.78401006},{"name":"佃二丁目北","province":"東京都","city":"中央区","address":"東京都中央区佃2丁目11","lat":35.66661448,"lon":139.78540973},{"name":"晴海給水所","province":"東京都","city":"中央区","address":"東京都中央区晴海1丁目6-3","lat":35.65852366,"lon":139.78411284},{"name":"区立あかつき公園","province":"東京都","city":"中央区","address":"東京都中央区築地7丁目19-1","lat":35.66666142,"lon":139.7758105},{"name":"区立堀留児童公園","province":"東京都","city":"中央区","address":"東京都中央区日本橋堀留町1丁目1-16","lat":35.68635386,"lon":139.77931298},{"name":"佃水門","province":"東京都","city":"中央区","address":"東京都中央区晴海1丁目1-26","lat":35.66197894,"lon":139.7876958},{"name":"朝潮水門（水防倉庫）","province":"東京都","city":"中央区","address":"東京都中央区勝どき6丁目3","lat":35.65549314,"lon":139.77306391},{"name":"築地川水門","province":"東京都","city":"中央区","address":"東京都中央区浜離宮庭園1-1","lat":35.66256987,"lon":139.76322283},{"name":"浜離宮排水機場","province":"東京都","city":"中央区","address":"東京都中央区浜離宮庭園1-1","lat":35.66256987,"lon":139.76322283},{"name":"汐留川水門","province":"東京都","city":"中央区","address":"東京都中央区浜離宮庭園1-1","lat":35.66256987,"lon":139.76322283},{"name":"１中央清掃工場","province":"東京都","city":"中央区","address":"東京都中央区晴海5丁目2-1","lat":35.65238522,"lon":139.77588597},{"name":"中央区地域包括支援センター","province":"東京都","city":"中央区","address":"中央区築地1-1-1区役所4階","lat":35.670841,"lon":139.771927},{"name":"京橋おとしより相談センター","province":"東京都","city":"中央区","address":"中央区明石町1-6リハポート明石等複合施設1階","lat":35.669617,"lon":139.776657},{"name":"日本橋おとしより相談センター","province":"東京都","city":"中央区","address":"中央区日本橋小伝馬町5-1十思スクエア1階","lat":35.691414,"lon":139.777466},{"name":"人形町おとしより相談センター（日本橋おとしより相談センターの分室）","province":"東京都","city":"中央区","address":"中央区日本橋人形町2-32-4日本橋医師会人形町ビル1階","lat":35.682903,"lon":139.775345},{"name":"月島おとしより相談センター","province":"東京都","city":"中央区","address":"中央区月島4-1-1月島区民センター1階","lat":43.062607,"lon":141.655518},{"name":"勝どきおとしより相談センター（月島おとしより相談センター分室）","province":"東京都","city":"中央区","address":"中央区勝どき5-1-17勝どきザ・リバーフロント1階","lat":35.661423,"lon":139.776581},{"name":"室町二丁目","province":"東京都","city":"中央区","address":"東京都中央区日本橋室町1丁目5-5","lat":35.68619816,"lon":139.77438807},{"name":"本町二丁目","province":"東京都","city":"中央区","address":"東京都中央区日本橋本町2丁目5-1","lat":35.68734532,"lon":139.7762047},{"name":"京橋一丁目","province":"東京都","city":"中央区","address":"東京都中央区日本橋3丁目12-2","lat":35.67858507,"lon":139.7743713},{"name":"鍛冶橋","province":"東京都","city":"中央区","address":"東京都中央区八重洲2丁目8-21","lat":35.67695173,"lon":139.7671775},{"name":"室町二丁目第二","province":"東京都","city":"中央区","address":"東京都中央区日本橋室町2丁目4-3","lat":35.68745634,"lon":139.77387974},{"name":"浜町中の橋","province":"東京都","city":"中央区","address":"東京都中央区日本橋浜町2丁目23-7","lat":35.68567645,"lon":139.78778543},{"name":"人形町","province":"東京都","city":"中央区","address":"東京都中央区日本橋人形町3丁目7-13","lat":35.68632617,"lon":139.78191571},{"name":"日本橋支所前","province":"東京都","city":"中央区","address":"東京都中央区日本橋蛎殻町2丁目2-4","lat":35.68279609,"lon":139.78566821},{"name":"東日本橋三丁目","province":"東京都","city":"中央区","address":"東京都中央区東日本橋3丁目8-2","lat":35.69135901,"lon":139.78379343},{"name":"箱崎町","province":"東京都","city":"中央区","address":"東京都中央区日本橋箱崎町41-13","lat":35.68119908,"lon":139.78695424},{"name":"ターミナルビル前","province":"東京都","city":"中央区","address":"東京都中央区日本橋蛎殻町1丁目35-5","lat":35.68174621,"lon":139.78603201},{"name":"隅田川大橋北詰","province":"東京都","city":"中央区","address":"東京都中央区日本橋箱崎町25-9","lat":35.68040193,"lon":139.78695136},{"name":"鎧橋東詰","province":"東京都","city":"中央区","address":"東京都中央区日本橋小網町7-2","lat":35.68210712,"lon":139.78100152},{"name":"築地四丁目","province":"東京都","city":"中央区","address":"東京都中央区築地3丁目16-12","lat":35.66649186,"lon":139.7709998},{"name":"数寄屋橋","province":"東京都","city":"中央区","address":"東京都中央区銀座4丁目1-2","lat":35.67281041,"lon":139.76328075},{"name":"入船橋","province":"東京都","city":"中央区","address":"東京都中央区新富2丁目14-6","lat":35.67041376,"lon":139.77486875},{"name":"土橋","province":"東京都","city":"中央区","address":"東京都中央区銀座8丁目3-7","lat":35.66870796,"lon":139.75892294},{"name":"聖路加病院前","province":"東京都","city":"中央区","address":"東京都中央区明石町12-1","lat":35.66657812,"lon":139.77679376},{"name":"築地警察署前","province":"東京都","city":"中央区","address":"東京都中央区築地1丁目6","lat":35.67027478,"lon":139.77131348},{"name":"築地暁橋","province":"東京都","city":"中央区","address":"東京都中央区明石町11-15","lat":35.66711412,"lon":139.77481056},{"name":"聖路加ガーデン前","province":"東京都","city":"中央区","address":"東京都中央区明石町13-1","lat":35.66615041,"lon":139.77768536},{"name":"明石小学校前","province":"東京都","city":"中央区","address":"東京都中央区明石町9-1","lat":35.66741137,"lon":139.77705481},{"name":"月島三丁目","province":"東京都","city":"中央区","address":"東京都中央区月島1丁目27-9","lat":35.66316198,"lon":139.78207955},{"name":"勝どき駅前","province":"東京都","city":"中央区","address":"東京都中央区勝どき1丁目7-1","lat":35.65987332,"lon":139.77761338},{"name":"初見橋","province":"東京都","city":"中央区","address":"東京都中央区佃2丁目17-8","lat":35.664723,"lon":139.7848487},{"name":"新月橋","province":"東京都","city":"中央区","address":"東京都中央区月島1丁目2-9","lat":35.66522013,"lon":139.78346268},{"name":"月島出張所前","province":"東京都","city":"中央区","address":"東京都中央区月島3丁目12-5","lat":35.66231205,"lon":139.78151296},{"name":"晴海二丁目","province":"東京都","city":"中央区","address":"東京都中央区晴海1丁目8-10","lat":35.65637941,"lon":139.78234084},{"name":"晴月橋南","province":"東京都","city":"中央区","address":"東京都中央区晴海1丁目6","lat":35.65872641,"lon":139.78401006},{"name":"佃二丁目北","province":"東京都","city":"中央区","address":"東京都中央区佃2丁目11","lat":35.66661448,"lon":139.78540973},{"name":"晴海給水所","province":"東京都","city":"中央区","address":"東京都中央区晴海1丁目6-3","lat":35.65852366,"lon":139.78411284},{"name":"区立あかつき公園","province":"東京都","city":"中央区","address":"東京都中央区築地7丁目19-1","lat":35.66666142,"lon":139.7758105},{"name":"区立堀留児童公園","province":"東京都","city":"中央区","address":"東京都中央区日本橋堀留町1丁目1-16","lat":35.68635386,"lon":139.77931298},{"name":"佃水門","province":"東京都","city":"中央区","address":"東京都中央区晴海1丁目1-26","lat":35.66197894,"lon":139.7876958},{"name":"朝潮水門（水防倉庫）","province":"東京都","city":"中央区","address":"東京都中央区勝どき6丁目3","lat":35.65549314,"lon":139.77306391},{"name":"築地川水門","province":"東京都","city":"中央区","address":"東京都中央区浜離宮庭園1-1","lat":35.66256987,"lon":139.76322283},{"name":"浜離宮排水機場","province":"東京都","city":"中央区","address":"東京都中央区浜離宮庭園1-1","lat":35.66256987,"lon":139.76322283},{"name":"汐留川水門","province":"東京都","city":"中央区","address":"東京都中央区浜離宮庭園1-1","lat":35.66256987,"lon":139.76322283},{"name":"１中央清掃工場","province":"東京都","city":"中央区","address":"東京都中央区晴海5丁目2-1","lat":35.65238522,"lon":139.77588597},{"name":"中央区地域包括支援センター","province":"東京都","city":"中央区","address":"中央区築地1-1-1区役所4階","lat":35.670841,"lon":139.771927},{"name":"京橋おとしより相談センター","province":"東京都","city":"中央区","address":"中央区明石町1-6リハポート明石等複合施設1階","lat":35.669617,"lon":139.776657},{"name":"日本橋おとしより相談センター","province":"東京都","city":"中央区","address":"中央区日本橋小伝馬町5-1十思スクエア1階","lat":35.691414,"lon":139.777466},{"name":"人形町おとしより相談センター（日本橋おとしより相談センターの分室）","province":"東京都","city":"中央区","address":"中央区日本橋人形町2-32-4日本橋医師会人形町ビル1階","lat":35.682903,"lon":139.775345},{"name":"月島おとしより相談センター","province":"東京都","city":"中央区","address":"中央区月島4-1-1月島区民センター1階","lat":43.062607,"lon":141.655518},{"name":"勝どきおとしより相談センター（月島おとしより相談センター分室）","province":"東京都","city":"中央区","address":"中央区勝どき5-1-17勝どきザ・リバーフロント1階","lat":35.661423,"lon":139.776581},{"name":"室町二丁目","province":"東京都","city":"中央区","address":"東京都中央区日本橋室町1丁目5-5","lat":35.68619816,"lon":139.77438807},{"name":"本町二丁目","province":"東京都","city":"中央区","address":"東京都中央区日本橋本町2丁目5-1","lat":35.68734532,"lon":139.7762047},{"name":"京橋一丁目","province":"東京都","city":"中央区","address":"東京都中央区日本橋3丁目12-2","lat":35.67858507,"lon":139.7743713},{"name":"鍛冶橋","province":"東京都","city":"中央区","address":"東京都中央区八重洲2丁目8-21","lat":35.67695173,"lon":139.7671775},{"name":"室町二丁目第二","province":"東京都","city":"中央区","address":"東京都中央区日本橋室町2丁目4-3","lat":35.68745634,"lon":139.77387974},{"name":"浜町中の橋","province":"東京都","city":"中央区","address":"東京都中央区日本橋浜町2丁目23-7","lat":35.68567645,"lon":139.78778543},{"name":"人形町","province":"東京都","city":"中央区","address":"東京都中央区日本橋人形町3丁目7-13","lat":35.68632617,"lon":139.78191571},{"name":"日本橋支所前","province":"東京都","city":"中央区","address":"東京都中央区日本橋蛎殻町2丁目2-4","lat":35.68279609,"lon":139.78566821},{"name":"東日本橋三丁目","province":"東京都","city":"中央区","address":"東京都中央区東日本橋3丁目8-2","lat":35.69135901,"lon":139.78379343},{"name":"箱崎町","province":"東京都","city":"中央区","address":"東京都中央区日本橋箱崎町41-13","lat":35.68119908,"lon":139.78695424},{"name":"ターミナルビル前","province":"東京都","city":"中央区","address":"東京都中央区日本橋蛎殻町1丁目35-5","lat":35.68174621,"lon":139.78603201},{"name":"隅田川大橋北詰","province":"東京都","city":"中央区","address":"東京都中央区日本橋箱崎町25-9","lat":35.68040193,"lon":139.78695136},{"name":"鎧橋東詰","province":"東京都","city":"中央区","address":"東京都中央区日本橋小網町7-2","lat":35.68210712,"lon":139.78100152},{"name":"築地四丁目","province":"東京都","city":"中央区","address":"東京都中央区築地3丁目16-12","lat":35.66649186,"lon":139.7709998},{"name":"数寄屋橋","province":"東京都","city":"中央区","address":"東京都中央区銀座4丁目1-2","lat":35.67281041,"lon":139.76328075},{"name":"入船橋","province":"東京都","city":"中央区","address":"東京都中央区新富2丁目14-6","lat":35.67041376,"lon":139.77486875},{"name":"土橋","province":"東京都","city":"中央区","address":"東京都中央区銀座8丁目3-7","lat":35.66870796,"lon":139.75892294},{"name":"聖路加病院前","province":"東京都","city":"中央区","address":"東京都中央区明石町12-1","lat":35.66657812,"lon":139.77679376},{"name":"築地警察署前","province":"東京都","city":"中央区","address":"東京都中央区築地1丁目6","lat":35.67027478,"lon":139.77131348},{"name":"築地暁橋","province":"東京都","city":"中央区","address":"東京都中央区明石町11-15","lat":35.66711412,"lon":139.77481056},{"name":"聖路加ガーデン前","province":"東京都","city":"中央区","address":"東京都中央区明石町13-1","lat":35.66615041,"lon":139.77768536},{"name":"明石小学校前","province":"東京都","city":"中央区","address":"東京都中央区明石町9-1","lat":35.66741137,"lon":139.77705481},{"name":"月島三丁目","province":"東京都","city":"中央区","address":"東京都中央区月島1丁目27-9","lat":35.66316198,"lon":139.78207955},{"name":"勝どき駅前","province":"東京都","city":"中央区","address":"東京都中央区勝どき1丁目7-1","lat":35.65987332,"lon":139.77761338},{"name":"初見橋","province":"東京都","city":"中央区","address":"東京都中央区佃2丁目17-8","lat":35.664723,"lon":139.7848487},{"name":"新月橋","province":"東京都","city":"中央区","address":"東京都中央区月島1丁目2-9","lat":35.66522013,"lon":139.78346268},{"name":"月島出張所前","province":"東京都","city":"中央区","address":"東京都中央区月島3丁目12-5","lat":35.66231205,"lon":139.78151296},{"name":"晴海二丁目","province":"東京都","city":"中央区","address":"東京都中央区晴海1丁目8-10","lat":35.65637941,"lon":139.78234084},{"name":"晴月橋南","province":"東京都","city":"中央区","address":"東京都中央区晴海1丁目6","lat":35.65872641,"lon":139.78401006},{"name":"佃二丁目北","province":"東京都","city":"中央区","address":"東京都中央区佃2丁目11","lat":35.66661448,"lon":139.78540973},{"name":"晴海給水所","province":"東京都","city":"中央区","address":"東京都中央区晴海1丁目6-3","lat":35.65852366,"lon":139.78411284},{"name":"区立あかつき公園","province":"東京都","city":"中央区","address":"東京都中央区築地7丁目19-1","lat":35.66666142,"lon":139.7758105},{"name":"区立堀留児童公園","province":"東京都","city":"中央区","address":"東京都中央区日本橋堀留町1丁目1-16","lat":35.68635386,"lon":139.77931298},{"name":"佃水門","province":"東京都","city":"中央区","address":"東京都中央区晴海1丁目1-26","lat":35.66197894,"lon":139.7876958},{"name":"朝潮水門（水防倉庫）","province":"東京都","city":"中央区","address":"東京都中央区勝どき6丁目3","lat":35.65549314,"lon":139.77306391},{"name":"築地川水門","province":"東京都","city":"中央区","address":"東京都中央区浜離宮庭園1-1","lat":35.66256987,"lon":139.76322283},{"name":"浜離宮排水機場","province":"東京都","city":"中央区","address":"東京都中央区浜離宮庭園1-1","lat":35.66256987,"lon":139.76322283},{"name":"汐留川水門","province":"東京都","city":"中央区","address":"東京都中央区浜離宮庭園1-1","lat":35.66256987,"lon":139.76322283},{"name":"１中央清掃工場","province":"東京都","city":"中央区","address":"東京都中央区晴海5丁目2-1","lat":35.65238522,"lon":139.77588597},{"name":"中央区地域包括支援センター","province":"東京都","city":"中央区","address":"中央区築地1-1-1区役所4階","lat":35.670841,"lon":139.771927},{"name":"京橋おとしより相談センター","province":"東京都","city":"中央区","address":"中央区明石町1-6リハポート明石等複合施設1階","lat":35.669617,"lon":139.776657},{"name":"日本橋おとしより相談センター","province":"東京都","city":"中央区","address":"中央区日本橋小伝馬町5-1十思スクエア1階","lat":35.691414,"lon":139.777466},{"name":"人形町おとしより相談センター（日本橋おとしより相談センターの分室）","province":"東京都","city":"中央区","address":"中央区日本橋人形町2-32-4日本橋医師会人形町ビル1階","lat":35.682903,"lon":139.775345},{"name":"月島おとしより相談センター","province":"東京都","city":"中央区","address":"中央区月島4-1-1月島区民センター1階","lat":43.062607,"lon":141.655518},{"name":"勝どきおとしより相談センター（月島おとしより相談センター分室）","province":"東京都","city":"中央区","address":"中央区勝どき5-1-17勝どきザ・リバーフロント1階","lat":35.661423,"lon":139.776581},{"name":"室町二丁目","province":"東京都","city":"中央区","address":"東京都中央区日本橋室町1丁目5-5","lat":35.68619816,"lon":139.77438807},{"name":"本町二丁目","province":"東京都","city":"中央区","address":"東京都中央区日本橋本町2丁目5-1","lat":35.68734532,"lon":139.7762047},{"name":"京橋一丁目","province":"東京都","city":"中央区","address":"東京都中央区日本橋3丁目12-2","lat":35.67858507,"lon":139.7743713},{"name":"鍛冶橋","province":"東京都","city":"中央区","address":"東京都中央区八重洲2丁目8-21","lat":35.67695173,"lon":139.7671775},{"name":"室町二丁目第二","province":"東京都","city":"中央区","address":"東京都中央区日本橋室町2丁目4-3","lat":35.68745634,"lon":139.77387974},{"name":"浜町中の橋","province":"東京都","city":"中央区","address":"東京都中央区日本橋浜町2丁目23-7","lat":35.68567645,"lon":139.78778543},{"name":"人形町","province":"東京都","city":"中央区","address":"東京都中央区日本橋人形町3丁目7-13","lat":35.68632617,"lon":139.78191571},{"name":"日本橋支所前","province":"東京都","city":"中央区","address":"東京都中央区日本橋蛎殻町2丁目2-4","lat":35.68279609,"lon":139.78566821},{"name":"東日本橋三丁目","province":"東京都","city":"中央区","address":"東京都中央区東日本橋3丁目8-2","lat":35.69135901,"lon":139.78379343},{"name":"箱崎町","province":"東京都","city":"中央区","address":"東京都中央区日本橋箱崎町41-13","lat":35.68119908,"lon":139.78695424},{"name":"ターミナルビル前","province":"東京都","city":"中央区","address":"東京都中央区日本橋蛎殻町1丁目35-5","lat":35.68174621,"lon":139.78603201},{"name":"隅田川大橋北詰","province":"東京都","city":"中央区","address":"東京都中央区日本橋箱崎町25-9","lat":35.68040193,"lon":139.78695136},{"name":"鎧橋東詰","province":"東京都","city":"中央区","address":"東京都中央区日本橋小網町7-2","lat":35.68210712,"lon":139.78100152},{"name":"築地四丁目","province":"東京都","city":"中央区","address":"東京都中央区築地3丁目16-12","lat":35.66649186,"lon":139.7709998},{"name":"数寄屋橋","province":"東京都","city":"中央区","address":"東京都中央区銀座4丁目1-2","lat":35.67281041,"lon":139.76328075},{"name":"入船橋","province":"東京都","city":"中央区","address":"東京都中央区新富2丁目14-6","lat":35.67041376,"lon":139.77486875},{"name":"土橋","province":"東京都","city":"中央区","address":"東京都中央区銀座8丁目3-7","lat":35.66870796,"lon":139.75892294},{"name":"聖路加病院前","province":"東京都","city":"中央区","address":"東京都中央区明石町12-1","lat":35.66657812,"lon":139.77679376},{"name":"築地警察署前","province":"東京都","city":"中央区","address":"東京都中央区築地1丁目6","lat":35.67027478,"lon":139.77131348},{"name":"築地暁橋","province":"東京都","city":"中央区","address":"東京都中央区明石町11-15","lat":35.66711412,"lon":139.77481056},{"name":"聖路加ガーデン前","province":"東京都","city":"中央区","address":"東京都中央区明石町13-1","lat":35.66615041,"lon":139.77768536},{"name":"明石小学校前","province":"東京都","city":"中央区","address":"東京都中央区明石町9-1","lat":35.66741137,"lon":139.77705481},{"name":"月島三丁目","province":"東京都","city":"中央区","address":"東京都中央区月島1丁目27-9","lat":35.66316198,"lon":139.78207955},{"name":"勝どき駅前","province":"東京都","city":"中央区","address":"東京都中央区勝どき1丁目7-1","lat":35.65987332,"lon":139.77761338},{"name":"初見橋","province":"東京都","city":"中央区","address":"東京都中央区佃2丁目17-8","lat":35.664723,"lon":139.7848487},{"name":"新月橋","province":"東京都","city":"中央区","address":"東京都中央区月島1丁目2-9","lat":35.66522013,"lon":139.78346268},{"name":"月島出張所前","province":"東京都","city":"中央区","address":"東京都中央区月島3丁目12-5","lat":35.66231205,"lon":139.78151296},{"name":"晴海二丁目","province":"東京都","city":"中央区","address":"東京都中央区晴海1丁目8-10","lat":35.65637941,"lon":139.78234084},{"name":"晴月橋南","province":"東京都","city":"中央区","address":"東京都中央区晴海1丁目6","lat":35.65872641,"lon":139.78401006},{"name":"佃二丁目北","province":"東京都","city":"中央区","address":"東京都中央区佃2丁目11","lat":35.66661448,"lon":139.78540973},{"name":"晴海給水所","province":"東京都","city":"中央区","address":"東京都中央区晴海1丁目6-3","lat":35.65852366,"lon":139.78411284},{"name":"区立あかつき公園","province":"東京都","city":"中央区","address":"東京都中央区築地7丁目19-1","lat":35.66666142,"lon":139.7758105},{"name":"区立堀留児童公園","province":"東京都","city":"中央区","address":"東京都中央区日本橋堀留町1丁目1-16","lat":35.68635386,"lon":139.77931298},{"name":"佃水門","province":"東京都","city":"中央区","address":"東京都中央区晴海1丁目1-26","lat":35.66197894,"lon":139.7876958},{"name":"朝潮水門（水防倉庫）","province":"東京都","city":"中央区","address":"東京都中央区勝どき6丁目3","lat":35.65549314,"lon":139.77306391},{"name":"築地川水門","province":"東京都","city":"中央区","address":"東京都中央区浜離宮庭園1-1","lat":35.66256987,"lon":139.76322283},{"name":"浜離宮排水機場","province":"東京都","city":"中央区","address":"東京都中央区浜離宮庭園1-1","lat":35.66256987,"lon":139.76322283},{"name":"汐留川水門","province":"東京都","city":"中央区","address":"東京都中央区浜離宮庭園1-1","lat":35.66256987,"lon":139.76322283},{"name":"１中央清掃工場","province":"東京都","city":"中央区","address":"東京都中央区晴海5丁目2-1","lat":35.65238522,"lon":139.77588597},{"name":"中央区地域包括支援センター","province":"東京都","city":"中央区","address":"中央区築地1-1-1区役所4階","lat":35.670841,"lon":139.771927},{"name":"京橋おとしより相談センター","province":"東京都","city":"中央区","address":"中央区明石町1-6リハポート明石等複合施設1階","lat":35.669617,"lon":139.776657},{"name":"日本橋おとしより相談センター","province":"東京都","city":"中央区","address":"中央区日本橋小伝馬町5-1十思スクエア1階","lat":35.691414,"lon":139.777466},{"name":"人形町おとしより相談センター（日本橋おとしより相談センターの分室）","province":"東京都","city":"中央区","address":"中央区日本橋人形町2-32-4日本橋医師会人形町ビル1階","lat":35.682903,"lon":139.775345},{"name":"月島おとしより相談センター","province":"東京都","city":"中央区","address":"中央区月島4-1-1月島区民センター1階","lat":43.062607,"lon":141.655518},{"name":"勝どきおとしより相談センター（月島おとしより相談センター分室）","province":"東京都","city":"中央区","address":"中央区勝どき5-1-17勝どきザ・リバーフロント1階","lat":35.661423,"lon":139.776581},{"name":"室町二丁目","province":"東京都","city":"中央区","address":"東京都中央区日本橋室町1丁目5-5","lat":35.68619816,"lon":139.77438807},{"name":"本町二丁目","province":"東京都","city":"中央区","address":"東京都中央区日本橋本町2丁目5-1","lat":35.68734532,"lon":139.7762047},{"name":"京橋一丁目","province":"東京都","city":"中央区","address":"東京都中央区日本橋3丁目12-2","lat":35.67858507,"lon":139.7743713},{"name":"鍛冶橋","province":"東京都","city":"中央区","address":"東京都中央区八重洲2丁目8-21","lat":35.67695173,"lon":139.7671775},{"name":"室町二丁目第二","province":"東京都","city":"中央区","address":"東京都中央区日本橋室町2丁目4-3","lat":35.68745634,"lon":139.77387974},{"name":"浜町中の橋","province":"東京都","city":"中央区","address":"東京都中央区日本橋浜町2丁目23-7","lat":35.68567645,"lon":139.78778543},{"name":"人形町","province":"東京都","city":"中央区","address":"東京都中央区日本橋人形町3丁目7-13","lat":35.68632617,"lon":139.78191571},{"name":"日本橋支所前","province":"東京都","city":"中央区","address":"東京都中央区日本橋蛎殻町2丁目2-4","lat":35.68279609,"lon":139.78566821},{"name":"東日本橋三丁目","province":"東京都","city":"中央区","address":"東京都中央区東日本橋3丁目8-2","lat":35.69135901,"lon":139.78379343},{"name":"箱崎町","province":"東京都","city":"中央区","address":"東京都中央区日本橋箱崎町41-13","lat":35.68119908,"lon":139.78695424},{"name":"ターミナルビル前","province":"東京都","city":"中央区","address":"東京都中央区日本橋蛎殻町1丁目35-5","lat":35.68174621,"lon":139.78603201},{"name":"隅田川大橋北詰","province":"東京都","city":"中央区","address":"東京都中央区日本橋箱崎町25-9","lat":35.68040193,"lon":139.78695136},{"name":"鎧橋東詰","province":"東京都","city":"中央区","address":"東京都中央区日本橋小網町7-2","lat":35.68210712,"lon":139.78100152},{"name":"築地四丁目","province":"東京都","city":"中央区","address":"東京都中央区築地3丁目16-12","lat":35.66649186,"lon":139.7709998},{"name":"数寄屋橋","province":"東京都","city":"中央区","address":"東京都中央区銀座4丁目1-2","lat":35.67281041,"lon":139.76328075},{"name":"入船橋","province":"東京都","city":"中央区","address":"東京都中央区新富2丁目14-6","lat":35.67041376,"lon":139.77486875},{"name":"土橋","province":"東京都","city":"中央区","address":"東京都中央区銀座8丁目3-7","lat":35.66870796,"lon":139.75892294},{"name":"聖路加病院前","province":"東京都","city":"中央区","address":"東京都中央区明石町12-1","lat":35.66657812,"lon":139.77679376},{"name":"築地警察署前","province":"東京都","city":"中央区","address":"東京都中央区築地1丁目6","lat":35.67027478,"lon":139.77131348},{"name":"築地暁橋","province":"東京都","city":"中央区","address":"東京都中央区明石町11-15","lat":35.66711412,"lon":139.77481056},{"name":"聖路加ガーデン前","province":"東京都","city":"中央区","address":"東京都中央区明石町13-1","lat":35.66615041,"lon":139.77768536},{"name":"明石小学校前","province":"東京都","city":"中央区","address":"東京都中央区明石町9-1","lat":35.66741137,"lon":139.77705481},{"name":"月島三丁目","province":"東京都","city":"中央区","address":"東京都中央区月島1丁目27-9","lat":35.66316198,"lon":139.78207955},{"name":"勝どき駅前","province":"東京都","city":"中央区","address":"東京都中央区勝どき1丁目7-1","lat":35.65987332,"lon":139.77761338},{"name":"初見橋","province":"東京都","city":"中央区","address":"東京都中央区佃2丁目17-8","lat":35.664723,"lon":139.7848487},{"name":"新月橋","province":"東京都","city":"中央区","address":"東京都中央区月島1丁目2-9","lat":35.66522013,"lon":139.78346268},{"name":"月島出張所前","province":"東京都","city":"中央区","address":"東京都中央区月島3丁目12-5","lat":35.66231205,"lon":139.78151296},{"name":"晴海二丁目","province":"東京都","city":"中央区","address":"東京都中央区晴海1丁目8-10","lat":35.65637941,"lon":139.78234084},{"name":"晴月橋南","province":"東京都","city":"中央区","address":"東京都中央区晴海1丁目6","lat":35.65872641,"lon":139.78401006},{"name":"佃二丁目北","province":"東京都","city":"中央区","address":"東京都中央区佃2丁目11","lat":35.66661448,"lon":139.78540973},{"name":"晴海給水所","province":"東京都","city":"中央区","address":"東京都中央区晴海1丁目6-3","lat":35.65852366,"lon":139.78411284},{"name":"区立あかつき公園","province":"東京都","city":"中央区","address":"東京都中央区築地7丁目19-1","lat":35.66666142,"lon":139.7758105},{"name":"区立堀留児童公園","province":"東京都","city":"中央区","address":"東京都中央区日本橋堀留町1丁目1-16","lat":35.68635386,"lon":139.77931298},{"name":"佃水門","province":"東京都","city":"中央区","address":"東京都中央区晴海1丁目1-26","lat":35.66197894,"lon":139.7876958},{"name":"朝潮水門（水防倉庫）","province":"東京都","city":"中央区","address":"東京都中央区勝どき6丁目3","lat":35.65549314,"lon":139.77306391},{"name":"築地川水門","province":"東京都","city":"中央区","address":"東京都中央区浜離宮庭園1-1","lat":35.66256987,"lon":139.76322283},{"name":"浜離宮排水機場","province":"東京都","city":"中央区","address":"東京都中央区浜離宮庭園1-1","lat":35.66256987,"lon":139.76322283},{"name":"汐留川水門","province":"東京都","city":"中央区","address":"東京都中央区浜離宮庭園1-1","lat":35.66256987,"lon":139.76322283},{"name":"１中央清掃工場","province":"東京都","city":"中央区","address":"東京都中央区晴海5丁目2-1","lat":35.65238522,"lon":139.77588597},{"name":"中央区地域包括支援センター","province":"東京都","city":"中央区","address":"中央区築地1-1-1区役所4階","lat":35.670841,"lon":139.771927},{"name":"京橋おとしより相談センター","province":"東京都","city":"中央区","address":"中央区明石町1-6リハポート明石等複合施設1階","lat":35.669617,"lon":139.776657},{"name":"日本橋おとしより相談センター","province":"東京都","city":"中央区","address":"中央区日本橋小伝馬町5-1十思スクエア1階","lat":35.691414,"lon":139.777466},{"name":"人形町おとしより相談センター（日本橋おとしより相談センターの分室）","province":"東京都","city":"中央区","address":"中央区日本橋人形町2-32-4日本橋医師会人形町ビル1階","lat":35.682903,"lon":139.775345},{"name":"月島おとしより相談センター","province":"東京都","city":"中央区","address":"中央区月島4-1-1月島区民センター1階","lat":43.062607,"lon":141.655518},{"name":"勝どきおとしより相談センター（月島おとしより相談センター分室）","province":"東京都","city":"中央区","address":"中央区勝どき5-1-17勝どきザ・リバーフロント1階","lat":35.661423,"lon":139.776581},{"name":"室町二丁目","province":"東京都","city":"中央区","address":"東京都中央区日本橋室町1丁目5-5","lat":35.68619816,"lon":139.77438807},{"name":"本町二丁目","province":"東京都","city":"中央区","address":"東京都中央区日本橋本町2丁目5-1","lat":35.68734532,"lon":139.7762047},{"name":"京橋一丁目","province":"東京都","city":"中央区","address":"東京都中央区日本橋3丁目12-2","lat":35.67858507,"lon":139.7743713},{"name":"鍛冶橋","province":"東京都","city":"中央区","address":"東京都中央区八重洲2丁目8-21","lat":35.67695173,"lon":139.7671775},{"name":"室町二丁目第二","province":"東京都","city":"中央区","address":"東京都中央区日本橋室町2丁目4-3","lat":35.68745634,"lon":139.77387974},{"name":"浜町中の橋","province":"東京都","city":"中央区","address":"東京都中央区日本橋浜町2丁目23-7","lat":35.68567645,"lon":139.78778543},{"name":"人形町","province":"東京都","city":"中央区","address":"東京都中央区日本橋人形町3丁目7-13","lat":35.68632617,"lon":139.78191571},{"name":"日本橋支所前","province":"東京都","city":"中央区","address":"東京都中央区日本橋蛎殻町2丁目2-4","lat":35.68279609,"lon":139.78566821},{"name":"東日本橋三丁目","province":"東京都","city":"中央区","address":"東京都中央区東日本橋3丁目8-2","lat":35.69135901,"lon":139.78379343},{"name":"箱崎町","province":"東京都","city":"中央区","address":"東京都中央区日本橋箱崎町41-13","lat":35.68119908,"lon":139.78695424},{"name":"ターミナルビル前","province":"東京都","city":"中央区","address":"東京都中央区日本橋蛎殻町1丁目35-5","lat":35.68174621,"lon":139.78603201},{"name":"隅田川大橋北詰","province":"東京都","city":"中央区","address":"東京都中央区日本橋箱崎町25-9","lat":35.68040193,"lon":139.78695136},{"name":"鎧橋東詰","province":"東京都","city":"中央区","address":"東京都中央区日本橋小網町7-2","lat":35.68210712,"lon":139.78100152},{"name":"築地四丁目","province":"東京都","city":"中央区","address":"東京都中央区築地3丁目16-12","lat":35.66649186,"lon":139.7709998},{"name":"数寄屋橋","province":"東京都","city":"中央区","address":"東京都中央区銀座4丁目1-2","lat":35.67281041,"lon":139.76328075},{"name":"入船橋","province":"東京都","city":"中央区","address":"東京都中央区新富2丁目14-6","lat":35.67041376,"lon":139.77486875},{"name":"土橋","province":"東京都","city":"中央区","address":"東京都中央区銀座8丁目3-7","lat":35.66870796,"lon":139.75892294},{"name":"聖路加病院前","province":"東京都","city":"中央区","address":"東京都中央区明石町12-1","lat":35.66657812,"lon":139.77679376},{"name":"築地警察署前","province":"東京都","city":"中央区","address":"東京都中央区築地1丁目6","lat":35.67027478,"lon":139.77131348},{"name":"築地暁橋","province":"東京都","city":"中央区","address":"東京都中央区明石町11-15","lat":35.66711412,"lon":139.77481056},{"name":"聖路加ガーデン前","province":"東京都","city":"中央区","address":"東京都中央区明石町13-1","lat":35.66615041,"lon":139.77768536},{"name":"明石小学校前","province":"東京都","city":"中央区","address":"東京都中央区明石町9-1","lat":35.66741137,"lon":139.77705481},{"name":"月島三丁目","province":"東京都","city":"中央区","address":"東京都中央区月島1丁目27-9","lat":35.66316198,"lon":139.78207955},{"name":"勝どき駅前","province":"東京都","city":"中央区","address":"東京都中央区勝どき1丁目7-1","lat":35.65987332,"lon":139.77761338},{"name":"初見橋","province":"東京都","city":"中央区","address":"東京都中央区佃2丁目17-8","lat":35.664723,"lon":139.7848487},{"name":"新月橋","province":"東京都","city":"中央区","address":"東京都中央区月島1丁目2-9","lat":35.66522013,"lon":139.78346268},{"name":"月島出張所前","province":"東京都","city":"中央区","address":"東京都中央区月島3丁目12-5","lat":35.66231205,"lon":139.78151296},{"name":"晴海二丁目","province":"東京都","city":"中央区","address":"東京都中央区晴海1丁目8-10","lat":35.65637941,"lon":139.78234084},{"name":"晴月橋南","province":"東京都","city":"中央区","address":"東京都中央区晴海1丁目6","lat":35.65872641,"lon":139.78401006},{"name":"佃二丁目北","province":"東京都","city":"中央区","address":"東京都中央区佃2丁目11","lat":35.66661448,"lon":139.78540973},{"name":"晴海給水所","province":"東京都","city":"中央区","address":"東京都中央区晴海1丁目6-3","lat":35.65852366,"lon":139.78411284},{"name":"区立あかつき公園","province":"東京都","city":"中央区","address":"東京都中央区築地7丁目19-1","lat":35.66666142,"lon":139.7758105},{"name":"区立堀留児童公園","province":"東京都","city":"中央区","address":"東京都中央区日本橋堀留町1丁目1-16","lat":35.68635386,"lon":139.77931298},{"name":"佃水門","province":"東京都","city":"中央区","address":"東京都中央区晴海1丁目1-26","lat":35.66197894,"lon":139.7876958},{"name":"朝潮水門（水防倉庫）","province":"東京都","city":"中央区","address":"東京都中央区勝どき6丁目3","lat":35.65549314,"lon":139.77306391},{"name":"築地川水門","province":"東京都","city":"中央区","address":"東京都中央区浜離宮庭園1-1","lat":35.66256987,"lon":139.76322283},{"name":"浜離宮排水機場","province":"東京都","city":"中央区","address":"東京都中央区浜離宮庭園1-1","lat":35.66256987,"lon":139.76322283},{"name":"汐留川水門","province":"東京都","city":"中央区","address":"東京都中央区浜離宮庭園1-1","lat":35.66256987,"lon":139.76322283},{"name":"１中央清掃工場","province":"東京都","city":"中央区","address":"東京都中央区晴海5丁目2-1","lat":35.65238522,"lon":139.77588597},{"name":"中央区地域包括支援センター","province":"東京都","city":"中央区","address":"中央区築地1-1-1区役所4階","lat":35.670841,"lon":139.771927},{"name":"京橋おとしより相談センター","province":"東京都","city":"中央区","address":"中央区明石町1-6リハポート明石等複合施設1階","lat":35.669617,"lon":139.776657},{"name":"日本橋おとしより相談センター","province":"東京都","city":"中央区","address":"中央区日本橋小伝馬町5-1十思スクエア1階","lat":35.691414,"lon":139.777466},{"name":"人形町おとしより相談センター（日本橋おとしより相談センターの分室）","province":"東京都","city":"中央区","address":"中央区日本橋人形町2-32-4日本橋医師会人形町ビル1階","lat":35.682903,"lon":139.775345},{"name":"月島おとしより相談センター","province":"東京都","city":"中央区","address":"中央区月島4-1-1月島区民センター1階","lat":43.062607,"lon":141.655518},{"name":"勝どきおとしより相談センター（月島おとしより相談センター分室）","province":"東京都","city":"中央区","address":"中央区勝どき5-1-17勝どきザ・リバーフロント1階","lat":35.661423,"lon":139.776581},{"name":"室町二丁目","province":"東京都","city":"中央区","address":"東京都中央区日本橋室町1丁目5-5","lat":35.68619816,"lon":139.77438807},{"name":"本町二丁目","province":"東京都","city":"中央区","address":"東京都中央区日本橋本町2丁目5-1","lat":35.68734532,"lon":139.7762047},{"name":"京橋一丁目","province":"東京都","city":"中央区","address":"東京都中央区日本橋3丁目12-2","lat":35.67858507,"lon":139.7743713},{"name":"鍛冶橋","province":"東京都","city":"中央区","address":"東京都中央区八重洲2丁目8-21","lat":35.67695173,"lon":139.7671775},{"name":"室町二丁目第二","province":"東京都","city":"中央区","address":"東京都中央区日本橋室町2丁目4-3","lat":35.68745634,"lon":139.77387974},{"name":"浜町中の橋","province":"東京都","city":"中央区","address":"東京都中央区日本橋浜町2丁目23-7","lat":35.68567645,"lon":139.78778543},{"name":"人形町","province":"東京都","city":"中央区","address":"東京都中央区日本橋人形町3丁目7-13","lat":35.68632617,"lon":139.78191571},{"name":"日本橋支所前","province":"東京都","city":"中央区","address":"東京都中央区日本橋蛎殻町2丁目2-4","lat":35.68279609,"lon":139.78566821},{"name":"東日本橋三丁目","province":"東京都","city":"中央区","address":"東京都中央区東日本橋3丁目8-2","lat":35.69135901,"lon":139.78379343},{"name":"箱崎町","province":"東京都","city":"中央区","address":"東京都中央区日本橋箱崎町41-13","lat":35.68119908,"lon":139.78695424},{"name":"ターミナルビル前","province":"東京都","city":"中央区","address":"東京都中央区日本橋蛎殻町1丁目35-5","lat":35.68174621,"lon":139.78603201},{"name":"隅田川大橋北詰","province":"東京都","city":"中央区","address":"東京都中央区日本橋箱崎町25-9","lat":35.68040193,"lon":139.78695136},{"name":"鎧橋東詰","province":"東京都","city":"中央区","address":"東京都中央区日本橋小網町7-2","lat":35.68210712,"lon":139.78100152},{"name":"築地四丁目","province":"東京都","city":"中央区","address":"東京都中央区築地3丁目16-12","lat":35.66649186,"lon":139.7709998},{"name":"数寄屋橋","province":"東京都","city":"中央区","address":"東京都中央区銀座4丁目1-2","lat":35.67281041,"lon":139.76328075},{"name":"入船橋","province":"東京都","city":"中央区","address":"東京都中央区新富2丁目14-6","lat":35.67041376,"lon":139.77486875},{"name":"土橋","province":"東京都","city":"中央区","address":"東京都中央区銀座8丁目3-7","lat":35.66870796,"lon":139.75892294},{"name":"聖路加病院前","province":"東京都","city":"中央区","address":"東京都中央区明石町12-1","lat":35.66657812,"lon":139.77679376},{"name":"築地警察署前","province":"東京都","city":"中央区","address":"東京都中央区築地1丁目6","lat":35.67027478,"lon":139.77131348},{"name":"築地暁橋","province":"東京都","city":"中央区","address":"東京都中央区明石町11-15","lat":35.66711412,"lon":139.77481056},{"name":"聖路加ガーデン前","province":"東京都","city":"中央区","address":"東京都中央区明石町13-1","lat":35.66615041,"lon":139.77768536},{"name":"明石小学校前","province":"東京都","city":"中央区","address":"東京都中央区明石町9-1","lat":35.66741137,"lon":139.77705481},{"name":"月島三丁目","province":"東京都","city":"中央区","address":"東京都中央区月島1丁目27-9","lat":35.66316198,"lon":139.78207955},{"name":"勝どき駅前","province":"東京都","city":"中央区","address":"東京都中央区勝どき1丁目7-1","lat":35.65987332,"lon":139.77761338},{"name":"初見橋","province":"東京都","city":"中央区","address":"東京都中央区佃2丁目17-8","lat":35.664723,"lon":139.7848487},{"name":"新月橋","province":"東京都","city":"中央区","address":"東京都中央区月島1丁目2-9","lat":35.66522013,"lon":139.78346268},{"name":"月島出張所前","province":"東京都","city":"中央区","address":"東京都中央区月島3丁目12-5","lat":35.66231205,"lon":139.78151296},{"name":"晴海二丁目","province":"東京都","city":"中央区","address":"東京都中央区晴海1丁目8-10","lat":35.65637941,"lon":139.78234084},{"name":"晴月橋南","province":"東京都","city":"中央区","address":"東京都中央区晴海1丁目6","lat":35.65872641,"lon":139.78401006},{"name":"佃二丁目北","province":"東京都","city":"中央区","address":"東京都中央区佃2丁目11","lat":35.66661448,"lon":139.78540973},{"name":"晴海給水所","province":"東京都","city":"中央区","address":"東京都中央区晴海1丁目6-3","lat":35.65852366,"lon":139.78411284},{"name":"区立あかつき公園","province":"東京都","city":"中央区","address":"東京都中央区築地7丁目19-1","lat":35.66666142,"lon":139.7758105},{"name":"区立堀留児童公園","province":"東京都","city":"中央区","address":"東京都中央区日本橋堀留町1丁目1-16","lat":35.68635386,"lon":139.77931298},{"name":"佃水門","province":"東京都","city":"中央区","address":"東京都中央区晴海1丁目1-26","lat":35.66197894,"lon":139.7876958},{"name":"朝潮水門（水防倉庫）","province":"東京都","city":"中央区","address":"東京都中央区勝どき6丁目3","lat":35.65549314,"lon":139.77306391},{"name":"築地川水門","province":"東京都","city":"中央区","address":"東京都中央区浜離宮庭園1-1","lat":35.66256987,"lon":139.76322283},{"name":"浜離宮排水機場","province":"東京都","city":"中央区","address":"東京都中央区浜離宮庭園1-1","lat":35.66256987,"lon":139.76322283},{"name":"汐留川水門","province":"東京都","city":"中央区","address":"東京都中央区浜離宮庭園1-1","lat":35.66256987,"lon":139.76322283},{"name":"１中央清掃工場","province":"東京都","city":"中央区","address":"東京都中央区晴海5丁目2-1","lat":35.65238522,"lon":139.77588597},{"name":"中央区地域包括支援センター","province":"東京都","city":"中央区","address":"中央区築地1-1-1区役所4階","lat":35.670841,"lon":139.771927},{"name":"京橋おとしより相談センター","province":"東京都","city":"中央区","address":"中央区明石町1-6リハポート明石等複合施設1階","lat":35.669617,"lon":139.776657},{"name":"日本橋おとしより相談センター","province":"東京都","city":"中央区","address":"中央区日本橋小伝馬町5-1十思スクエア1階","lat":35.691414,"lon":139.777466},{"name":"人形町おとしより相談センター（日本橋おとしより相談センターの分室）","province":"東京都","city":"中央区","address":"中央区日本橋人形町2-32-4日本橋医師会人形町ビル1階","lat":35.682903,"lon":139.775345},{"name":"月島おとしより相談センター","province":"東京都","city":"中央区","address":"中央区月島4-1-1月島区民センター1階","lat":43.062607,"lon":141.655518},{"name":"勝どきおとしより相談センター（月島おとしより相談センター分室）","province":"東京都","city":"中央区","address":"中央区勝どき5-1-17勝どきザ・リバーフロント1階","lat":35.661423,"lon":139.776581},{"name":"佃水門","province":"東京都","city":"中央区","address":"東京都中央区晴海1丁目1-26","lat":35.66197894,"lon":139.7876958},{"name":"朝潮水門（水防倉庫）","province":"東京都","city":"中央区","address":"東京都中央区勝どき6丁目3","lat":35.65549314,"lon":139.77306391},{"name":"築地川水門","province":"東京都","city":"中央区","address":"東京都中央区浜離宮庭園1-1","lat":35.66256987,"lon":139.76322283},{"name":"浜離宮排水機場","province":"東京都","city":"中央区","address":"東京都中央区浜離宮庭園1-1","lat":35.66256987,"lon":139.76322283},{"name":"汐留川水門","province":"東京都","city":"中央区","address":"東京都中央区浜離宮庭園1-1","lat":35.66256987,"lon":139.76322283},{"name":"１中央清掃工場","province":"東京都","city":"中央区","address":"東京都中央区晴海5丁目2-1","lat":35.65238522,"lon":139.77588597},{"name":"中央区地域包括支援センター","province":"東京都","city":"中央区","address":"中央区築地1-1-1区役所4階","lat":35.670841,"lon":139.771927},{"name":"京橋おとしより相談センター","province":"東京都","city":"中央区","address":"中央区明石町1-6リハポート明石等複合施設1階","lat":35.669617,"lon":139.776657},{"name":"日本橋おとしより相談センター","province":"東京都","city":"中央区","address":"中央区日本橋小伝馬町5-1十思スクエア1階","lat":35.691414,"lon":139.777466},{"name":"人形町おとしより相談センター（日本橋おとしより相談センターの分室）","province":"東京都","city":"中央区","address":"中央区日本橋人形町2-32-4日本橋医師会人形町ビル1階","lat":35.682903,"lon":139.775345},{"name":"月島おとしより相談センター","province":"東京都","city":"中央区","address":"中央区月島4-1-1月島区民センター1階","lat":43.062607,"lon":141.655518},{"name":"勝どきおとしより相談センター（月島おとしより相談センター分室）","province":"東京都","city":"中央区","address":"中央区勝どき5-1-17勝どきザ・リバーフロント1階","lat":35.661423,"lon":139.776581},{"name":"佃水門","province":"東京都","city":"中央区","address":"東京都中央区晴海1丁目1-26","lat":35.66197894,"lon":139.7876958},{"name":"朝潮水門（水防倉庫）","province":"東京都","city":"中央区","address":"東京都中央区勝どき6丁目3","lat":35.65549314,"lon":139.77306391},{"name":"築地川水門","province":"東京都","city":"中央区","address":"東京都中央区浜離宮庭園1-1","lat":35.66256987,"lon":139.76322283},{"name":"浜離宮排水機場","province":"東京都","city":"中央区","address":"東京都中央区浜離宮庭園1-1","lat":35.66256987,"lon":139.76322283},{"name":"汐留川水門","province":"東京都","city":"中央区","address":"東京都中央区浜離宮庭園1-1","lat":35.66256987,"lon":139.76322283},{"name":"１中央清掃工場","province":"東京都","city":"中央区","address":"東京都中央区晴海5丁目2-1","lat":35.65238522,"lon":139.77588597},{"name":"中央区地域包括支援センター","province":"東京都","city":"中央区","address":"中央区築地1-1-1区役所4階","lat":35.670841,"lon":139.771927},{"name":"京橋おとしより相談センター","province":"東京都","city":"中央区","address":"中央区明石町1-6リハポート明石等複合施設1階","lat":35.669617,"lon":139.776657},{"name":"日本橋おとしより相談センター","province":"東京都","city":"中央区","address":"中央区日本橋小伝馬町5-1十思スクエア1階","lat":35.691414,"lon":139.777466},{"name":"人形町おとしより相談センター（日本橋おとしより相談センターの分室）","province":"東京都","city":"中央区","address":"中央区日本橋人形町2-32-4日本橋医師会人形町ビル1階","lat":35.682903,"lon":139.775345},{"name":"月島おとしより相談センター","province":"東京都","city":"中央区","address":"中央区月島4-1-1月島区民センター1階","lat":43.062607,"lon":141.655518},{"name":"勝どきおとしより相談センター（月島おとしより相談センター分室）","province":"東京都","city":"中央区","address":"中央区勝どき5-1-17勝どきザ・リバーフロント1階","lat":35.661423,"lon":139.776581},{"name":"佃水門","province":"東京都","city":"中央区","address":"東京都中央区晴海1丁目1-26","lat":35.66197894,"lon":139.7876958},{"name":"朝潮水門（水防倉庫）","province":"東京都","city":"中央区","address":"東京都中央区勝どき6丁目3","lat":35.65549314,"lon":139.77306391},{"name":"築地川水門","province":"東京都","city":"中央区","address":"東京都中央区浜離宮庭園1-1","lat":35.66256987,"lon":139.76322283},{"name":"浜離宮排水機場","province":"東京都","city":"中央区","address":"東京都中央区浜離宮庭園1-1","lat":35.66256987,"lon":139.76322283},{"name":"汐留川水門","province":"東京都","city":"中央区","address":"東京都中央区浜離宮庭園1-1","lat":35.66256987,"lon":139.76322283},{"name":"１中央清掃工場","province":"東京都","city":"中央区","address":"東京都中央区晴海5丁目2-1","lat":35.65238522,"lon":139.77588597},{"name":"中央区地域包括支援センター","province":"東京都","city":"中央区","address":"中央区築地1-1-1区役所4階","lat":35.670841,"lon":139.771927},{"name":"京橋おとしより相談センター","province":"東京都","city":"中央区","address":"中央区明石町1-6リハポート明石等複合施設1階","lat":35.669617,"lon":139.776657},{"name":"日本橋おとしより相談センター","province":"東京都","city":"中央区","address":"中央区日本橋小伝馬町5-1十思スクエア1階","lat":35.691414,"lon":139.777466},{"name":"人形町おとしより相談センター（日本橋おとしより相談センターの分室）","province":"東京都","city":"中央区","address":"中央区日本橋人形町2-32-4日本橋医師会人形町ビル1階","lat":35.682903,"lon":139.775345},{"name":"月島おとしより相談センター","province":"東京都","city":"中央区","address":"中央区月島4-1-1月島区民センター1階","lat":43.062607,"lon":141.655518},{"name":"勝どきおとしより相談センター（月島おとしより相談センター分室）","province":"東京都","city":"中央区","address":"中央区勝どき5-1-17勝どきザ・リバーフロント1階","lat":35.661423,"lon":139.776581},{"name":"佃水門","province":"東京都","city":"中央区","address":"東京都中央区晴海1丁目1-26","lat":35.66197894,"lon":139.7876958},{"name":"朝潮水門（水防倉庫）","province":"東京都","city":"中央区","address":"東京都中央区勝どき6丁目3","lat":35.65549314,"lon":139.77306391},{"name":"築地川水門","province":"東京都","city":"中央区","address":"東京都中央区浜離宮庭園1-1","lat":35.66256987,"lon":139.76322283},{"name":"浜離宮排水機場","province":"東京都","city":"中央区","address":"東京都中央区浜離宮庭園1-1","lat":35.66256987,"lon":139.76322283},{"name":"汐留川水門","province":"東京都","city":"中央区","address":"東京都中央区浜離宮庭園1-1","lat":35.66256987,"lon":139.76322283},{"name":"１中央清掃工場","province":"東京都","city":"中央区","address":"東京都中央区晴海5丁目2-1","lat":35.65238522,"lon":139.77588597},{"name":"中央区地域包括支援センター","province":"東京都","city":"中央区","address":"中央区築地1-1-1区役所4階","lat":35.670841,"lon":139.771927},{"name":"京橋おとしより相談センター","province":"東京都","city":"中央区","address":"中央区明石町1-6リハポート明石等複合施設1階","lat":35.669617,"lon":139.776657},{"name":"日本橋おとしより相談センター","province":"東京都","city":"中央区","address":"中央区日本橋小伝馬町5-1十思スクエア1階","lat":35.691414,"lon":139.777466},{"name":"人形町おとしより相談センター（日本橋おとしより相談センターの分室）","province":"東京都","city":"中央区","address":"中央区日本橋人形町2-32-4日本橋医師会人形町ビル1階","lat":35.682903,"lon":139.775345},{"name":"月島おとしより相談センター","province":"東京都","city":"中央区","address":"中央区月島4-1-1月島区民センター1階","lat":43.062607,"lon":141.655518},{"name":"勝どきおとしより相談センター（月島おとしより相談センター分室）","province":"東京都","city":"中央区","address":"中央区勝どき5-1-17勝どきザ・リバーフロント1階","lat":35.661423,"lon":139.776581},{"name":"佃水門","province":"東京都","city":"中央区","address":"東京都中央区晴海1丁目1-26","lat":35.66197894,"lon":139.7876958},{"name":"朝潮水門（水防倉庫）","province":"東京都","city":"中央区","address":"東京都中央区勝どき6丁目3","lat":35.65549314,"lon":139.77306391},{"name":"築地川水門","province":"東京都","city":"中央区","address":"東京都中央区浜離宮庭園1-1","lat":35.66256987,"lon":139.76322283},{"name":"浜離宮排水機場","province":"東京都","city":"中央区","address":"東京都中央区浜離宮庭園1-1","lat":35.66256987,"lon":139.76322283},{"name":"汐留川水門","province":"東京都","city":"中央区","address":"東京都中央区浜離宮庭園1-1","lat":35.66256987,"lon":139.76322283},{"name":"１中央清掃工場","province":"東京都","city":"中央区","address":"東京都中央区晴海5丁目2-1","lat":35.65238522,"lon":139.77588597},{"name":"中央区地域包括支援センター","province":"東京都","city":"中央区","address":"中央区築地1-1-1区役所4階","lat":35.670841,"lon":139.771927},{"name":"京橋おとしより相談センター","province":"東京都","city":"中央区","address":"中央区明石町1-6リハポート明石等複合施設1階","lat":35.669617,"lon":139.776657},{"name":"日本橋おとしより相談センター","province":"東京都","city":"中央区","address":"中央区日本橋小伝馬町5-1十思スクエア1階","lat":35.691414,"lon":139.777466},{"name":"人形町おとしより相談センター（日本橋おとしより相談センターの分室）","province":"東京都","city":"中央区","address":"中央区日本橋人形町2-32-4日本橋医師会人形町ビル1階","lat":35.682903,"lon":139.775345},{"name":"月島おとしより相談センター","province":"東京都","city":"中央区","address":"中央区月島4-1-1月島区民センター1階","lat":43.062607,"lon":141.655518},{"name":"勝どきおとしより相談センター（月島おとしより相談センター分室）","province":"東京都","city":"中央区","address":"中央区勝どき5-1-17勝どきザ・リバーフロント1階","lat":35.661423,"lon":139.776581},{"name":"佃水門","province":"東京都","city":"中央区","address":"東京都中央区晴海1丁目1-26","lat":35.66197894,"lon":139.7876958},{"name":"朝潮水門（水防倉庫）","province":"東京都","city":"中央区","address":"東京都中央区勝どき6丁目3","lat":35.65549314,"lon":139.77306391},{"name":"築地川水門","province":"東京都","city":"中央区","address":"東京都中央区浜離宮庭園1-1","lat":35.66256987,"lon":139.76322283},{"name":"浜離宮排水機場","province":"東京都","city":"中央区","address":"東京都中央区浜離宮庭園1-1","lat":35.66256987,"lon":139.76322283},{"name":"汐留川水門","province":"東京都","city":"中央区","address":"東京都中央区浜離宮庭園1-1","lat":35.66256987,"lon":139.76322283},{"name":"１中央清掃工場","province":"東京都","city":"中央区","address":"東京都中央区晴海5丁目2-1","lat":35.65238522,"lon":139.77588597},{"name":"中央区地域包括支援センター","province":"東京都","city":"中央区","address":"中央区築地1-1-1区役所4階","lat":35.670841,"lon":139.771927},{"name":"京橋おとしより相談センター","province":"東京都","city":"中央区","address":"中央区明石町1-6リハポート明石等複合施設1階","lat":35.669617,"lon":139.776657},{"name":"日本橋おとしより相談センター","province":"東京都","city":"中央区","address":"中央区日本橋小伝馬町5-1十思スクエア1階","lat":35.691414,"lon":139.777466},{"name":"人形町おとしより相談センター（日本橋おとしより相談センターの分室）","province":"東京都","city":"中央区","address":"中央区日本橋人形町2-32-4日本橋医師会人形町ビル1階","lat":35.682903,"lon":139.775345},{"name":"月島おとしより相談センター","province":"東京都","city":"中央区","address":"中央区月島4-1-1月島区民センター1階","lat":43.062607,"lon":141.655518},{"name":"勝どきおとしより相談センター（月島おとしより相談センター分室）","province":"東京都","city":"中央区","address":"中央区勝どき5-1-17勝どきザ・リバーフロント1階","lat":35.661423,"lon":139.776581},{"name":"佃水門","province":"東京都","city":"中央区","address":"東京都中央区晴海1丁目1-26","lat":35.66197894,"lon":139.7876958},{"name":"朝潮水門（水防倉庫）","province":"東京都","city":"中央区","address":"東京都中央区勝どき6丁目3","lat":35.65549314,"lon":139.77306391},{"name":"築地川水門","province":"東京都","city":"中央区","address":"東京都中央区浜離宮庭園1-1","lat":35.66256987,"lon":139.76322283},{"name":"浜離宮排水機場","province":"東京都","city":"中央区","address":"東京都中央区浜離宮庭園1-1","lat":35.66256987,"lon":139.76322283},{"name":"汐留川水門","province":"東京都","city":"中央区","address":"東京都中央区浜離宮庭園1-1","lat":35.66256987,"lon":139.76322283},{"name":"１中央清掃工場","province":"東京都","city":"中央区","address":"東京都中央区晴海5丁目2-1","lat":35.65238522,"lon":139.77588597},{"name":"中央区地域包括支援センター","province":"東京都","city":"中央区","address":"中央区築地1-1-1区役所4階","lat":35.670841,"lon":139.771927},{"name":"京橋おとしより相談センター","province":"東京都","city":"中央区","address":"中央区明石町1-6リハポート明石等複合施設1階","lat":35.669617,"lon":139.776657},{"name":"日本橋おとしより相談センター","province":"東京都","city":"中央区","address":"中央区日本橋小伝馬町5-1十思スクエア1階","lat":35.691414,"lon":139.777466},{"name":"人形町おとしより相談センター（日本橋おとしより相談センターの分室）","province":"東京都","city":"中央区","address":"中央区日本橋人形町2-32-4日本橋医師会人形町ビル1階","lat":35.682903,"lon":139.775345},{"name":"月島おとしより相談センター","province":"東京都","city":"中央区","address":"中央区月島4-1-1月島区民センター1階","lat":43.062607,"lon":141.655518},{"name":"勝どきおとしより相談センター（月島おとしより相談センター分室）","province":"東京都","city":"中央区","address":"中央区勝どき5-1-17勝どきザ・リバーフロント1階","lat":35.661423,"lon":139.776581},{"name":"佃水門","province":"東京都","city":"中央区","address":"東京都中央区晴海1丁目1-26","lat":35.66197894,"lon":139.7876958},{"name":"朝潮水門（水防倉庫）","province":"東京都","city":"中央区","address":"東京都中央区勝どき6丁目3","lat":35.65549314,"lon":139.77306391},{"name":"築地川水門","province":"東京都","city":"中央区","address":"東京都中央区浜離宮庭園1-1","lat":35.66256987,"lon":139.76322283},{"name":"浜離宮排水機場","province":"東京都","city":"中央区","address":"東京都中央区浜離宮庭園1-1","lat":35.66256987,"lon":139.76322283},{"name":"汐留川水門","province":"東京都","city":"中央区","address":"東京都中央区浜離宮庭園1-1","lat":35.66256987,"lon":139.76322283},{"name":"１中央清掃工場","province":"東京都","city":"中央区","address":"東京都中央区晴海5丁目2-1","lat":35.65238522,"lon":139.77588597},{"name":"中央区地域包括支援センター","province":"東京都","city":"中央区","address":"中央区築地1-1-1区役所4階","lat":35.670841,"lon":139.771927},{"name":"京橋おとしより相談センター","province":"東京都","city":"中央区","address":"中央区明石町1-6リハポート明石等複合施設1階","lat":35.669617,"lon":139.776657},{"name":"日本橋おとしより相談センター","province":"東京都","city":"中央区","address":"中央区日本橋小伝馬町5-1十思スクエア1階","lat":35.691414,"lon":139.777466},{"name":"人形町おとしより相談センター（日本橋おとしより相談センターの分室）","province":"東京都","city":"中央区","address":"中央区日本橋人形町2-32-4日本橋医師会人形町ビル1階","lat":35.682903,"lon":139.775345},{"name":"月島おとしより相談センター","province":"東京都","city":"中央区","address":"中央区月島4-1-1月島区民センター1階","lat":43.062607,"lon":141.655518},{"name":"勝どきおとしより相談センター（月島おとしより相談センター分室）","province":"東京都","city":"中央区","address":"中央区勝どき5-1-17勝どきザ・リバーフロント1階","lat":35.661423,"lon":139.776581},{"name":"佃水門","province":"東京都","city":"中央区","address":"東京都中央区晴海1丁目1-26","lat":35.66197894,"lon":139.7876958},{"name":"朝潮水門（水防倉庫）","province":"東京都","city":"中央区","address":"東京都中央区勝どき6丁目3","lat":35.65549314,"lon":139.77306391},{"name":"築地川水門","province":"東京都","city":"中央区","address":"東京都中央区浜離宮庭園1-1","lat":35.66256987,"lon":139.76322283},{"name":"浜離宮排水機場","province":"東京都","city":"中央区","address":"東京都中央区浜離宮庭園1-1","lat":35.66256987,"lon":139.76322283},{"name":"汐留川水門","province":"東京都","city":"中央区","address":"東京都中央区浜離宮庭園1-1","lat":35.66256987,"lon":139.76322283},{"name":"１中央清掃工場","province":"東京都","city":"中央区","address":"東京都中央区晴海5丁目2-1","lat":35.65238522,"lon":139.77588597},{"name":"中央区地域包括支援センター","province":"東京都","city":"中央区","address":"中央区築地1-1-1区役所4階","lat":35.670841,"lon":139.771927},{"name":"京橋おとしより相談センター","province":"東京都","city":"中央区","address":"中央区明石町1-6リハポート明石等複合施設1階","lat":35.669617,"lon":139.776657},{"name":"日本橋おとしより相談センター","province":"東京都","city":"中央区","address":"中央区日本橋小伝馬町5-1十思スクエア1階","lat":35.691414,"lon":139.777466},{"name":"人形町おとしより相談センター（日本橋おとしより相談センターの分室）","province":"東京都","city":"中央区","address":"中央区日本橋人形町2-32-4日本橋医師会人形町ビル1階","lat":35.682903,"lon":139.775345},{"name":"月島おとしより相談センター","province":"東京都","city":"中央区","address":"中央区月島4-1-1月島区民センター1階","lat":43.062607,"lon":141.655518},{"name":"勝どきおとしより相談センター（月島おとしより相談センター分室）","province":"東京都","city":"中央区","address":"中央区勝どき5-1-17勝どきザ・リバーフロント1階","lat":35.661423,"lon":139.776581},{"name":"佃水門","province":"東京都","city":"中央区","address":"東京都中央区晴海1丁目1-26","lat":35.66197894,"lon":139.7876958},{"name":"朝潮水門（水防倉庫）","province":"東京都","city":"中央区","address":"東京都中央区勝どき6丁目3","lat":35.65549314,"lon":139.77306391},{"name":"築地川水門","province":"東京都","city":"中央区","address":"東京都中央区浜離宮庭園1-1","lat":35.66256987,"lon":139.76322283},{"name":"浜離宮排水機場","province":"東京都","city":"中央区","address":"東京都中央区浜離宮庭園1-1","lat":35.66256987,"lon":139.76322283},{"name":"汐留川水門","province":"東京都","city":"中央区","address":"東京都中央区浜離宮庭園1-1","lat":35.66256987,"lon":139.76322283},{"name":"１中央清掃工場","province":"東京都","city":"中央区","address":"東京都中央区晴海5丁目2-1","lat":35.65238522,"lon":139.77588597},{"name":"中央区地域包括支援センター","province":"東京都","city":"中央区","address":"中央区築地1-1-1区役所4階","lat":35.670841,"lon":139.771927},{"name":"京橋おとしより相談センター","province":"東京都","city":"中央区","address":"中央区明石町1-6リハポート明石等複合施設1階","lat":35.669617,"lon":139.776657},{"name":"日本橋おとしより相談センター","province":"東京都","city":"中央区","address":"中央区日本橋小伝馬町5-1十思スクエア1階","lat":35.691414,"lon":139.777466},{"name":"人形町おとしより相談センター（日本橋おとしより相談センターの分室）","province":"東京都","city":"中央区","address":"中央区日本橋人形町2-32-4日本橋医師会人形町ビル1階","lat":35.682903,"lon":139.775345},{"name":"月島おとしより相談センター","province":"東京都","city":"中央区","address":"中央区月島4-1-1月島区民センター1階","lat":43.062607,"lon":141.655518},{"name":"勝どきおとしより相談センター（月島おとしより相談センター分室）","province":"東京都","city":"中央区","address":"中央区勝どき5-1-17勝どきザ・リバーフロント1階","lat":35.661423,"lon":139.776581},{"name":"佃水門","province":"東京都","city":"中央区","address":"東京都中央区晴海1丁目1-26","lat":35.66197894,"lon":139.7876958},{"name":"朝潮水門（水防倉庫）","province":"東京都","city":"中央区","address":"東京都中央区勝どき6丁目3","lat":35.65549314,"lon":139.77306391},{"name":"築地川水門","province":"東京都","city":"中央区","address":"東京都中央区浜離宮庭園1-1","lat":35.66256987,"lon":139.76322283},{"name":"浜離宮排水機場","province":"東京都","city":"中央区","address":"東京都中央区浜離宮庭園1-1","lat":35.66256987,"lon":139.76322283},{"name":"汐留川水門","province":"東京都","city":"中央区","address":"東京都中央区浜離宮庭園1-1","lat":35.66256987,"lon":139.76322283},{"name":"１中央清掃工場","province":"東京都","city":"中央区","address":"東京都中央区晴海5丁目2-1","lat":35.65238522,"lon":139.77588597},{"name":"中央区地域包括支援センター","province":"東京都","city":"中央区","address":"中央区築地1-1-1区役所4階","lat":35.670841,"lon":139.771927},{"name":"京橋おとしより相談センター","province":"東京都","city":"中央区","address":"中央区明石町1-6リハポート明石等複合施設1階","lat":35.669617,"lon":139.776657},{"name":"日本橋おとしより相談センター","province":"東京都","city":"中央区","address":"中央区日本橋小伝馬町5-1十思スクエア1階","lat":35.691414,"lon":139.777466},{"name":"人形町おとしより相談センター（日本橋おとしより相談センターの分室）","province":"東京都","city":"中央区","address":"中央区日本橋人形町2-32-4日本橋医師会人形町ビル1階","lat":35.682903,"lon":139.775345},{"name":"月島おとしより相談センター","province":"東京都","city":"中央区","address":"中央区月島4-1-1月島区民センター1階","lat":43.062607,"lon":141.655518},{"name":"勝どきおとしより相談センター（月島おとしより相談センター分室）","province":"東京都","city":"中央区","address":"中央区勝どき5-1-17勝どきザ・リバーフロント1階","lat":35.661423,"lon":139.776581},{"name":"佃水門","province":"東京都","city":"中央区","address":"東京都中央区晴海1丁目1-26","lat":35.66197894,"lon":139.7876958},{"name":"朝潮水門（水防倉庫）","province":"東京都","city":"中央区","address":"東京都中央区勝どき6丁目3","lat":35.65549314,"lon":139.77306391},{"name":"築地川水門","province":"東京都","city":"中央区","address":"東京都中央区浜離宮庭園1-1","lat":35.66256987,"lon":139.76322283},{"name":"浜離宮排水機場","province":"東京都","city":"中央区","address":"東京都中央区浜離宮庭園1-1","lat":35.66256987,"lon":139.76322283},{"name":"汐留川水門","province":"東京都","city":"中央区","address":"東京都中央区浜離宮庭園1-1","lat":35.66256987,"lon":139.76322283},{"name":"１中央清掃工場","province":"東京都","city":"中央区","address":"東京都中央区晴海5丁目2-1","lat":35.65238522,"lon":139.77588597},{"name":"中央区地域包括支援センター","province":"東京都","city":"中央区","address":"中央区築地1-1-1区役所4階","lat":35.670841,"lon":139.771927},{"name":"京橋おとしより相談センター","province":"東京都","city":"中央区","address":"中央区明石町1-6リハポート明石等複合施設1階","lat":35.669617,"lon":139.776657},{"name":"日本橋おとしより相談センター","province":"東京都","city":"中央区","address":"中央区日本橋小伝馬町5-1十思スクエア1階","lat":35.691414,"lon":139.777466},{"name":"人形町おとしより相談センター（日本橋おとしより相談センターの分室）","province":"東京都","city":"中央区","address":"中央区日本橋人形町2-32-4日本橋医師会人形町ビル1階","lat":35.682903,"lon":139.775345},{"name":"月島おとしより相談センター","province":"東京都","city":"中央区","address":"中央区月島4-1-1月島区民センター1階","lat":43.062607,"lon":141.655518},{"name":"勝どきおとしより相談センター（月島おとしより相談センター分室）","province":"東京都","city":"中央区","address":"中央区勝どき5-1-17勝どきザ・リバーフロント1階","lat":35.661423,"lon":139.776581},{"name":"佃水門","province":"東京都","city":"中央区","address":"東京都中央区晴海1丁目1-26","lat":35.66197894,"lon":139.7876958},{"name":"朝潮水門（水防倉庫）","province":"東京都","city":"中央区","address":"東京都中央区勝どき6丁目3","lat":35.65549314,"lon":139.77306391},{"name":"築地川水門","province":"東京都","city":"中央区","address":"東京都中央区浜離宮庭園1-1","lat":35.66256987,"lon":139.76322283},{"name":"浜離宮排水機場","province":"東京都","city":"中央区","address":"東京都中央区浜離宮庭園1-1","lat":35.66256987,"lon":139.76322283},{"name":"汐留川水門","province":"東京都","city":"中央区","address":"東京都中央区浜離宮庭園1-1","lat":35.66256987,"lon":139.76322283},{"name":"１中央清掃工場","province":"東京都","city":"中央区","address":"東京都中央区晴海5丁目2-1","lat":35.65238522,"lon":139.77588597}]}