{"keyword":"自転車","data":[{"name":"銀座六丁目地下駐輪場","province":"東京都","city":"中央区","address":"東京都中央区銀座6丁目10-1","lat":35.66942747,"lon":139.76411969},{"name":"入船橋駐輪場","province":"東京都","city":"中央区","address":"東京都中央区明石町1-34","lat":35.66961108,"lon":139.77549095},{"name":"築地市場駅地下駐輪場","province":"東京都","city":"中央区","address":"東京都中央区築地5丁目1-1","lat":35.66557519,"lon":139.76734737},{"name":"備前橋第三駐輪場","province":"東京都","city":"中央区","address":"東京都中央区築地7丁目5-16","lat":35.66630028,"lon":139.7734246},{"name":"人形町一丁目駐輪場","province":"東京都","city":"中央区","address":"東京都中央区日本橋人形町1丁目12-11","lat":35.68394313,"lon":139.78360711},{"name":"人形町通り駐輪場","province":"東京都","city":"中央区","address":"東京都中央区日本橋人形町1丁目14-8","lat":35.68404035,"lon":139.78389044},{"name":"人形町二丁目地下駐輪場","province":"東京都","city":"中央区","address":"東京都中央区日本橋人形町2丁目12-1","lat":35.68472085,"lon":139.78457942},{"name":"人形町三丁目駐輪場","province":"東京都","city":"中央区","address":"東京都中央区日本橋人形町3丁目8-1","lat":35.68668726,"lon":139.78242961},{"name":"蛎殻町駐輪場","province":"東京都","city":"中央区","address":"東京都中央区日本橋蛎殻町2丁目1-1","lat":35.68240173,"lon":139.78664047},{"name":"箱崎町駐輪場","province":"東京都","city":"中央区","address":"東京都中央区日本橋箱崎町24-2","lat":35.68043524,"lon":139.78652633},{"name":"清杉通り駐輪場","province":"東京都","city":"中央区","address":"東京都中央区日本橋横山町9-7","lat":35.69392542,"lon":139.78475729},{"name":"浜町公園地下駐輪場","province":"東京都","city":"中央区","address":"東京都中央区日本橋浜町2丁目59-48","lat":35.6874597,"lon":139.79043576},{"name":"日本橋二丁目地下駐輪場","province":"東京都","city":"中央区","address":"東京都中央区日本橋2丁目10-8","lat":35.68089873,"lon":139.77471297},{"name":"茅場町駐輪場","province":"東京都","city":"中央区","address":"東京都中央区日本橋茅場町2丁目17-13","lat":35.67896299,"lon":139.78101518},{"name":"月島駅前第一駐輪場","province":"東京都","city":"中央区","address":"東京都中央区月島2丁目1-1","lat":35.66374256,"lon":139.7850265},{"name":"月島駅地下駐輪場","province":"東京都","city":"中央区","address":"東京都中央区月島2丁目10-3","lat":35.66326202,"lon":139.78397937},{"name":"八重洲二丁目地下駐輪場","province":"東京都","city":"中央区","address":"東京都中央区八重洲2丁目1-4","lat":35.67966539,"lon":139.76981333}]}