{"keyword":"認可","data":[{"name":"あい保育園日本橋","province":"東京都","city":"中央区","address":"中央区日本橋富沢町9-10稲村ビル1階","lat":35.6892,"lon":139.78236},{"name":"AIAI NURSERY 日本橋浜町","province":"東京都","city":"中央区","address":"中央区日本橋浜町1-9-12日本橋プラヤビル2階","lat":35.6903,"lon":139.7877},{"name":"あい保育園水天宮","province":"東京都","city":"中央区","address":"中央区日本橋蛎殻町1-29-9ネオテック水天宮ビル1・2階","lat":35.68326,"lon":139.78365},{"name":"THREE　STAR　NURSERY蛎殻町園","province":"東京都","city":"中央区","address":"中央区日本橋蛎殻町2-15-5水天宮CPビル1~4F","lat":35.68425,"lon":139.78699},{"name":"あい保育園新川","province":"東京都","city":"中央区","address":"中央区新川1-26-9新川イワデビル1.2階","lat":35.67604,"lon":139.78358},{"name":"ＴＨＲＥＥ　　ＳＴＡＲ　ＮＵＲＳＥＲＹ蛎殻町園","province":"東京都","city":"中央区","address":"中央区日本橋蛎殻町2-15-5水天宮CPビル1~4F","lat":35.68425,"lon":139.78699},{"name":"あい・あい保育園日本橋浜町園","province":"東京都","city":"中央区","address":"中央区日本橋浜町1-9-12日本橋プラヤビル2階","lat":35.6903,"lon":139.7877},{"name":"学栄ナーサリー日本橋蛎殻町保育園","province":"東京都","city":"中央区","address":"中央区日本橋蛎殻町2-15-5","lat":35.68425,"lon":139.78699},{"name":"十思保育園","province":"東京都","city":"中央区","address":"中央区日本橋小伝馬町5-1","lat":35.69107,"lon":139.77741},{"name":"にじいろ保育園小伝馬町","province":"東京都","city":"中央区","address":"中央区日本橋小伝馬町13-7銀泉日本橋小伝馬町ビル1~4F","lat":35.691,"lon":139.77947},{"name":"人形町保育園","province":"東京都","city":"中央区","address":"中央区日本橋人形町2-14-5","lat":35.68449,"lon":139.78507},{"name":"グローバルキッズかきがら園","province":"東京都","city":"中央区","address":"中央区日本橋蛎殻町1-16-11EDGE日本橋蛎殻町1・2階","lat":35.68313,"lon":139.78267},{"name":"コビープリスクールはこざき","province":"東京都","city":"中央区","address":"中央区日本橋箱崎町17ー9箱崎升喜ビル1・2階","lat":35.68049,"lon":139.78513},{"name":"ＥＤＯ日本橋保育園","province":"東京都","city":"中央区","address":"中央区日本橋3-15-10","lat":35.67888,"lon":139.77507},{"name":"太陽の子新川保育園","province":"東京都","city":"中央区","address":"中央区新川1-24-1ユニゾ新川永代通りビル2階","lat":35.67662,"lon":139.78536},{"name":"あい保育園新川","province":"東京都","city":"中央区","address":"中央区新川1-26-9新川イワデビル1.2階","lat":35.67604,"lon":139.78359},{"name":"桜川保育園","province":"東京都","city":"中央区","address":"中央区入船1-1-13","lat":35.67357,"lon":139.77757},{"name":"保育所ま?anitize]む月島駅前園","province":"東京都","city":"中央区","address":"中央区佃2-10-9ライオンズタワー月島1F","lat":35.66609,"lon":139.78441},{"name":"太陽の子月島保育園","province":"東京都","city":"中央区","address":"中央区月島1-5-2キャピタルゲートプレイス2階","lat":35.66377,"lon":139.78331},{"name":"小学館アカデミー晴海保育園","province":"東京都","city":"中央区","address":"中央区晴海3-6-8スカイリンクタワー2F","lat":35.65558,"lon":139.77844},{"name":"アスク勝どき保育園","province":"東京都","city":"中央区","address":"中央区勝どき4-8-14","lat":35.65673,"lon":139.77564},{"name":"ほっぺるランド勝どき","province":"東京都","city":"中央区","address":"中央区勝どき3-4-4","lat":35.65895,"lon":139.77535},{"name":"テンダーラビング保育園東日本橋","province":"東京都","city":"中央区","address":"中央区東日本橋1-4-6東日本橋一丁目ビル1・2階","lat":35.69075,"lon":139.78493},{"name":"かふう保育園日本橋","province":"東京都","city":"中央区","address":"中央区日本橋富沢町10-18日本橋富沢町スクエアビル2階","lat":35.68782,"lon":139.78362},{"name":"太陽の子新川保育園","province":"東京都","city":"中央区","address":"中央区新川一丁目24番1号ユニゾ新川永代通りビル2階","lat":43.06157,"lon":141.77623},{"name":"あい保育園新川","province":"東京都","city":"中央区","address":"中央区新川1-26-9新川イワデビル1・2階","lat":40.82233,"lon":140.74895},{"name":"ぽけっとランド明石町保育園","province":"東京都","city":"中央区","address":"中央区明石町7-15ぱぱす明石町ビル2・3階","lat":35.669,"lon":139.7774},{"name":"晴海保育園","province":"東京都","city":"中央区","address":"中央区晴海1-5-15","lat":35.64951,"lon":139.77505},{"name":"さくらさくみらい晴海","province":"東京都","city":"中央区","address":"中央区晴海2-5-24晴海センタービル1階","lat":35.65195,"lon":139.77342},{"name":"ベネッセ勝どき保育園","province":"東京都","city":"中央区","address":"中央区勝どき5-1-17勝どきザ・リバーフロント2階","lat":35.66142,"lon":139.77658}]}