{"keyword":"財団","data":[{"name":"NewWork日本橋","province":"東京都","city":"中央区","address":"東京都中央区日本橋2丁目8-6","lat":35.68144035,"lon":139.77513517},{"name":"H1T銀座","province":"東京都","city":"中央区","address":"東京都中央区銀座4丁目6-11","lat":35.67116898,"lon":139.76550284},{"name":"東京電力（株）銀座支社","province":"東京都","city":"中央区","address":"中央区銀座3-3-18","lat":35.67324,"lon":139.7653},{"name":"NewWork日本橋","province":"東京都","city":"中央区","address":"東京都中央区日本橋2丁目8-6","lat":35.68144035,"lon":139.77513517},{"name":"H1T銀座","province":"東京都","city":"中央区","address":"東京都中央区銀座4丁目6-11","lat":35.67116898,"lon":139.76550284},{"name":"東京電力（株）銀座支社","province":"東京都","city":"中央区","address":"中央区銀座3-3-18","lat":35.67324,"lon":139.7653},{"name":"NewWork日本橋","province":"東京都","city":"中央区","address":"東京都中央区日本橋2丁目8-6","lat":35.68144035,"lon":139.77513517},{"name":"H1T銀座","province":"東京都","city":"中央区","address":"東京都中央区銀座4丁目6-11","lat":35.67116898,"lon":139.76550284},{"name":"東京電力（株）銀座支社","province":"東京都","city":"中央区","address":"中央区銀座3-3-18","lat":35.67324,"lon":139.7653},{"name":"NewWork日本橋","province":"東京都","city":"中央区","address":"東京都中央区日本橋2丁目8-6","lat":35.68144035,"lon":139.77513517},{"name":"H1T銀座","province":"東京都","city":"中央区","address":"東京都中央区銀座4丁目6-11","lat":35.67116898,"lon":139.76550284},{"name":"東京電力（株）銀座支社","province":"東京都","city":"中央区","address":"中央区銀座3-3-18","lat":35.67324,"lon":139.7653},{"name":"東京電力（株）銀座支社","province":"東京都","city":"中央区","address":"中央区銀座3-3-18","lat":35.67324,"lon":139.7653},{"name":"東京電力（株）銀座支社","province":"東京都","city":"中央区","address":"中央区銀座3-3-18","lat":35.67324,"lon":139.7653},{"name":"東京電力（株）銀座支社","province":"東京都","city":"中央区","address":"中央区銀座3-3-18","lat":35.67324,"lon":139.7653},{"name":"東京電力（株）銀座支社","province":"東京都","city":"中央区","address":"中央区銀座3-3-18","lat":35.67324,"lon":139.7653},{"name":"東京電力（株）銀座支社","province":"東京都","city":"中央区","address":"中央区銀座3-3-18","lat":35.67324,"lon":139.7653},{"name":"東京電力（株）銀座支社","province":"東京都","city":"中央区","address":"中央区銀座3-3-18","lat":35.67324,"lon":139.7653},{"name":"東京電力（株）銀座支社","province":"東京都","city":"中央区","address":"中央区銀座3-3-18","lat":35.67324,"lon":139.7653},{"name":"東京電力（株）銀座支社","province":"東京都","city":"中央区","address":"中央区銀座3-3-18","lat":35.67324,"lon":139.7653},{"name":"東京電力（株）銀座支社","province":"東京都","city":"中央区","address":"中央区銀座3-3-18","lat":35.67324,"lon":139.7653},{"name":"東京電力（株）銀座支社","province":"東京都","city":"中央区","address":"中央区銀座3-3-18","lat":35.67324,"lon":139.7653},{"name":"東京電力（株）銀座支社","province":"東京都","city":"中央区","address":"中央区銀座3-3-18","lat":35.67324,"lon":139.7653},{"name":"東京電力（株）銀座支社","province":"東京都","city":"中央区","address":"中央区銀座3-3-18","lat":35.67324,"lon":139.7653},{"name":"東京電力（株）銀座支社","province":"東京都","city":"中央区","address":"中央区銀座3-3-18","lat":35.67324,"lon":139.7653},{"name":"東京電力（株）銀座支社","province":"東京都","city":"中央区","address":"中央区銀座3-3-18","lat":35.67324,"lon":139.7653},{"name":"東京電力（株）銀座支社","province":"東京都","city":"中央区","address":"中央区銀座3-3-18","lat":35.67324,"lon":139.7653},{"name":"東京電力（株）銀座支社","province":"東京都","city":"中央区","address":"中央区銀座3-3-18","lat":35.67324,"lon":139.7653},{"name":"東京電力（株）銀座支社","province":"東京都","city":"中央区","address":"中央区銀座3-3-18","lat":35.67324,"lon":139.7653},{"name":"東京電力（株）銀座支社","province":"東京都","city":"中央区","address":"中央区銀座3-3-18","lat":35.67324,"lon":139.7653},{"name":"東京電力（株）銀座支社","province":"東京都","city":"中央区","address":"中央区銀座3-3-18","lat":35.67324,"lon":139.7653},{"name":"東京電力（株）銀座支社","province":"東京都","city":"中央区","address":"中央区銀座3-3-18","lat":35.67324,"lon":139.7653},{"name":"東京電力（株）銀座支社","province":"東京都","city":"中央区","address":"中央区銀座3-3-18","lat":35.67324,"lon":139.7653},{"name":"東京電力（株）銀座支社","province":"東京都","city":"中央区","address":"中央区銀座3-3-18","lat":35.67324,"lon":139.7653},{"name":"東京電力（株）銀座支社","province":"東京都","city":"中央区","address":"中央区銀座3-3-18","lat":35.67324,"lon":139.7653},{"name":"東京電力（株）銀座支社","province":"東京都","city":"中央区","address":"中央区銀座3-3-18","lat":35.67324,"lon":139.7653},{"name":"東京電力（株）銀座支社","province":"東京都","city":"中央区","address":"中央区銀座3-3-18","lat":35.67324,"lon":139.7653},{"name":"東京電力（株）銀座支社","province":"東京都","city":"中央区","address":"中央区銀座3-3-18","lat":35.67324,"lon":139.7653},{"name":"東京電力（株）銀座支社","province":"東京都","city":"中央区","address":"中央区銀座3-3-18","lat":35.67324,"lon":139.7653}]}