{"keyword":"週","data":[{"name":"新川二丁目５番緑地","province":"東京都","city":"中央区","address":"東京都中央区新川2丁目5-9","lat":35.67653268,"lon":139.78056802},{"name":"浜町児童館","province":"東京都","city":"中央区","address":"中央区日本橋浜町3-37-1","lat":35.685518,"lon":139.791302},{"name":"堀留町児童館","province":"東京都","city":"中央区","address":"中央区日本橋堀留町1-1-1","lat":35.687412,"lon":139.778963},{"name":"新川児童館","province":"東京都","city":"中央区","address":"中央区新川2-13-4","lat":35.675969,"lon":139.781568},{"name":"築地児童館","province":"東京都","city":"中央区","address":"中央区築地7-9-17","lat":35.666223,"lon":139.775883},{"name":"佃児童館","province":"東京都","city":"中央区","address":"中央区佃1-11-1","lat":35.668925,"lon":139.784726},{"name":"月島児童館","province":"東京都","city":"中央区","address":"中央区月島4-1-1","lat":35.662059,"lon":139.782141},{"name":"晴海児童館","province":"東京都","city":"中央区","address":"中央区晴海2-4-31","lat":35.654907,"lon":139.783935},{"name":"勝どき児童館","province":"東京都","city":"中央区","address":"中央区勝どき1-8-1","lat":35.659665,"lon":139.776583},{"name":"中央区立福祉センターふれあい作業所","province":"東京都","city":"中央区","address":"中央区晴海1-4-1","lat":35.658851,"lon":139.785538},{"name":"中央区社会福祉協議会","province":"東京都","city":"中央区","address":"中央区八丁堀4-1-51~3階","lat":35.674147,"lon":139.773013},{"name":"東京都八重洲駐車場","province":"東京都","city":"中央区","address":"東京都中央区日本橋3丁目","lat":35.6798321,"lon":139.77222703},{"name":"東京都日本橋駐車場","province":"東京都","city":"中央区","address":"東京都中央区日本橋1丁目","lat":35.68257362,"lon":139.77708232},{"name":"東京都宝町駐車場","province":"東京都","city":"中央区","address":"東京都中央区日本橋3丁目","lat":35.6798321,"lon":139.77222703},{"name":"東京都新京橋駐車場","province":"東京都","city":"中央区","address":"東京都中央区京橋3丁目","lat":35.67571581,"lon":139.76939125},{"name":"東京都東銀座駐車場","province":"東京都","city":"中央区","address":"東京都中央区銀座5丁目","lat":35.67068289,"lon":139.76467514},{"name":"\"中央区立京橋図書館 \"","province":"東京都","city":"中央区","address":"東京都中央区新富1-13-14","lat":35.673688,"lon":139.7756},{"name":"中央区立日本橋図書館","province":"東京都","city":"中央区","address":"東京都中央区日本橋人形町1-1-17","lat":35.684273,"lon":139.78123},{"name":"\"中央区立月島図書館 \"","province":"東京都","city":"中央区","address":"東京都中央区月島4-1-1","lat":35.661921,"lon":139.78192},{"name":"浜町児童館","province":"東京都","city":"中央区","address":"中央区日本橋浜町3-37-1","lat":35.68542,"lon":139.79137},{"name":"堀留町児童館","province":"東京都","city":"中央区","address":"中央区日本橋堀留町1-1-1","lat":35.68706,"lon":139.77928},{"name":"新川児童館","province":"東京都","city":"中央区","address":"中央区新川2-13-4","lat":35.67582,"lon":139.78195},{"name":"築地児童館","province":"東京都","city":"中央区","address":"中央区築地7-9-17","lat":35.66639,"lon":139.77567},{"name":"佃児童館","province":"東京都","city":"中央区","address":"中央区佃1-11-1","lat":35.66927,"lon":139.7834},{"name":"月島児童館","province":"東京都","city":"中央区","address":"中央区月島4-1-1","lat":35.66207,"lon":139.78218},{"name":"晴海児童館","province":"東京都","city":"中央区","address":"中央区晴海2-4-31","lat":35.65434,"lon":139.784},{"name":"勝どき児童館","province":"東京都","city":"中央区","address":"中央区勝どき1-8-1","lat":35.65958,"lon":139.77692},{"name":"中央区立福祉センターふれあい作業所","province":"東京都","city":"中央区","address":"中央区晴海1-4-1","lat":35.65868,"lon":139.78584},{"name":"中央区社会福祉協議会","province":"東京都","city":"中央区","address":"中央区八丁堀4-1-5","lat":35.67435,"lon":139.77295},{"name":"三井記念美術館","province":"東京都","city":"中央区","address":"中央区日本橋室町2-1-1三井会館7階","lat":35.686293,"lon":139.772996},{"name":"晴海給水所","province":"東京都","city":"中央区","address":"東京都中央区晴海1丁目6-3","lat":35.65852366,"lon":139.78411284},{"name":"区立あかつき公園","province":"東京都","city":"中央区","address":"東京都中央区築地7丁目19-1","lat":35.66666142,"lon":139.7758105},{"name":"区立堀留児童公園","province":"東京都","city":"中央区","address":"東京都中央区日本橋堀留町1丁目1-16","lat":35.68635386,"lon":139.77931298},{"name":"中央区立月島運動場","province":"東京都","city":"中央区","address":"東京都中央区晴海1丁目3-29","lat":35.65907089,"lon":139.78637652},{"name":"中央区立豊海運動公園","province":"東京都","city":"中央区","address":"東京都中央区豊海町3-19","lat":35.65321559,"lon":139.77225293},{"name":"一般財団法人青少年国際交流推進センター","province":"東京都","city":"中央区","address":"中央区日本橋人形町2-35-14東京海苔会館6階","lat":35.68178843,"lon":139.7897102},{"name":"＊?月島社会教育会館","province":"東京都","city":"中央区","address":"中央区月島4-1-1月島区民センター内","lat":35.662043,"lon":139.782269},{"name":"＊?月島社会教育会館晴海分館アートはるみ","province":"東京都","city":"中央区","address":"中央区晴海1-4-1月島第三小学校等複合施設内","lat":35.659003,"lon":139.785775},{"name":"＊?築地社会教育会館","province":"東京都","city":"中央区","address":"中央区築地4-15-1","lat":35.666501,"lon":139.768069},{"name":"＊?日本橋社会教育会館","province":"東京都","city":"中央区","address":"中央区日本橋人形町1-1-17日本橋小学校等複合施設内","lat":35.684764,"lon":139.781493},{"name":"＊?郷土天文館","province":"東京都","city":"中央区","address":"中央区明石町12-1","lat":35.666635,"lon":139.776739},{"name":"＊?京橋図書館","province":"東京都","city":"中央区","address":"中央区築地1-1-1","lat":35.67063,"lon":139.772},{"name":"＊?日本橋図書館","province":"東京都","city":"中央区","address":"中央区日本橋人形町1-1-17","lat":35.684773,"lon":139.781493},{"name":"＊?月島図書館","province":"東京都","city":"中央区","address":"中央区月島4-1-1","lat":35.662043,"lon":139.782269},{"name":"月島ふ頭","province":"東京都","city":"中央区","address":"東京都中央区豊海町","lat":35.65314056,"lon":139.77090583},{"name":"常盤橋","province":"東京都","city":"中央区","address":"東京都中央区日本橋本石町2丁目1","lat":35.6869841,"lon":139.77150202},{"name":"中央区本庁舎","province":"東京都","city":"中央区","address":"中央区築地1-1-1","lat":35.670651,"lon":139.771861},{"name":"第一建設事務所","province":"東京都","city":"中央区","address":"中央区明石町2-4","lat":35.66915,"lon":139.7777},{"name":"西東京管理局新富分室","province":"東京都","city":"中央区","address":"中央区新富1-1-3","lat":35.67387,"lon":139.7729},{"name":"東東京管理局","province":"東京都","city":"中央区","address":"中央区日本橋箱崎町43-5","lat":35.68227,"lon":139.7891},{"name":"第一方面交通機動隊","province":"東京都","city":"中央区","address":"中央区晴海1-1-24","lat":35.66121,"lon":139.7874},{"name":"中央警察署","province":"東京都","city":"中央区","address":"中央区日本橋兜町14-2","lat":35.68044,"lon":139.7771},{"name":"月島警察署","province":"東京都","city":"中央区","address":"中央区勝どき6-7-19","lat":35.65475,"lon":139.7715},{"name":"築地警察署","province":"東京都","city":"中央区","address":"中央区築地1-6-1","lat":35.67025,"lon":139.7714},{"name":"久松警察署","province":"東京都","city":"中央区","address":"中央区日本橋久松町8-1","lat":35.68836,"lon":139.7847},{"name":"京橋消防署","province":"東京都","city":"中央区","address":"中央区京橋3-14-1","lat":35.67439,"lon":139.7723},{"name":"日本橋消防署","province":"東京都","city":"中央区","address":"中央区日本橋兜町14-12","lat":35.68013,"lon":139.7776},{"name":"臨港消防署","province":"東京都","city":"中央区","address":"中央区晴海5-1-27","lat":35.6519,"lon":139.7736},{"name":"中央清掃工場","province":"東京都","city":"中央区","address":"中央区晴海5-2-1","lat":35.65247,"lon":139.7759},{"name":"中央区立月島運動場","province":"東京都","city":"中央区","address":"中央区晴海1-3-29","lat":35.65917,"lon":139.7863},{"name":"新川","province":"東京都","city":"中央区","address":"中央区新川2丁目地先","lat":35.67488,"lon":139.7825},{"name":"明石町","province":"東京都","city":"中央区","address":"中央区明石町地先","lat":35.66779,"lon":139.7771},{"name":"箱崎町","province":"東京都","city":"中央区","address":"中央区日本橋箱崎町地先","lat":35.68021,"lon":139.7854},{"name":"東京電力（株）銀座支社","province":"東京都","city":"中央区","address":"中央区銀座3-3-18","lat":35.67324,"lon":139.7653},{"name":"常盤橋","province":"東京都","city":"中央区","address":"東京都中央区日本橋本石町2丁目1","lat":35.6869841,"lon":139.77150202},{"name":"新川二丁目５番緑地","province":"東京都","city":"中央区","address":"東京都中央区新川2丁目5-9","lat":35.67653268,"lon":139.78056802},{"name":"浜町児童館","province":"東京都","city":"中央区","address":"中央区日本橋浜町3-37-1","lat":35.685518,"lon":139.791302},{"name":"堀留町児童館","province":"東京都","city":"中央区","address":"中央区日本橋堀留町1-1-1","lat":35.687412,"lon":139.778963},{"name":"新川児童館","province":"東京都","city":"中央区","address":"中央区新川2-13-4","lat":35.675969,"lon":139.781568},{"name":"築地児童館","province":"東京都","city":"中央区","address":"中央区築地7-9-17","lat":35.666223,"lon":139.775883},{"name":"佃児童館","province":"東京都","city":"中央区","address":"中央区佃1-11-1","lat":35.668925,"lon":139.784726},{"name":"月島児童館","province":"東京都","city":"中央区","address":"中央区月島4-1-1","lat":35.662059,"lon":139.782141},{"name":"晴海児童館","province":"東京都","city":"中央区","address":"中央区晴海2-4-31","lat":35.654907,"lon":139.783935},{"name":"勝どき児童館","province":"東京都","city":"中央区","address":"中央区勝どき1-8-1","lat":35.659665,"lon":139.776583},{"name":"中央区立福祉センターふれあい作業所","province":"東京都","city":"中央区","address":"中央区晴海1-4-1","lat":35.658851,"lon":139.785538},{"name":"中央区社会福祉協議会","province":"東京都","city":"中央区","address":"中央区八丁堀4-1-51~3階","lat":35.674147,"lon":139.773013},{"name":"\"中央区立京橋図書館 \"","province":"東京都","city":"中央区","address":"東京都中央区新富1-13-14","lat":35.673688,"lon":139.7756},{"name":"中央区立日本橋図書館","province":"東京都","city":"中央区","address":"東京都中央区日本橋人形町1-1-17","lat":35.684273,"lon":139.78123},{"name":"\"中央区立月島図書館 \"","province":"東京都","city":"中央区","address":"東京都中央区月島4-1-1","lat":35.661921,"lon":139.78192},{"name":"浜町児童館","province":"東京都","city":"中央区","address":"中央区日本橋浜町3-37-1","lat":35.68542,"lon":139.79137},{"name":"堀留町児童館","province":"東京都","city":"中央区","address":"中央区日本橋堀留町1-1-1","lat":35.68706,"lon":139.77928},{"name":"新川児童館","province":"東京都","city":"中央区","address":"中央区新川2-13-4","lat":35.67582,"lon":139.78195},{"name":"築地児童館","province":"東京都","city":"中央区","address":"中央区築地7-9-17","lat":35.66639,"lon":139.77567},{"name":"佃児童館","province":"東京都","city":"中央区","address":"中央区佃1-11-1","lat":35.66927,"lon":139.7834},{"name":"月島児童館","province":"東京都","city":"中央区","address":"中央区月島4-1-1","lat":35.66207,"lon":139.78218},{"name":"晴海児童館","province":"東京都","city":"中央区","address":"中央区晴海2-4-31","lat":35.65434,"lon":139.784},{"name":"勝どき児童館","province":"東京都","city":"中央区","address":"中央区勝どき1-8-1","lat":35.65958,"lon":139.77692},{"name":"中央区立福祉センターふれあい作業所","province":"東京都","city":"中央区","address":"中央区晴海1-4-1","lat":35.65868,"lon":139.78584},{"name":"中央区社会福祉協議会","province":"東京都","city":"中央区","address":"中央区八丁堀4-1-5","lat":35.67435,"lon":139.77295},{"name":"三井記念美術館","province":"東京都","city":"中央区","address":"中央区日本橋室町2-1-1三井会館7階","lat":35.686293,"lon":139.772996},{"name":"晴海給水所","province":"東京都","city":"中央区","address":"東京都中央区晴海1丁目6-3","lat":35.65852366,"lon":139.78411284},{"name":"区立あかつき公園","province":"東京都","city":"中央区","address":"東京都中央区築地7丁目19-1","lat":35.66666142,"lon":139.7758105},{"name":"区立堀留児童公園","province":"東京都","city":"中央区","address":"東京都中央区日本橋堀留町1丁目1-16","lat":35.68635386,"lon":139.77931298},{"name":"一般財団法人青少年国際交流推進センター","province":"東京都","city":"中央区","address":"中央区日本橋人形町2-35-14東京海苔会館6階","lat":35.68178843,"lon":139.7897102},{"name":"＊?月島社会教育会館","province":"東京都","city":"中央区","address":"中央区月島4-1-1月島区民センター内","lat":35.662043,"lon":139.782269},{"name":"＊?月島社会教育会館晴海分館アートはるみ","province":"東京都","city":"中央区","address":"中央区晴海1-4-1月島第三小学校等複合施設内","lat":35.659003,"lon":139.785775},{"name":"＊?築地社会教育会館","province":"東京都","city":"中央区","address":"中央区築地4-15-1","lat":35.666501,"lon":139.768069},{"name":"＊?日本橋社会教育会館","province":"東京都","city":"中央区","address":"中央区日本橋人形町1-1-17日本橋小学校等複合施設内","lat":35.684764,"lon":139.781493},{"name":"＊?郷土天文館","province":"東京都","city":"中央区","address":"中央区明石町12-1","lat":35.666635,"lon":139.776739},{"name":"＊?京橋図書館","province":"東京都","city":"中央区","address":"中央区築地1-1-1","lat":35.67063,"lon":139.772},{"name":"＊?日本橋図書館","province":"東京都","city":"中央区","address":"中央区日本橋人形町1-1-17","lat":35.684773,"lon":139.781493},{"name":"＊?月島図書館","province":"東京都","city":"中央区","address":"中央区月島4-1-1","lat":35.662043,"lon":139.782269},{"name":"中央区本庁舎","province":"東京都","city":"中央区","address":"中央区築地1-1-1","lat":35.670651,"lon":139.771861},{"name":"第一方面交通機動隊","province":"東京都","city":"中央区","address":"中央区晴海1-1-24","lat":35.66121,"lon":139.7874},{"name":"中央警察署","province":"東京都","city":"中央区","address":"中央区日本橋兜町14-2","lat":35.68044,"lon":139.7771},{"name":"月島警察署","province":"東京都","city":"中央区","address":"中央区勝どき6-7-19","lat":35.65475,"lon":139.7715},{"name":"築地警察署","province":"東京都","city":"中央区","address":"中央区築地1-6-1","lat":35.67025,"lon":139.7714},{"name":"久松警察署","province":"東京都","city":"中央区","address":"中央区日本橋久松町8-1","lat":35.68836,"lon":139.7847},{"name":"京橋消防署","province":"東京都","city":"中央区","address":"中央区京橋3-14-1","lat":35.67439,"lon":139.7723},{"name":"日本橋消防署","province":"東京都","city":"中央区","address":"中央区日本橋兜町14-12","lat":35.68013,"lon":139.7776},{"name":"臨港消防署","province":"東京都","city":"中央区","address":"中央区晴海5-1-27","lat":35.6519,"lon":139.7736},{"name":"中央清掃工場","province":"東京都","city":"中央区","address":"中央区晴海5-2-1","lat":35.65247,"lon":139.7759},{"name":"中央区立月島運動場","province":"東京都","city":"中央区","address":"中央区晴海1-3-29","lat":35.65917,"lon":139.7863},{"name":"新川","province":"東京都","city":"中央区","address":"中央区新川2丁目地先","lat":35.67488,"lon":139.7825},{"name":"明石町","province":"東京都","city":"中央区","address":"中央区明石町地先","lat":35.66779,"lon":139.7771},{"name":"箱崎町","province":"東京都","city":"中央区","address":"中央区日本橋箱崎町地先","lat":35.68021,"lon":139.7854},{"name":"東京電力（株）銀座支社","province":"東京都","city":"中央区","address":"中央区銀座3-3-18","lat":35.67324,"lon":139.7653},{"name":"新川二丁目５番緑地","province":"東京都","city":"中央区","address":"東京都中央区新川2丁目5-9","lat":35.67653268,"lon":139.78056802},{"name":"浜町児童館","province":"東京都","city":"中央区","address":"中央区日本橋浜町3-37-1","lat":35.685518,"lon":139.791302},{"name":"堀留町児童館","province":"東京都","city":"中央区","address":"中央区日本橋堀留町1-1-1","lat":35.687412,"lon":139.778963},{"name":"新川児童館","province":"東京都","city":"中央区","address":"中央区新川2-13-4","lat":35.675969,"lon":139.781568},{"name":"築地児童館","province":"東京都","city":"中央区","address":"中央区築地7-9-17","lat":35.666223,"lon":139.775883},{"name":"佃児童館","province":"東京都","city":"中央区","address":"中央区佃1-11-1","lat":35.668925,"lon":139.784726},{"name":"月島児童館","province":"東京都","city":"中央区","address":"中央区月島4-1-1","lat":35.662059,"lon":139.782141},{"name":"晴海児童館","province":"東京都","city":"中央区","address":"中央区晴海2-4-31","lat":35.654907,"lon":139.783935},{"name":"勝どき児童館","province":"東京都","city":"中央区","address":"中央区勝どき1-8-1","lat":35.659665,"lon":139.776583},{"name":"中央区立福祉センターふれあい作業所","province":"東京都","city":"中央区","address":"中央区晴海1-4-1","lat":35.658851,"lon":139.785538},{"name":"中央区社会福祉協議会","province":"東京都","city":"中央区","address":"中央区八丁堀4-1-51~3階","lat":35.674147,"lon":139.773013},{"name":"\"中央区立京橋図書館 \"","province":"東京都","city":"中央区","address":"東京都中央区新富1-13-14","lat":35.673688,"lon":139.7756},{"name":"中央区立日本橋図書館","province":"東京都","city":"中央区","address":"東京都中央区日本橋人形町1-1-17","lat":35.684273,"lon":139.78123},{"name":"\"中央区立月島図書館 \"","province":"東京都","city":"中央区","address":"東京都中央区月島4-1-1","lat":35.661921,"lon":139.78192},{"name":"浜町児童館","province":"東京都","city":"中央区","address":"中央区日本橋浜町3-37-1","lat":35.68542,"lon":139.79137},{"name":"堀留町児童館","province":"東京都","city":"中央区","address":"中央区日本橋堀留町1-1-1","lat":35.68706,"lon":139.77928},{"name":"新川児童館","province":"東京都","city":"中央区","address":"中央区新川2-13-4","lat":35.67582,"lon":139.78195},{"name":"築地児童館","province":"東京都","city":"中央区","address":"中央区築地7-9-17","lat":35.66639,"lon":139.77567},{"name":"佃児童館","province":"東京都","city":"中央区","address":"中央区佃1-11-1","lat":35.66927,"lon":139.7834},{"name":"月島児童館","province":"東京都","city":"中央区","address":"中央区月島4-1-1","lat":35.66207,"lon":139.78218},{"name":"晴海児童館","province":"東京都","city":"中央区","address":"中央区晴海2-4-31","lat":35.65434,"lon":139.784},{"name":"勝どき児童館","province":"東京都","city":"中央区","address":"中央区勝どき1-8-1","lat":35.65958,"lon":139.77692},{"name":"中央区立福祉センターふれあい作業所","province":"東京都","city":"中央区","address":"中央区晴海1-4-1","lat":35.65868,"lon":139.78584},{"name":"中央区社会福祉協議会","province":"東京都","city":"中央区","address":"中央区八丁堀4-1-5","lat":35.67435,"lon":139.77295},{"name":"三井記念美術館","province":"東京都","city":"中央区","address":"中央区日本橋室町2-1-1三井会館7階","lat":35.686293,"lon":139.772996},{"name":"＊?月島社会教育会館","province":"東京都","city":"中央区","address":"中央区月島4-1-1月島区民センター内","lat":35.662043,"lon":139.782269},{"name":"＊?月島社会教育会館晴海分館アートはるみ","province":"東京都","city":"中央区","address":"中央区晴海1-4-1月島第三小学校等複合施設内","lat":35.659003,"lon":139.785775},{"name":"＊?築地社会教育会館","province":"東京都","city":"中央区","address":"中央区築地4-15-1","lat":35.666501,"lon":139.768069},{"name":"＊?日本橋社会教育会館","province":"東京都","city":"中央区","address":"中央区日本橋人形町1-1-17日本橋小学校等複合施設内","lat":35.684764,"lon":139.781493},{"name":"＊?郷土天文館","province":"東京都","city":"中央区","address":"中央区明石町12-1","lat":35.666635,"lon":139.776739},{"name":"＊?京橋図書館","province":"東京都","city":"中央区","address":"中央区築地1-1-1","lat":35.67063,"lon":139.772},{"name":"＊?日本橋図書館","province":"東京都","city":"中央区","address":"中央区日本橋人形町1-1-17","lat":35.684773,"lon":139.781493},{"name":"＊?月島図書館","province":"東京都","city":"中央区","address":"中央区月島4-1-1","lat":35.662043,"lon":139.782269},{"name":"新川二丁目５番緑地","province":"東京都","city":"中央区","address":"東京都中央区新川2丁目5-9","lat":35.67653268,"lon":139.78056802},{"name":"浜町児童館","province":"東京都","city":"中央区","address":"中央区日本橋浜町3-37-1","lat":35.685518,"lon":139.791302},{"name":"堀留町児童館","province":"東京都","city":"中央区","address":"中央区日本橋堀留町1-1-1","lat":35.687412,"lon":139.778963},{"name":"新川児童館","province":"東京都","city":"中央区","address":"中央区新川2-13-4","lat":35.675969,"lon":139.781568},{"name":"築地児童館","province":"東京都","city":"中央区","address":"中央区築地7-9-17","lat":35.666223,"lon":139.775883},{"name":"佃児童館","province":"東京都","city":"中央区","address":"中央区佃1-11-1","lat":35.668925,"lon":139.784726},{"name":"月島児童館","province":"東京都","city":"中央区","address":"中央区月島4-1-1","lat":35.662059,"lon":139.782141},{"name":"晴海児童館","province":"東京都","city":"中央区","address":"中央区晴海2-4-31","lat":35.654907,"lon":139.783935},{"name":"勝どき児童館","province":"東京都","city":"中央区","address":"中央区勝どき1-8-1","lat":35.659665,"lon":139.776583},{"name":"中央区立福祉センターふれあい作業所","province":"東京都","city":"中央区","address":"中央区晴海1-4-1","lat":35.658851,"lon":139.785538},{"name":"中央区社会福祉協議会","province":"東京都","city":"中央区","address":"中央区八丁堀4-1-51~3階","lat":35.674147,"lon":139.773013},{"name":"\"中央区立京橋図書館 \"","province":"東京都","city":"中央区","address":"東京都中央区新富1-13-14","lat":35.673688,"lon":139.7756},{"name":"中央区立日本橋図書館","province":"東京都","city":"中央区","address":"東京都中央区日本橋人形町1-1-17","lat":35.684273,"lon":139.78123},{"name":"\"中央区立月島図書館 \"","province":"東京都","city":"中央区","address":"東京都中央区月島4-1-1","lat":35.661921,"lon":139.78192},{"name":"浜町児童館","province":"東京都","city":"中央区","address":"中央区日本橋浜町3-37-1","lat":35.68542,"lon":139.79137},{"name":"堀留町児童館","province":"東京都","city":"中央区","address":"中央区日本橋堀留町1-1-1","lat":35.68706,"lon":139.77928},{"name":"新川児童館","province":"東京都","city":"中央区","address":"中央区新川2-13-4","lat":35.67582,"lon":139.78195},{"name":"築地児童館","province":"東京都","city":"中央区","address":"中央区築地7-9-17","lat":35.66639,"lon":139.77567},{"name":"佃児童館","province":"東京都","city":"中央区","address":"中央区佃1-11-1","lat":35.66927,"lon":139.7834},{"name":"月島児童館","province":"東京都","city":"中央区","address":"中央区月島4-1-1","lat":35.66207,"lon":139.78218},{"name":"晴海児童館","province":"東京都","city":"中央区","address":"中央区晴海2-4-31","lat":35.65434,"lon":139.784},{"name":"勝どき児童館","province":"東京都","city":"中央区","address":"中央区勝どき1-8-1","lat":35.65958,"lon":139.77692},{"name":"中央区立福祉センターふれあい作業所","province":"東京都","city":"中央区","address":"中央区晴海1-4-1","lat":35.65868,"lon":139.78584},{"name":"中央区社会福祉協議会","province":"東京都","city":"中央区","address":"中央区八丁堀4-1-5","lat":35.67435,"lon":139.77295},{"name":"三井記念美術館","province":"東京都","city":"中央区","address":"中央区日本橋室町2-1-1三井会館7階","lat":35.686293,"lon":139.772996},{"name":"＊?月島社会教育会館","province":"東京都","city":"中央区","address":"中央区月島4-1-1月島区民センター内","lat":35.662043,"lon":139.782269},{"name":"＊?月島社会教育会館晴海分館アートはるみ","province":"東京都","city":"中央区","address":"中央区晴海1-4-1月島第三小学校等複合施設内","lat":35.659003,"lon":139.785775},{"name":"＊?築地社会教育会館","province":"東京都","city":"中央区","address":"中央区築地4-15-1","lat":35.666501,"lon":139.768069},{"name":"＊?日本橋社会教育会館","province":"東京都","city":"中央区","address":"中央区日本橋人形町1-1-17日本橋小学校等複合施設内","lat":35.684764,"lon":139.781493},{"name":"＊?郷土天文館","province":"東京都","city":"中央区","address":"中央区明石町12-1","lat":35.666635,"lon":139.776739},{"name":"＊?京橋図書館","province":"東京都","city":"中央区","address":"中央区築地1-1-1","lat":35.67063,"lon":139.772},{"name":"＊?日本橋図書館","province":"東京都","city":"中央区","address":"中央区日本橋人形町1-1-17","lat":35.684773,"lon":139.781493},{"name":"＊?月島図書館","province":"東京都","city":"中央区","address":"中央区月島4-1-1","lat":35.662043,"lon":139.782269},{"name":"新川二丁目５番緑地","province":"東京都","city":"中央区","address":"東京都中央区新川2丁目5-9","lat":35.67653268,"lon":139.78056802},{"name":"浜町児童館","province":"東京都","city":"中央区","address":"中央区日本橋浜町3-37-1","lat":35.685518,"lon":139.791302},{"name":"堀留町児童館","province":"東京都","city":"中央区","address":"中央区日本橋堀留町1-1-1","lat":35.687412,"lon":139.778963},{"name":"新川児童館","province":"東京都","city":"中央区","address":"中央区新川2-13-4","lat":35.675969,"lon":139.781568},{"name":"築地児童館","province":"東京都","city":"中央区","address":"中央区築地7-9-17","lat":35.666223,"lon":139.775883},{"name":"佃児童館","province":"東京都","city":"中央区","address":"中央区佃1-11-1","lat":35.668925,"lon":139.784726},{"name":"月島児童館","province":"東京都","city":"中央区","address":"中央区月島4-1-1","lat":35.662059,"lon":139.782141},{"name":"晴海児童館","province":"東京都","city":"中央区","address":"中央区晴海2-4-31","lat":35.654907,"lon":139.783935},{"name":"勝どき児童館","province":"東京都","city":"中央区","address":"中央区勝どき1-8-1","lat":35.659665,"lon":139.776583},{"name":"\"中央区立京橋図書館 \"","province":"東京都","city":"中央区","address":"東京都中央区新富1-13-14","lat":35.673688,"lon":139.7756},{"name":"中央区立日本橋図書館","province":"東京都","city":"中央区","address":"東京都中央区日本橋人形町1-1-17","lat":35.684273,"lon":139.78123},{"name":"\"中央区立月島図書館 \"","province":"東京都","city":"中央区","address":"東京都中央区月島4-1-1","lat":35.661921,"lon":139.78192},{"name":"浜町児童館","province":"東京都","city":"中央区","address":"中央区日本橋浜町3-37-1","lat":35.68542,"lon":139.79137},{"name":"堀留町児童館","province":"東京都","city":"中央区","address":"中央区日本橋堀留町1-1-1","lat":35.68706,"lon":139.77928},{"name":"新川児童館","province":"東京都","city":"中央区","address":"中央区新川2-13-4","lat":35.67582,"lon":139.78195},{"name":"築地児童館","province":"東京都","city":"中央区","address":"中央区築地7-9-17","lat":35.66639,"lon":139.77567},{"name":"佃児童館","province":"東京都","city":"中央区","address":"中央区佃1-11-1","lat":35.66927,"lon":139.7834},{"name":"月島児童館","province":"東京都","city":"中央区","address":"中央区月島4-1-1","lat":35.66207,"lon":139.78218},{"name":"晴海児童館","province":"東京都","city":"中央区","address":"中央区晴海2-4-31","lat":35.65434,"lon":139.784},{"name":"勝どき児童館","province":"東京都","city":"中央区","address":"中央区勝どき1-8-1","lat":35.65958,"lon":139.77692},{"name":"三井記念美術館","province":"東京都","city":"中央区","address":"中央区日本橋室町2-1-1三井会館7階","lat":35.686293,"lon":139.772996},{"name":"＊?郷土天文館","province":"東京都","city":"中央区","address":"中央区明石町12-1","lat":35.666635,"lon":139.776739},{"name":"＊?京橋図書館","province":"東京都","city":"中央区","address":"中央区築地1-1-1","lat":35.67063,"lon":139.772},{"name":"＊?日本橋図書館","province":"東京都","city":"中央区","address":"中央区日本橋人形町1-1-17","lat":35.684773,"lon":139.781493},{"name":"＊?月島図書館","province":"東京都","city":"中央区","address":"中央区月島4-1-1","lat":35.662043,"lon":139.782269},{"name":"浜町児童館","province":"東京都","city":"中央区","address":"中央区日本橋浜町3-37-1","lat":35.685518,"lon":139.791302},{"name":"堀留町児童館","province":"東京都","city":"中央区","address":"中央区日本橋堀留町1-1-1","lat":35.687412,"lon":139.778963},{"name":"新川児童館","province":"東京都","city":"中央区","address":"中央区新川2-13-4","lat":35.675969,"lon":139.781568},{"name":"築地児童館","province":"東京都","city":"中央区","address":"中央区築地7-9-17","lat":35.666223,"lon":139.775883},{"name":"佃児童館","province":"東京都","city":"中央区","address":"中央区佃1-11-1","lat":35.668925,"lon":139.784726},{"name":"月島児童館","province":"東京都","city":"中央区","address":"中央区月島4-1-1","lat":35.662059,"lon":139.782141},{"name":"晴海児童館","province":"東京都","city":"中央区","address":"中央区晴海2-4-31","lat":35.654907,"lon":139.783935},{"name":"勝どき児童館","province":"東京都","city":"中央区","address":"中央区勝どき1-8-1","lat":35.659665,"lon":139.776583},{"name":"\"中央区立京橋図書館 \"","province":"東京都","city":"中央区","address":"東京都中央区新富1-13-14","lat":35.673688,"lon":139.7756},{"name":"中央区立日本橋図書館","province":"東京都","city":"中央区","address":"東京都中央区日本橋人形町1-1-17","lat":35.684273,"lon":139.78123},{"name":"\"中央区立月島図書館 \"","province":"東京都","city":"中央区","address":"東京都中央区月島4-1-1","lat":35.661921,"lon":139.78192},{"name":"浜町児童館","province":"東京都","city":"中央区","address":"中央区日本橋浜町3-37-1","lat":35.68542,"lon":139.79137},{"name":"堀留町児童館","province":"東京都","city":"中央区","address":"中央区日本橋堀留町1-1-1","lat":35.68706,"lon":139.77928},{"name":"新川児童館","province":"東京都","city":"中央区","address":"中央区新川2-13-4","lat":35.67582,"lon":139.78195},{"name":"築地児童館","province":"東京都","city":"中央区","address":"中央区築地7-9-17","lat":35.66639,"lon":139.77567},{"name":"佃児童館","province":"東京都","city":"中央区","address":"中央区佃1-11-1","lat":35.66927,"lon":139.7834},{"name":"月島児童館","province":"東京都","city":"中央区","address":"中央区月島4-1-1","lat":35.66207,"lon":139.78218},{"name":"晴海児童館","province":"東京都","city":"中央区","address":"中央区晴海2-4-31","lat":35.65434,"lon":139.784},{"name":"勝どき児童館","province":"東京都","city":"中央区","address":"中央区勝どき1-8-1","lat":35.65958,"lon":139.77692},{"name":"三井記念美術館","province":"東京都","city":"中央区","address":"中央区日本橋室町2-1-1三井会館7階","lat":35.686293,"lon":139.772996},{"name":"＊?郷土天文館","province":"東京都","city":"中央区","address":"中央区明石町12-1","lat":35.666635,"lon":139.776739},{"name":"＊?京橋図書館","province":"東京都","city":"中央区","address":"中央区築地1-1-1","lat":35.67063,"lon":139.772},{"name":"＊?日本橋図書館","province":"東京都","city":"中央区","address":"中央区日本橋人形町1-1-17","lat":35.684773,"lon":139.781493},{"name":"＊?月島図書館","province":"東京都","city":"中央区","address":"中央区月島4-1-1","lat":35.662043,"lon":139.782269},{"name":"浜町児童館","province":"東京都","city":"中央区","address":"中央区日本橋浜町3-37-1","lat":35.685518,"lon":139.791302},{"name":"堀留町児童館","province":"東京都","city":"中央区","address":"中央区日本橋堀留町1-1-1","lat":35.687412,"lon":139.778963},{"name":"新川児童館","province":"東京都","city":"中央区","address":"中央区新川2-13-4","lat":35.675969,"lon":139.781568},{"name":"築地児童館","province":"東京都","city":"中央区","address":"中央区築地7-9-17","lat":35.666223,"lon":139.775883},{"name":"佃児童館","province":"東京都","city":"中央区","address":"中央区佃1-11-1","lat":35.668925,"lon":139.784726},{"name":"月島児童館","province":"東京都","city":"中央区","address":"中央区月島4-1-1","lat":35.662059,"lon":139.782141},{"name":"晴海児童館","province":"東京都","city":"中央区","address":"中央区晴海2-4-31","lat":35.654907,"lon":139.783935},{"name":"勝どき児童館","province":"東京都","city":"中央区","address":"中央区勝どき1-8-1","lat":35.659665,"lon":139.776583},{"name":"\"中央区立京橋図書館 \"","province":"東京都","city":"中央区","address":"東京都中央区新富1-13-14","lat":35.673688,"lon":139.7756},{"name":"中央区立日本橋図書館","province":"東京都","city":"中央区","address":"東京都中央区日本橋人形町1-1-17","lat":35.684273,"lon":139.78123},{"name":"\"中央区立月島図書館 \"","province":"東京都","city":"中央区","address":"東京都中央区月島4-1-1","lat":35.661921,"lon":139.78192},{"name":"浜町児童館","province":"東京都","city":"中央区","address":"中央区日本橋浜町3-37-1","lat":35.68542,"lon":139.79137},{"name":"堀留町児童館","province":"東京都","city":"中央区","address":"中央区日本橋堀留町1-1-1","lat":35.68706,"lon":139.77928},{"name":"新川児童館","province":"東京都","city":"中央区","address":"中央区新川2-13-4","lat":35.67582,"lon":139.78195},{"name":"築地児童館","province":"東京都","city":"中央区","address":"中央区築地7-9-17","lat":35.66639,"lon":139.77567},{"name":"佃児童館","province":"東京都","city":"中央区","address":"中央区佃1-11-1","lat":35.66927,"lon":139.7834},{"name":"月島児童館","province":"東京都","city":"中央区","address":"中央区月島4-1-1","lat":35.66207,"lon":139.78218},{"name":"晴海児童館","province":"東京都","city":"中央区","address":"中央区晴海2-4-31","lat":35.65434,"lon":139.784},{"name":"勝どき児童館","province":"東京都","city":"中央区","address":"中央区勝どき1-8-1","lat":35.65958,"lon":139.77692},{"name":"三井記念美術館","province":"東京都","city":"中央区","address":"中央区日本橋室町2-1-1三井会館7階","lat":35.686293,"lon":139.772996},{"name":"＊?郷土天文館","province":"東京都","city":"中央区","address":"中央区明石町12-1","lat":35.666635,"lon":139.776739},{"name":"＊?京橋図書館","province":"東京都","city":"中央区","address":"中央区築地1-1-1","lat":35.67063,"lon":139.772},{"name":"＊?日本橋図書館","province":"東京都","city":"中央区","address":"中央区日本橋人形町1-1-17","lat":35.684773,"lon":139.781493},{"name":"＊?月島図書館","province":"東京都","city":"中央区","address":"中央区月島4-1-1","lat":35.662043,"lon":139.782269},{"name":"浜町児童館","province":"東京都","city":"中央区","address":"中央区日本橋浜町3-37-1","lat":35.685518,"lon":139.791302},{"name":"堀留町児童館","province":"東京都","city":"中央区","address":"中央区日本橋堀留町1-1-1","lat":35.687412,"lon":139.778963},{"name":"新川児童館","province":"東京都","city":"中央区","address":"中央区新川2-13-4","lat":35.675969,"lon":139.781568},{"name":"築地児童館","province":"東京都","city":"中央区","address":"中央区築地7-9-17","lat":35.666223,"lon":139.775883},{"name":"佃児童館","province":"東京都","city":"中央区","address":"中央区佃1-11-1","lat":35.668925,"lon":139.784726},{"name":"月島児童館","province":"東京都","city":"中央区","address":"中央区月島4-1-1","lat":35.662059,"lon":139.782141},{"name":"晴海児童館","province":"東京都","city":"中央区","address":"中央区晴海2-4-31","lat":35.654907,"lon":139.783935},{"name":"勝どき児童館","province":"東京都","city":"中央区","address":"中央区勝どき1-8-1","lat":35.659665,"lon":139.776583},{"name":"\"中央区立京橋図書館 \"","province":"東京都","city":"中央区","address":"東京都中央区新富1-13-14","lat":35.673688,"lon":139.7756},{"name":"中央区立日本橋図書館","province":"東京都","city":"中央区","address":"東京都中央区日本橋人形町1-1-17","lat":35.684273,"lon":139.78123},{"name":"\"中央区立月島図書館 \"","province":"東京都","city":"中央区","address":"東京都中央区月島4-1-1","lat":35.661921,"lon":139.78192},{"name":"浜町児童館","province":"東京都","city":"中央区","address":"中央区日本橋浜町3-37-1","lat":35.68542,"lon":139.79137},{"name":"堀留町児童館","province":"東京都","city":"中央区","address":"中央区日本橋堀留町1-1-1","lat":35.68706,"lon":139.77928},{"name":"新川児童館","province":"東京都","city":"中央区","address":"中央区新川2-13-4","lat":35.67582,"lon":139.78195},{"name":"築地児童館","province":"東京都","city":"中央区","address":"中央区築地7-9-17","lat":35.66639,"lon":139.77567},{"name":"佃児童館","province":"東京都","city":"中央区","address":"中央区佃1-11-1","lat":35.66927,"lon":139.7834},{"name":"月島児童館","province":"東京都","city":"中央区","address":"中央区月島4-1-1","lat":35.66207,"lon":139.78218},{"name":"晴海児童館","province":"東京都","city":"中央区","address":"中央区晴海2-4-31","lat":35.65434,"lon":139.784},{"name":"勝どき児童館","province":"東京都","city":"中央区","address":"中央区勝どき1-8-1","lat":35.65958,"lon":139.77692},{"name":"三井記念美術館","province":"東京都","city":"中央区","address":"中央区日本橋室町2-1-1三井会館7階","lat":35.686293,"lon":139.772996},{"name":"＊?郷土天文館","province":"東京都","city":"中央区","address":"中央区明石町12-1","lat":35.666635,"lon":139.776739},{"name":"＊?京橋図書館","province":"東京都","city":"中央区","address":"中央区築地1-1-1","lat":35.67063,"lon":139.772},{"name":"＊?日本橋図書館","province":"東京都","city":"中央区","address":"中央区日本橋人形町1-1-17","lat":35.684773,"lon":139.781493},{"name":"＊?月島図書館","province":"東京都","city":"中央区","address":"中央区月島4-1-1","lat":35.662043,"lon":139.782269},{"name":"浜町児童館","province":"東京都","city":"中央区","address":"中央区日本橋浜町3-37-1","lat":35.685518,"lon":139.791302},{"name":"堀留町児童館","province":"東京都","city":"中央区","address":"中央区日本橋堀留町1-1-1","lat":35.687412,"lon":139.778963},{"name":"新川児童館","province":"東京都","city":"中央区","address":"中央区新川2-13-4","lat":35.675969,"lon":139.781568},{"name":"築地児童館","province":"東京都","city":"中央区","address":"中央区築地7-9-17","lat":35.666223,"lon":139.775883},{"name":"佃児童館","province":"東京都","city":"中央区","address":"中央区佃1-11-1","lat":35.668925,"lon":139.784726},{"name":"月島児童館","province":"東京都","city":"中央区","address":"中央区月島4-1-1","lat":35.662059,"lon":139.782141},{"name":"晴海児童館","province":"東京都","city":"中央区","address":"中央区晴海2-4-31","lat":35.654907,"lon":139.783935},{"name":"勝どき児童館","province":"東京都","city":"中央区","address":"中央区勝どき1-8-1","lat":35.659665,"lon":139.776583},{"name":"\"中央区立京橋図書館 \"","province":"東京都","city":"中央区","address":"東京都中央区新富1-13-14","lat":35.673688,"lon":139.7756},{"name":"中央区立日本橋図書館","province":"東京都","city":"中央区","address":"東京都中央区日本橋人形町1-1-17","lat":35.684273,"lon":139.78123},{"name":"\"中央区立月島図書館 \"","province":"東京都","city":"中央区","address":"東京都中央区月島4-1-1","lat":35.661921,"lon":139.78192},{"name":"浜町児童館","province":"東京都","city":"中央区","address":"中央区日本橋浜町3-37-1","lat":35.68542,"lon":139.79137},{"name":"堀留町児童館","province":"東京都","city":"中央区","address":"中央区日本橋堀留町1-1-1","lat":35.68706,"lon":139.77928},{"name":"新川児童館","province":"東京都","city":"中央区","address":"中央区新川2-13-4","lat":35.67582,"lon":139.78195},{"name":"築地児童館","province":"東京都","city":"中央区","address":"中央区築地7-9-17","lat":35.66639,"lon":139.77567},{"name":"佃児童館","province":"東京都","city":"中央区","address":"中央区佃1-11-1","lat":35.66927,"lon":139.7834},{"name":"月島児童館","province":"東京都","city":"中央区","address":"中央区月島4-1-1","lat":35.66207,"lon":139.78218},{"name":"晴海児童館","province":"東京都","city":"中央区","address":"中央区晴海2-4-31","lat":35.65434,"lon":139.784},{"name":"勝どき児童館","province":"東京都","city":"中央区","address":"中央区勝どき1-8-1","lat":35.65958,"lon":139.77692},{"name":"三井記念美術館","province":"東京都","city":"中央区","address":"中央区日本橋室町2-1-1三井会館7階","lat":35.686293,"lon":139.772996},{"name":"＊?郷土天文館","province":"東京都","city":"中央区","address":"中央区明石町12-1","lat":35.666635,"lon":139.776739},{"name":"＊?京橋図書館","province":"東京都","city":"中央区","address":"中央区築地1-1-1","lat":35.67063,"lon":139.772},{"name":"＊?日本橋図書館","province":"東京都","city":"中央区","address":"中央区日本橋人形町1-1-17","lat":35.684773,"lon":139.781493},{"name":"＊?月島図書館","province":"東京都","city":"中央区","address":"中央区月島4-1-1","lat":35.662043,"lon":139.782269},{"name":"浜町児童館","province":"東京都","city":"中央区","address":"中央区日本橋浜町3-37-1","lat":35.685518,"lon":139.791302},{"name":"堀留町児童館","province":"東京都","city":"中央区","address":"中央区日本橋堀留町1-1-1","lat":35.687412,"lon":139.778963},{"name":"新川児童館","province":"東京都","city":"中央区","address":"中央区新川2-13-4","lat":35.675969,"lon":139.781568},{"name":"築地児童館","province":"東京都","city":"中央区","address":"中央区築地7-9-17","lat":35.666223,"lon":139.775883},{"name":"佃児童館","province":"東京都","city":"中央区","address":"中央区佃1-11-1","lat":35.668925,"lon":139.784726},{"name":"月島児童館","province":"東京都","city":"中央区","address":"中央区月島4-1-1","lat":35.662059,"lon":139.782141},{"name":"晴海児童館","province":"東京都","city":"中央区","address":"中央区晴海2-4-31","lat":35.654907,"lon":139.783935},{"name":"勝どき児童館","province":"東京都","city":"中央区","address":"中央区勝どき1-8-1","lat":35.659665,"lon":139.776583},{"name":"\"中央区立京橋図書館 \"","province":"東京都","city":"中央区","address":"東京都中央区新富1-13-14","lat":35.673688,"lon":139.7756},{"name":"中央区立日本橋図書館","province":"東京都","city":"中央区","address":"東京都中央区日本橋人形町1-1-17","lat":35.684273,"lon":139.78123},{"name":"\"中央区立月島図書館 \"","province":"東京都","city":"中央区","address":"東京都中央区月島4-1-1","lat":35.661921,"lon":139.78192},{"name":"浜町児童館","province":"東京都","city":"中央区","address":"中央区日本橋浜町3-37-1","lat":35.68542,"lon":139.79137},{"name":"堀留町児童館","province":"東京都","city":"中央区","address":"中央区日本橋堀留町1-1-1","lat":35.68706,"lon":139.77928},{"name":"新川児童館","province":"東京都","city":"中央区","address":"中央区新川2-13-4","lat":35.67582,"lon":139.78195},{"name":"築地児童館","province":"東京都","city":"中央区","address":"中央区築地7-9-17","lat":35.66639,"lon":139.77567},{"name":"佃児童館","province":"東京都","city":"中央区","address":"中央区佃1-11-1","lat":35.66927,"lon":139.7834},{"name":"月島児童館","province":"東京都","city":"中央区","address":"中央区月島4-1-1","lat":35.66207,"lon":139.78218},{"name":"晴海児童館","province":"東京都","city":"中央区","address":"中央区晴海2-4-31","lat":35.65434,"lon":139.784},{"name":"勝どき児童館","province":"東京都","city":"中央区","address":"中央区勝どき1-8-1","lat":35.65958,"lon":139.77692},{"name":"三井記念美術館","province":"東京都","city":"中央区","address":"中央区日本橋室町2-1-1三井会館7階","lat":35.686293,"lon":139.772996},{"name":"＊?京橋図書館","province":"東京都","city":"中央区","address":"中央区築地1-1-1","lat":35.67063,"lon":139.772},{"name":"＊?日本橋図書館","province":"東京都","city":"中央区","address":"中央区日本橋人形町1-1-17","lat":35.684773,"lon":139.781493},{"name":"＊?月島図書館","province":"東京都","city":"中央区","address":"中央区月島4-1-1","lat":35.662043,"lon":139.782269},{"name":"浜町児童館","province":"東京都","city":"中央区","address":"中央区日本橋浜町3-37-1","lat":35.685518,"lon":139.791302},{"name":"堀留町児童館","province":"東京都","city":"中央区","address":"中央区日本橋堀留町1-1-1","lat":35.687412,"lon":139.778963},{"name":"新川児童館","province":"東京都","city":"中央区","address":"中央区新川2-13-4","lat":35.675969,"lon":139.781568},{"name":"築地児童館","province":"東京都","city":"中央区","address":"中央区築地7-9-17","lat":35.666223,"lon":139.775883},{"name":"佃児童館","province":"東京都","city":"中央区","address":"中央区佃1-11-1","lat":35.668925,"lon":139.784726},{"name":"月島児童館","province":"東京都","city":"中央区","address":"中央区月島4-1-1","lat":35.662059,"lon":139.782141},{"name":"晴海児童館","province":"東京都","city":"中央区","address":"中央区晴海2-4-31","lat":35.654907,"lon":139.783935},{"name":"勝どき児童館","province":"東京都","city":"中央区","address":"中央区勝どき1-8-1","lat":35.659665,"lon":139.776583},{"name":"\"中央区立京橋図書館 \"","province":"東京都","city":"中央区","address":"東京都中央区新富1-13-14","lat":35.673688,"lon":139.7756},{"name":"中央区立日本橋図書館","province":"東京都","city":"中央区","address":"東京都中央区日本橋人形町1-1-17","lat":35.684273,"lon":139.78123},{"name":"\"中央区立月島図書館 \"","province":"東京都","city":"中央区","address":"東京都中央区月島4-1-1","lat":35.661921,"lon":139.78192},{"name":"浜町児童館","province":"東京都","city":"中央区","address":"中央区日本橋浜町3-37-1","lat":35.68542,"lon":139.79137},{"name":"堀留町児童館","province":"東京都","city":"中央区","address":"中央区日本橋堀留町1-1-1","lat":35.68706,"lon":139.77928},{"name":"新川児童館","province":"東京都","city":"中央区","address":"中央区新川2-13-4","lat":35.67582,"lon":139.78195},{"name":"築地児童館","province":"東京都","city":"中央区","address":"中央区築地7-9-17","lat":35.66639,"lon":139.77567},{"name":"佃児童館","province":"東京都","city":"中央区","address":"中央区佃1-11-1","lat":35.66927,"lon":139.7834},{"name":"月島児童館","province":"東京都","city":"中央区","address":"中央区月島4-1-1","lat":35.66207,"lon":139.78218},{"name":"晴海児童館","province":"東京都","city":"中央区","address":"中央区晴海2-4-31","lat":35.65434,"lon":139.784},{"name":"勝どき児童館","province":"東京都","city":"中央区","address":"中央区勝どき1-8-1","lat":35.65958,"lon":139.77692},{"name":"三井記念美術館","province":"東京都","city":"中央区","address":"中央区日本橋室町2-1-1三井会館7階","lat":35.686293,"lon":139.772996},{"name":"＊?京橋図書館","province":"東京都","city":"中央区","address":"中央区築地1-1-1","lat":35.67063,"lon":139.772},{"name":"＊?日本橋図書館","province":"東京都","city":"中央区","address":"中央区日本橋人形町1-1-17","lat":35.684773,"lon":139.781493},{"name":"＊?月島図書館","province":"東京都","city":"中央区","address":"中央区月島4-1-1","lat":35.662043,"lon":139.782269},{"name":"浜町児童館","province":"東京都","city":"中央区","address":"中央区日本橋浜町3-37-1","lat":35.685518,"lon":139.791302},{"name":"堀留町児童館","province":"東京都","city":"中央区","address":"中央区日本橋堀留町1-1-1","lat":35.687412,"lon":139.778963},{"name":"新川児童館","province":"東京都","city":"中央区","address":"中央区新川2-13-4","lat":35.675969,"lon":139.781568},{"name":"築地児童館","province":"東京都","city":"中央区","address":"中央区築地7-9-17","lat":35.666223,"lon":139.775883},{"name":"佃児童館","province":"東京都","city":"中央区","address":"中央区佃1-11-1","lat":35.668925,"lon":139.784726},{"name":"月島児童館","province":"東京都","city":"中央区","address":"中央区月島4-1-1","lat":35.662059,"lon":139.782141},{"name":"晴海児童館","province":"東京都","city":"中央区","address":"中央区晴海2-4-31","lat":35.654907,"lon":139.783935},{"name":"勝どき児童館","province":"東京都","city":"中央区","address":"中央区勝どき1-8-1","lat":35.659665,"lon":139.776583},{"name":"\"中央区立京橋図書館 \"","province":"東京都","city":"中央区","address":"東京都中央区新富1-13-14","lat":35.673688,"lon":139.7756},{"name":"中央区立日本橋図書館","province":"東京都","city":"中央区","address":"東京都中央区日本橋人形町1-1-17","lat":35.684273,"lon":139.78123},{"name":"\"中央区立月島図書館 \"","province":"東京都","city":"中央区","address":"東京都中央区月島4-1-1","lat":35.661921,"lon":139.78192},{"name":"浜町児童館","province":"東京都","city":"中央区","address":"中央区日本橋浜町3-37-1","lat":35.68542,"lon":139.79137},{"name":"堀留町児童館","province":"東京都","city":"中央区","address":"中央区日本橋堀留町1-1-1","lat":35.68706,"lon":139.77928},{"name":"新川児童館","province":"東京都","city":"中央区","address":"中央区新川2-13-4","lat":35.67582,"lon":139.78195},{"name":"築地児童館","province":"東京都","city":"中央区","address":"中央区築地7-9-17","lat":35.66639,"lon":139.77567},{"name":"佃児童館","province":"東京都","city":"中央区","address":"中央区佃1-11-1","lat":35.66927,"lon":139.7834},{"name":"月島児童館","province":"東京都","city":"中央区","address":"中央区月島4-1-1","lat":35.66207,"lon":139.78218},{"name":"晴海児童館","province":"東京都","city":"中央区","address":"中央区晴海2-4-31","lat":35.65434,"lon":139.784},{"name":"勝どき児童館","province":"東京都","city":"中央区","address":"中央区勝どき1-8-1","lat":35.65958,"lon":139.77692},{"name":"三井記念美術館","province":"東京都","city":"中央区","address":"中央区日本橋室町2-1-1三井会館7階","lat":35.686293,"lon":139.772996},{"name":"＊?京橋図書館","province":"東京都","city":"中央区","address":"中央区築地1-1-1","lat":35.67063,"lon":139.772},{"name":"＊?日本橋図書館","province":"東京都","city":"中央区","address":"中央区日本橋人形町1-1-17","lat":35.684773,"lon":139.781493},{"name":"＊?月島図書館","province":"東京都","city":"中央区","address":"中央区月島4-1-1","lat":35.662043,"lon":139.782269},{"name":"浜町児童館","province":"東京都","city":"中央区","address":"中央区日本橋浜町3-37-1","lat":35.685518,"lon":139.791302},{"name":"堀留町児童館","province":"東京都","city":"中央区","address":"中央区日本橋堀留町1-1-1","lat":35.687412,"lon":139.778963},{"name":"新川児童館","province":"東京都","city":"中央区","address":"中央区新川2-13-4","lat":35.675969,"lon":139.781568},{"name":"築地児童館","province":"東京都","city":"中央区","address":"中央区築地7-9-17","lat":35.666223,"lon":139.775883},{"name":"佃児童館","province":"東京都","city":"中央区","address":"中央区佃1-11-1","lat":35.668925,"lon":139.784726},{"name":"月島児童館","province":"東京都","city":"中央区","address":"中央区月島4-1-1","lat":35.662059,"lon":139.782141},{"name":"晴海児童館","province":"東京都","city":"中央区","address":"中央区晴海2-4-31","lat":35.654907,"lon":139.783935},{"name":"勝どき児童館","province":"東京都","city":"中央区","address":"中央区勝どき1-8-1","lat":35.659665,"lon":139.776583},{"name":"\"中央区立京橋図書館 \"","province":"東京都","city":"中央区","address":"東京都中央区新富1-13-14","lat":35.673688,"lon":139.7756},{"name":"中央区立日本橋図書館","province":"東京都","city":"中央区","address":"東京都中央区日本橋人形町1-1-17","lat":35.684273,"lon":139.78123},{"name":"\"中央区立月島図書館 \"","province":"東京都","city":"中央区","address":"東京都中央区月島4-1-1","lat":35.661921,"lon":139.78192},{"name":"浜町児童館","province":"東京都","city":"中央区","address":"中央区日本橋浜町3-37-1","lat":35.68542,"lon":139.79137},{"name":"堀留町児童館","province":"東京都","city":"中央区","address":"中央区日本橋堀留町1-1-1","lat":35.68706,"lon":139.77928},{"name":"新川児童館","province":"東京都","city":"中央区","address":"中央区新川2-13-4","lat":35.67582,"lon":139.78195},{"name":"築地児童館","province":"東京都","city":"中央区","address":"中央区築地7-9-17","lat":35.66639,"lon":139.77567},{"name":"佃児童館","province":"東京都","city":"中央区","address":"中央区佃1-11-1","lat":35.66927,"lon":139.7834},{"name":"月島児童館","province":"東京都","city":"中央区","address":"中央区月島4-1-1","lat":35.66207,"lon":139.78218},{"name":"晴海児童館","province":"東京都","city":"中央区","address":"中央区晴海2-4-31","lat":35.65434,"lon":139.784},{"name":"勝どき児童館","province":"東京都","city":"中央区","address":"中央区勝どき1-8-1","lat":35.65958,"lon":139.77692},{"name":"三井記念美術館","province":"東京都","city":"中央区","address":"中央区日本橋室町2-1-1三井会館7階","lat":35.686293,"lon":139.772996},{"name":"＊?京橋図書館","province":"東京都","city":"中央区","address":"中央区築地1-1-1","lat":35.67063,"lon":139.772},{"name":"＊?日本橋図書館","province":"東京都","city":"中央区","address":"中央区日本橋人形町1-1-17","lat":35.684773,"lon":139.781493},{"name":"＊?月島図書館","province":"東京都","city":"中央区","address":"中央区月島4-1-1","lat":35.662043,"lon":139.782269},{"name":"浜町児童館","province":"東京都","city":"中央区","address":"中央区日本橋浜町3-37-1","lat":35.685518,"lon":139.791302},{"name":"堀留町児童館","province":"東京都","city":"中央区","address":"中央区日本橋堀留町1-1-1","lat":35.687412,"lon":139.778963},{"name":"新川児童館","province":"東京都","city":"中央区","address":"中央区新川2-13-4","lat":35.675969,"lon":139.781568},{"name":"築地児童館","province":"東京都","city":"中央区","address":"中央区築地7-9-17","lat":35.666223,"lon":139.775883},{"name":"佃児童館","province":"東京都","city":"中央区","address":"中央区佃1-11-1","lat":35.668925,"lon":139.784726},{"name":"月島児童館","province":"東京都","city":"中央区","address":"中央区月島4-1-1","lat":35.662059,"lon":139.782141},{"name":"晴海児童館","province":"東京都","city":"中央区","address":"中央区晴海2-4-31","lat":35.654907,"lon":139.783935},{"name":"勝どき児童館","province":"東京都","city":"中央区","address":"中央区勝どき1-8-1","lat":35.659665,"lon":139.776583},{"name":"\"中央区立京橋図書館 \"","province":"東京都","city":"中央区","address":"東京都中央区新富1-13-14","lat":35.673688,"lon":139.7756},{"name":"中央区立日本橋図書館","province":"東京都","city":"中央区","address":"東京都中央区日本橋人形町1-1-17","lat":35.684273,"lon":139.78123},{"name":"\"中央区立月島図書館 \"","province":"東京都","city":"中央区","address":"東京都中央区月島4-1-1","lat":35.661921,"lon":139.78192},{"name":"浜町児童館","province":"東京都","city":"中央区","address":"中央区日本橋浜町3-37-1","lat":35.68542,"lon":139.79137},{"name":"堀留町児童館","province":"東京都","city":"中央区","address":"中央区日本橋堀留町1-1-1","lat":35.68706,"lon":139.77928},{"name":"新川児童館","province":"東京都","city":"中央区","address":"中央区新川2-13-4","lat":35.67582,"lon":139.78195},{"name":"築地児童館","province":"東京都","city":"中央区","address":"中央区築地7-9-17","lat":35.66639,"lon":139.77567},{"name":"佃児童館","province":"東京都","city":"中央区","address":"中央区佃1-11-1","lat":35.66927,"lon":139.7834},{"name":"月島児童館","province":"東京都","city":"中央区","address":"中央区月島4-1-1","lat":35.66207,"lon":139.78218},{"name":"晴海児童館","province":"東京都","city":"中央区","address":"中央区晴海2-4-31","lat":35.65434,"lon":139.784},{"name":"勝どき児童館","province":"東京都","city":"中央区","address":"中央区勝どき1-8-1","lat":35.65958,"lon":139.77692},{"name":"三井記念美術館","province":"東京都","city":"中央区","address":"中央区日本橋室町2-1-1三井会館7階","lat":35.686293,"lon":139.772996},{"name":"＊?京橋図書館","province":"東京都","city":"中央区","address":"中央区築地1-1-1","lat":35.67063,"lon":139.772},{"name":"＊?日本橋図書館","province":"東京都","city":"中央区","address":"中央区日本橋人形町1-1-17","lat":35.684773,"lon":139.781493},{"name":"＊?月島図書館","province":"東京都","city":"中央区","address":"中央区月島4-1-1","lat":35.662043,"lon":139.782269},{"name":"浜町児童館","province":"東京都","city":"中央区","address":"中央区日本橋浜町3-37-1","lat":35.685518,"lon":139.791302},{"name":"堀留町児童館","province":"東京都","city":"中央区","address":"中央区日本橋堀留町1-1-1","lat":35.687412,"lon":139.778963},{"name":"新川児童館","province":"東京都","city":"中央区","address":"中央区新川2-13-4","lat":35.675969,"lon":139.781568},{"name":"築地児童館","province":"東京都","city":"中央区","address":"中央区築地7-9-17","lat":35.666223,"lon":139.775883},{"name":"佃児童館","province":"東京都","city":"中央区","address":"中央区佃1-11-1","lat":35.668925,"lon":139.784726},{"name":"月島児童館","province":"東京都","city":"中央区","address":"中央区月島4-1-1","lat":35.662059,"lon":139.782141},{"name":"晴海児童館","province":"東京都","city":"中央区","address":"中央区晴海2-4-31","lat":35.654907,"lon":139.783935},{"name":"勝どき児童館","province":"東京都","city":"中央区","address":"中央区勝どき1-8-1","lat":35.659665,"lon":139.776583},{"name":"\"中央区立京橋図書館 \"","province":"東京都","city":"中央区","address":"東京都中央区新富1-13-14","lat":35.673688,"lon":139.7756},{"name":"中央区立日本橋図書館","province":"東京都","city":"中央区","address":"東京都中央区日本橋人形町1-1-17","lat":35.684273,"lon":139.78123},{"name":"\"中央区立月島図書館 \"","province":"東京都","city":"中央区","address":"東京都中央区月島4-1-1","lat":35.661921,"lon":139.78192},{"name":"浜町児童館","province":"東京都","city":"中央区","address":"中央区日本橋浜町3-37-1","lat":35.68542,"lon":139.79137},{"name":"堀留町児童館","province":"東京都","city":"中央区","address":"中央区日本橋堀留町1-1-1","lat":35.68706,"lon":139.77928},{"name":"新川児童館","province":"東京都","city":"中央区","address":"中央区新川2-13-4","lat":35.67582,"lon":139.78195},{"name":"築地児童館","province":"東京都","city":"中央区","address":"中央区築地7-9-17","lat":35.66639,"lon":139.77567},{"name":"佃児童館","province":"東京都","city":"中央区","address":"中央区佃1-11-1","lat":35.66927,"lon":139.7834},{"name":"月島児童館","province":"東京都","city":"中央区","address":"中央区月島4-1-1","lat":35.66207,"lon":139.78218},{"name":"晴海児童館","province":"東京都","city":"中央区","address":"中央区晴海2-4-31","lat":35.65434,"lon":139.784},{"name":"勝どき児童館","province":"東京都","city":"中央区","address":"中央区勝どき1-8-1","lat":35.65958,"lon":139.77692},{"name":"三井記念美術館","province":"東京都","city":"中央区","address":"中央区日本橋室町2-1-1三井会館7階","lat":35.686293,"lon":139.772996},{"name":"＊?京橋図書館","province":"東京都","city":"中央区","address":"中央区築地1-1-1","lat":35.67063,"lon":139.772},{"name":"＊?日本橋図書館","province":"東京都","city":"中央区","address":"中央区日本橋人形町1-1-17","lat":35.684773,"lon":139.781493},{"name":"＊?月島図書館","province":"東京都","city":"中央区","address":"中央区月島4-1-1","lat":35.662043,"lon":139.782269},{"name":"浜町児童館","province":"東京都","city":"中央区","address":"中央区日本橋浜町3-37-1","lat":35.685518,"lon":139.791302},{"name":"堀留町児童館","province":"東京都","city":"中央区","address":"中央区日本橋堀留町1-1-1","lat":35.687412,"lon":139.778963},{"name":"新川児童館","province":"東京都","city":"中央区","address":"中央区新川2-13-4","lat":35.675969,"lon":139.781568},{"name":"築地児童館","province":"東京都","city":"中央区","address":"中央区築地7-9-17","lat":35.666223,"lon":139.775883},{"name":"佃児童館","province":"東京都","city":"中央区","address":"中央区佃1-11-1","lat":35.668925,"lon":139.784726},{"name":"月島児童館","province":"東京都","city":"中央区","address":"中央区月島4-1-1","lat":35.662059,"lon":139.782141},{"name":"晴海児童館","province":"東京都","city":"中央区","address":"中央区晴海2-4-31","lat":35.654907,"lon":139.783935},{"name":"勝どき児童館","province":"東京都","city":"中央区","address":"中央区勝どき1-8-1","lat":35.659665,"lon":139.776583},{"name":"\"中央区立京橋図書館 \"","province":"東京都","city":"中央区","address":"東京都中央区新富1-13-14","lat":35.673688,"lon":139.7756},{"name":"中央区立日本橋図書館","province":"東京都","city":"中央区","address":"東京都中央区日本橋人形町1-1-17","lat":35.684273,"lon":139.78123},{"name":"\"中央区立月島図書館 \"","province":"東京都","city":"中央区","address":"東京都中央区月島4-1-1","lat":35.661921,"lon":139.78192},{"name":"浜町児童館","province":"東京都","city":"中央区","address":"中央区日本橋浜町3-37-1","lat":35.68542,"lon":139.79137},{"name":"堀留町児童館","province":"東京都","city":"中央区","address":"中央区日本橋堀留町1-1-1","lat":35.68706,"lon":139.77928},{"name":"新川児童館","province":"東京都","city":"中央区","address":"中央区新川2-13-4","lat":35.67582,"lon":139.78195},{"name":"築地児童館","province":"東京都","city":"中央区","address":"中央区築地7-9-17","lat":35.66639,"lon":139.77567},{"name":"佃児童館","province":"東京都","city":"中央区","address":"中央区佃1-11-1","lat":35.66927,"lon":139.7834},{"name":"月島児童館","province":"東京都","city":"中央区","address":"中央区月島4-1-1","lat":35.66207,"lon":139.78218},{"name":"晴海児童館","province":"東京都","city":"中央区","address":"中央区晴海2-4-31","lat":35.65434,"lon":139.784},{"name":"勝どき児童館","province":"東京都","city":"中央区","address":"中央区勝どき1-8-1","lat":35.65958,"lon":139.77692},{"name":"三井記念美術館","province":"東京都","city":"中央区","address":"中央区日本橋室町2-1-1三井会館7階","lat":35.686293,"lon":139.772996},{"name":"＊?京橋図書館","province":"東京都","city":"中央区","address":"中央区築地1-1-1","lat":35.67063,"lon":139.772},{"name":"＊?日本橋図書館","province":"東京都","city":"中央区","address":"中央区日本橋人形町1-1-17","lat":35.684773,"lon":139.781493},{"name":"＊?月島図書館","province":"東京都","city":"中央区","address":"中央区月島4-1-1","lat":35.662043,"lon":139.782269},{"name":"浜町児童館","province":"東京都","city":"中央区","address":"中央区日本橋浜町3-37-1","lat":35.685518,"lon":139.791302},{"name":"堀留町児童館","province":"東京都","city":"中央区","address":"中央区日本橋堀留町1-1-1","lat":35.687412,"lon":139.778963},{"name":"新川児童館","province":"東京都","city":"中央区","address":"中央区新川2-13-4","lat":35.675969,"lon":139.781568},{"name":"築地児童館","province":"東京都","city":"中央区","address":"中央区築地7-9-17","lat":35.666223,"lon":139.775883},{"name":"佃児童館","province":"東京都","city":"中央区","address":"中央区佃1-11-1","lat":35.668925,"lon":139.784726},{"name":"月島児童館","province":"東京都","city":"中央区","address":"中央区月島4-1-1","lat":35.662059,"lon":139.782141},{"name":"晴海児童館","province":"東京都","city":"中央区","address":"中央区晴海2-4-31","lat":35.654907,"lon":139.783935},{"name":"勝どき児童館","province":"東京都","city":"中央区","address":"中央区勝どき1-8-1","lat":35.659665,"lon":139.776583},{"name":"\"中央区立京橋図書館 \"","province":"東京都","city":"中央区","address":"東京都中央区新富1-13-14","lat":35.673688,"lon":139.7756},{"name":"中央区立日本橋図書館","province":"東京都","city":"中央区","address":"東京都中央区日本橋人形町1-1-17","lat":35.684273,"lon":139.78123},{"name":"\"中央区立月島図書館 \"","province":"東京都","city":"中央区","address":"東京都中央区月島4-1-1","lat":35.661921,"lon":139.78192},{"name":"浜町児童館","province":"東京都","city":"中央区","address":"中央区日本橋浜町3-37-1","lat":35.68542,"lon":139.79137},{"name":"堀留町児童館","province":"東京都","city":"中央区","address":"中央区日本橋堀留町1-1-1","lat":35.68706,"lon":139.77928},{"name":"新川児童館","province":"東京都","city":"中央区","address":"中央区新川2-13-4","lat":35.67582,"lon":139.78195},{"name":"築地児童館","province":"東京都","city":"中央区","address":"中央区築地7-9-17","lat":35.66639,"lon":139.77567},{"name":"佃児童館","province":"東京都","city":"中央区","address":"中央区佃1-11-1","lat":35.66927,"lon":139.7834},{"name":"月島児童館","province":"東京都","city":"中央区","address":"中央区月島4-1-1","lat":35.66207,"lon":139.78218},{"name":"晴海児童館","province":"東京都","city":"中央区","address":"中央区晴海2-4-31","lat":35.65434,"lon":139.784},{"name":"勝どき児童館","province":"東京都","city":"中央区","address":"中央区勝どき1-8-1","lat":35.65958,"lon":139.77692},{"name":"三井記念美術館","province":"東京都","city":"中央区","address":"中央区日本橋室町2-1-1三井会館7階","lat":35.686293,"lon":139.772996},{"name":"＊?京橋図書館","province":"東京都","city":"中央区","address":"中央区築地1-1-1","lat":35.67063,"lon":139.772},{"name":"＊?日本橋図書館","province":"東京都","city":"中央区","address":"中央区日本橋人形町1-1-17","lat":35.684773,"lon":139.781493},{"name":"＊?月島図書館","province":"東京都","city":"中央区","address":"中央区月島4-1-1","lat":35.662043,"lon":139.782269},{"name":"浜町児童館","province":"東京都","city":"中央区","address":"中央区日本橋浜町3-37-1","lat":35.685518,"lon":139.791302},{"name":"堀留町児童館","province":"東京都","city":"中央区","address":"中央区日本橋堀留町1-1-1","lat":35.687412,"lon":139.778963},{"name":"新川児童館","province":"東京都","city":"中央区","address":"中央区新川2-13-4","lat":35.675969,"lon":139.781568},{"name":"築地児童館","province":"東京都","city":"中央区","address":"中央区築地7-9-17","lat":35.666223,"lon":139.775883},{"name":"佃児童館","province":"東京都","city":"中央区","address":"中央区佃1-11-1","lat":35.668925,"lon":139.784726},{"name":"月島児童館","province":"東京都","city":"中央区","address":"中央区月島4-1-1","lat":35.662059,"lon":139.782141},{"name":"晴海児童館","province":"東京都","city":"中央区","address":"中央区晴海2-4-31","lat":35.654907,"lon":139.783935},{"name":"勝どき児童館","province":"東京都","city":"中央区","address":"中央区勝どき1-8-1","lat":35.659665,"lon":139.776583},{"name":"\"中央区立京橋図書館 \"","province":"東京都","city":"中央区","address":"東京都中央区新富1-13-14","lat":35.673688,"lon":139.7756},{"name":"中央区立日本橋図書館","province":"東京都","city":"中央区","address":"東京都中央区日本橋人形町1-1-17","lat":35.684273,"lon":139.78123},{"name":"\"中央区立月島図書館 \"","province":"東京都","city":"中央区","address":"東京都中央区月島4-1-1","lat":35.661921,"lon":139.78192},{"name":"浜町児童館","province":"東京都","city":"中央区","address":"中央区日本橋浜町3-37-1","lat":35.68542,"lon":139.79137},{"name":"堀留町児童館","province":"東京都","city":"中央区","address":"中央区日本橋堀留町1-1-1","lat":35.68706,"lon":139.77928},{"name":"新川児童館","province":"東京都","city":"中央区","address":"中央区新川2-13-4","lat":35.67582,"lon":139.78195},{"name":"築地児童館","province":"東京都","city":"中央区","address":"中央区築地7-9-17","lat":35.66639,"lon":139.77567},{"name":"佃児童館","province":"東京都","city":"中央区","address":"中央区佃1-11-1","lat":35.66927,"lon":139.7834},{"name":"月島児童館","province":"東京都","city":"中央区","address":"中央区月島4-1-1","lat":35.66207,"lon":139.78218},{"name":"晴海児童館","province":"東京都","city":"中央区","address":"中央区晴海2-4-31","lat":35.65434,"lon":139.784},{"name":"勝どき児童館","province":"東京都","city":"中央区","address":"中央区勝どき1-8-1","lat":35.65958,"lon":139.77692},{"name":"三井記念美術館","province":"東京都","city":"中央区","address":"中央区日本橋室町2-1-1三井会館7階","lat":35.686293,"lon":139.772996},{"name":"＊?京橋図書館","province":"東京都","city":"中央区","address":"中央区築地1-1-1","lat":35.67063,"lon":139.772},{"name":"＊?日本橋図書館","province":"東京都","city":"中央区","address":"中央区日本橋人形町1-1-17","lat":35.684773,"lon":139.781493},{"name":"＊?月島図書館","province":"東京都","city":"中央区","address":"中央区月島4-1-1","lat":35.662043,"lon":139.782269},{"name":"浜町児童館","province":"東京都","city":"中央区","address":"中央区日本橋浜町3-37-1","lat":35.685518,"lon":139.791302},{"name":"堀留町児童館","province":"東京都","city":"中央区","address":"中央区日本橋堀留町1-1-1","lat":35.687412,"lon":139.778963},{"name":"新川児童館","province":"東京都","city":"中央区","address":"中央区新川2-13-4","lat":35.675969,"lon":139.781568},{"name":"築地児童館","province":"東京都","city":"中央区","address":"中央区築地7-9-17","lat":35.666223,"lon":139.775883},{"name":"佃児童館","province":"東京都","city":"中央区","address":"中央区佃1-11-1","lat":35.668925,"lon":139.784726},{"name":"月島児童館","province":"東京都","city":"中央区","address":"中央区月島4-1-1","lat":35.662059,"lon":139.782141},{"name":"晴海児童館","province":"東京都","city":"中央区","address":"中央区晴海2-4-31","lat":35.654907,"lon":139.783935},{"name":"勝どき児童館","province":"東京都","city":"中央区","address":"中央区勝どき1-8-1","lat":35.659665,"lon":139.776583},{"name":"\"中央区立京橋図書館 \"","province":"東京都","city":"中央区","address":"東京都中央区新富1-13-14","lat":35.673688,"lon":139.7756},{"name":"中央区立日本橋図書館","province":"東京都","city":"中央区","address":"東京都中央区日本橋人形町1-1-17","lat":35.684273,"lon":139.78123},{"name":"\"中央区立月島図書館 \"","province":"東京都","city":"中央区","address":"東京都中央区月島4-1-1","lat":35.661921,"lon":139.78192},{"name":"浜町児童館","province":"東京都","city":"中央区","address":"中央区日本橋浜町3-37-1","lat":35.68542,"lon":139.79137},{"name":"堀留町児童館","province":"東京都","city":"中央区","address":"中央区日本橋堀留町1-1-1","lat":35.68706,"lon":139.77928},{"name":"新川児童館","province":"東京都","city":"中央区","address":"中央区新川2-13-4","lat":35.67582,"lon":139.78195},{"name":"築地児童館","province":"東京都","city":"中央区","address":"中央区築地7-9-17","lat":35.66639,"lon":139.77567},{"name":"佃児童館","province":"東京都","city":"中央区","address":"中央区佃1-11-1","lat":35.66927,"lon":139.7834},{"name":"月島児童館","province":"東京都","city":"中央区","address":"中央区月島4-1-1","lat":35.66207,"lon":139.78218},{"name":"晴海児童館","province":"東京都","city":"中央区","address":"中央区晴海2-4-31","lat":35.65434,"lon":139.784},{"name":"勝どき児童館","province":"東京都","city":"中央区","address":"中央区勝どき1-8-1","lat":35.65958,"lon":139.77692},{"name":"三井記念美術館","province":"東京都","city":"中央区","address":"中央区日本橋室町2-1-1三井会館7階","lat":35.686293,"lon":139.772996},{"name":"＊?京橋図書館","province":"東京都","city":"中央区","address":"中央区築地1-1-1","lat":35.67063,"lon":139.772},{"name":"＊?日本橋図書館","province":"東京都","city":"中央区","address":"中央区日本橋人形町1-1-17","lat":35.684773,"lon":139.781493},{"name":"＊?月島図書館","province":"東京都","city":"中央区","address":"中央区月島4-1-1","lat":35.662043,"lon":139.782269},{"name":"浜町児童館","province":"東京都","city":"中央区","address":"中央区日本橋浜町3-37-1","lat":35.685518,"lon":139.791302},{"name":"堀留町児童館","province":"東京都","city":"中央区","address":"中央区日本橋堀留町1-1-1","lat":35.687412,"lon":139.778963},{"name":"新川児童館","province":"東京都","city":"中央区","address":"中央区新川2-13-4","lat":35.675969,"lon":139.781568},{"name":"築地児童館","province":"東京都","city":"中央区","address":"中央区築地7-9-17","lat":35.666223,"lon":139.775883},{"name":"佃児童館","province":"東京都","city":"中央区","address":"中央区佃1-11-1","lat":35.668925,"lon":139.784726},{"name":"月島児童館","province":"東京都","city":"中央区","address":"中央区月島4-1-1","lat":35.662059,"lon":139.782141},{"name":"晴海児童館","province":"東京都","city":"中央区","address":"中央区晴海2-4-31","lat":35.654907,"lon":139.783935},{"name":"勝どき児童館","province":"東京都","city":"中央区","address":"中央区勝どき1-8-1","lat":35.659665,"lon":139.776583},{"name":"\"中央区立京橋図書館 \"","province":"東京都","city":"中央区","address":"東京都中央区新富1-13-14","lat":35.673688,"lon":139.7756},{"name":"中央区立日本橋図書館","province":"東京都","city":"中央区","address":"東京都中央区日本橋人形町1-1-17","lat":35.684273,"lon":139.78123},{"name":"\"中央区立月島図書館 \"","province":"東京都","city":"中央区","address":"東京都中央区月島4-1-1","lat":35.661921,"lon":139.78192},{"name":"浜町児童館","province":"東京都","city":"中央区","address":"中央区日本橋浜町3-37-1","lat":35.68542,"lon":139.79137},{"name":"堀留町児童館","province":"東京都","city":"中央区","address":"中央区日本橋堀留町1-1-1","lat":35.68706,"lon":139.77928},{"name":"新川児童館","province":"東京都","city":"中央区","address":"中央区新川2-13-4","lat":35.67582,"lon":139.78195},{"name":"築地児童館","province":"東京都","city":"中央区","address":"中央区築地7-9-17","lat":35.66639,"lon":139.77567},{"name":"佃児童館","province":"東京都","city":"中央区","address":"中央区佃1-11-1","lat":35.66927,"lon":139.7834},{"name":"月島児童館","province":"東京都","city":"中央区","address":"中央区月島4-1-1","lat":35.66207,"lon":139.78218},{"name":"晴海児童館","province":"東京都","city":"中央区","address":"中央区晴海2-4-31","lat":35.65434,"lon":139.784},{"name":"勝どき児童館","province":"東京都","city":"中央区","address":"中央区勝どき1-8-1","lat":35.65958,"lon":139.77692},{"name":"三井記念美術館","province":"東京都","city":"中央区","address":"中央区日本橋室町2-1-1三井会館7階","lat":35.686293,"lon":139.772996},{"name":"＊?京橋図書館","province":"東京都","city":"中央区","address":"中央区築地1-1-1","lat":35.67063,"lon":139.772},{"name":"＊?日本橋図書館","province":"東京都","city":"中央区","address":"中央区日本橋人形町1-1-17","lat":35.684773,"lon":139.781493},{"name":"＊?月島図書館","province":"東京都","city":"中央区","address":"中央区月島4-1-1","lat":35.662043,"lon":139.782269},{"name":"浜町児童館","province":"東京都","city":"中央区","address":"中央区日本橋浜町3-37-1","lat":35.685518,"lon":139.791302},{"name":"堀留町児童館","province":"東京都","city":"中央区","address":"中央区日本橋堀留町1-1-1","lat":35.687412,"lon":139.778963},{"name":"新川児童館","province":"東京都","city":"中央区","address":"中央区新川2-13-4","lat":35.675969,"lon":139.781568},{"name":"築地児童館","province":"東京都","city":"中央区","address":"中央区築地7-9-17","lat":35.666223,"lon":139.775883},{"name":"佃児童館","province":"東京都","city":"中央区","address":"中央区佃1-11-1","lat":35.668925,"lon":139.784726},{"name":"月島児童館","province":"東京都","city":"中央区","address":"中央区月島4-1-1","lat":35.662059,"lon":139.782141},{"name":"晴海児童館","province":"東京都","city":"中央区","address":"中央区晴海2-4-31","lat":35.654907,"lon":139.783935},{"name":"勝どき児童館","province":"東京都","city":"中央区","address":"中央区勝どき1-8-1","lat":35.659665,"lon":139.776583},{"name":"\"中央区立京橋図書館 \"","province":"東京都","city":"中央区","address":"東京都中央区新富1-13-14","lat":35.673688,"lon":139.7756},{"name":"中央区立日本橋図書館","province":"東京都","city":"中央区","address":"東京都中央区日本橋人形町1-1-17","lat":35.684273,"lon":139.78123},{"name":"\"中央区立月島図書館 \"","province":"東京都","city":"中央区","address":"東京都中央区月島4-1-1","lat":35.661921,"lon":139.78192},{"name":"浜町児童館","province":"東京都","city":"中央区","address":"中央区日本橋浜町3-37-1","lat":35.68542,"lon":139.79137},{"name":"堀留町児童館","province":"東京都","city":"中央区","address":"中央区日本橋堀留町1-1-1","lat":35.68706,"lon":139.77928},{"name":"新川児童館","province":"東京都","city":"中央区","address":"中央区新川2-13-4","lat":35.67582,"lon":139.78195},{"name":"築地児童館","province":"東京都","city":"中央区","address":"中央区築地7-9-17","lat":35.66639,"lon":139.77567},{"name":"佃児童館","province":"東京都","city":"中央区","address":"中央区佃1-11-1","lat":35.66927,"lon":139.7834},{"name":"月島児童館","province":"東京都","city":"中央区","address":"中央区月島4-1-1","lat":35.66207,"lon":139.78218},{"name":"晴海児童館","province":"東京都","city":"中央区","address":"中央区晴海2-4-31","lat":35.65434,"lon":139.784},{"name":"勝どき児童館","province":"東京都","city":"中央区","address":"中央区勝どき1-8-1","lat":35.65958,"lon":139.77692},{"name":"三井記念美術館","province":"東京都","city":"中央区","address":"中央区日本橋室町2-1-1三井会館7階","lat":35.686293,"lon":139.772996},{"name":"＊?京橋図書館","province":"東京都","city":"中央区","address":"中央区築地1-1-1","lat":35.67063,"lon":139.772},{"name":"＊?日本橋図書館","province":"東京都","city":"中央区","address":"中央区日本橋人形町1-1-17","lat":35.684773,"lon":139.781493},{"name":"＊?月島図書館","province":"東京都","city":"中央区","address":"中央区月島4-1-1","lat":35.662043,"lon":139.782269},{"name":"浜町児童館","province":"東京都","city":"中央区","address":"中央区日本橋浜町3-37-1","lat":35.685518,"lon":139.791302},{"name":"堀留町児童館","province":"東京都","city":"中央区","address":"中央区日本橋堀留町1-1-1","lat":35.687412,"lon":139.778963},{"name":"新川児童館","province":"東京都","city":"中央区","address":"中央区新川2-13-4","lat":35.675969,"lon":139.781568},{"name":"築地児童館","province":"東京都","city":"中央区","address":"中央区築地7-9-17","lat":35.666223,"lon":139.775883},{"name":"佃児童館","province":"東京都","city":"中央区","address":"中央区佃1-11-1","lat":35.668925,"lon":139.784726},{"name":"月島児童館","province":"東京都","city":"中央区","address":"中央区月島4-1-1","lat":35.662059,"lon":139.782141},{"name":"晴海児童館","province":"東京都","city":"中央区","address":"中央区晴海2-4-31","lat":35.654907,"lon":139.783935},{"name":"勝どき児童館","province":"東京都","city":"中央区","address":"中央区勝どき1-8-1","lat":35.659665,"lon":139.776583},{"name":"\"中央区立京橋図書館 \"","province":"東京都","city":"中央区","address":"東京都中央区新富1-13-14","lat":35.673688,"lon":139.7756},{"name":"中央区立日本橋図書館","province":"東京都","city":"中央区","address":"東京都中央区日本橋人形町1-1-17","lat":35.684273,"lon":139.78123},{"name":"\"中央区立月島図書館 \"","province":"東京都","city":"中央区","address":"東京都中央区月島4-1-1","lat":35.661921,"lon":139.78192},{"name":"浜町児童館","province":"東京都","city":"中央区","address":"中央区日本橋浜町3-37-1","lat":35.68542,"lon":139.79137},{"name":"堀留町児童館","province":"東京都","city":"中央区","address":"中央区日本橋堀留町1-1-1","lat":35.68706,"lon":139.77928},{"name":"新川児童館","province":"東京都","city":"中央区","address":"中央区新川2-13-4","lat":35.67582,"lon":139.78195},{"name":"築地児童館","province":"東京都","city":"中央区","address":"中央区築地7-9-17","lat":35.66639,"lon":139.77567},{"name":"佃児童館","province":"東京都","city":"中央区","address":"中央区佃1-11-1","lat":35.66927,"lon":139.7834},{"name":"月島児童館","province":"東京都","city":"中央区","address":"中央区月島4-1-1","lat":35.66207,"lon":139.78218},{"name":"晴海児童館","province":"東京都","city":"中央区","address":"中央区晴海2-4-31","lat":35.65434,"lon":139.784},{"name":"勝どき児童館","province":"東京都","city":"中央区","address":"中央区勝どき1-8-1","lat":35.65958,"lon":139.77692},{"name":"三井記念美術館","province":"東京都","city":"中央区","address":"中央区日本橋室町2-1-1三井会館7階","lat":35.686293,"lon":139.772996},{"name":"＊?京橋図書館","province":"東京都","city":"中央区","address":"中央区築地1-1-1","lat":35.67063,"lon":139.772},{"name":"＊?日本橋図書館","province":"東京都","city":"中央区","address":"中央区日本橋人形町1-1-17","lat":35.684773,"lon":139.781493},{"name":"＊?月島図書館","province":"東京都","city":"中央区","address":"中央区月島4-1-1","lat":35.662043,"lon":139.782269},{"name":"浜町児童館","province":"東京都","city":"中央区","address":"中央区日本橋浜町3-37-1","lat":35.685518,"lon":139.791302},{"name":"堀留町児童館","province":"東京都","city":"中央区","address":"中央区日本橋堀留町1-1-1","lat":35.687412,"lon":139.778963},{"name":"新川児童館","province":"東京都","city":"中央区","address":"中央区新川2-13-4","lat":35.675969,"lon":139.781568},{"name":"築地児童館","province":"東京都","city":"中央区","address":"中央区築地7-9-17","lat":35.666223,"lon":139.775883},{"name":"佃児童館","province":"東京都","city":"中央区","address":"中央区佃1-11-1","lat":35.668925,"lon":139.784726},{"name":"月島児童館","province":"東京都","city":"中央区","address":"中央区月島4-1-1","lat":35.662059,"lon":139.782141},{"name":"晴海児童館","province":"東京都","city":"中央区","address":"中央区晴海2-4-31","lat":35.654907,"lon":139.783935},{"name":"勝どき児童館","province":"東京都","city":"中央区","address":"中央区勝どき1-8-1","lat":35.659665,"lon":139.776583},{"name":"\"中央区立京橋図書館 \"","province":"東京都","city":"中央区","address":"東京都中央区新富1-13-14","lat":35.673688,"lon":139.7756},{"name":"中央区立日本橋図書館","province":"東京都","city":"中央区","address":"東京都中央区日本橋人形町1-1-17","lat":35.684273,"lon":139.78123},{"name":"\"中央区立月島図書館 \"","province":"東京都","city":"中央区","address":"東京都中央区月島4-1-1","lat":35.661921,"lon":139.78192},{"name":"浜町児童館","province":"東京都","city":"中央区","address":"中央区日本橋浜町3-37-1","lat":35.68542,"lon":139.79137},{"name":"堀留町児童館","province":"東京都","city":"中央区","address":"中央区日本橋堀留町1-1-1","lat":35.68706,"lon":139.77928},{"name":"新川児童館","province":"東京都","city":"中央区","address":"中央区新川2-13-4","lat":35.67582,"lon":139.78195},{"name":"築地児童館","province":"東京都","city":"中央区","address":"中央区築地7-9-17","lat":35.66639,"lon":139.77567},{"name":"佃児童館","province":"東京都","city":"中央区","address":"中央区佃1-11-1","lat":35.66927,"lon":139.7834},{"name":"月島児童館","province":"東京都","city":"中央区","address":"中央区月島4-1-1","lat":35.66207,"lon":139.78218},{"name":"晴海児童館","province":"東京都","city":"中央区","address":"中央区晴海2-4-31","lat":35.65434,"lon":139.784},{"name":"勝どき児童館","province":"東京都","city":"中央区","address":"中央区勝どき1-8-1","lat":35.65958,"lon":139.77692},{"name":"三井記念美術館","province":"東京都","city":"中央区","address":"中央区日本橋室町2-1-1三井会館7階","lat":35.686293,"lon":139.772996},{"name":"＊?京橋図書館","province":"東京都","city":"中央区","address":"中央区築地1-1-1","lat":35.67063,"lon":139.772},{"name":"＊?日本橋図書館","province":"東京都","city":"中央区","address":"中央区日本橋人形町1-1-17","lat":35.684773,"lon":139.781493},{"name":"＊?月島図書館","province":"東京都","city":"中央区","address":"中央区月島4-1-1","lat":35.662043,"lon":139.782269},{"name":"浜町児童館","province":"東京都","city":"中央区","address":"中央区日本橋浜町3-37-1","lat":35.685518,"lon":139.791302},{"name":"堀留町児童館","province":"東京都","city":"中央区","address":"中央区日本橋堀留町1-1-1","lat":35.687412,"lon":139.778963},{"name":"新川児童館","province":"東京都","city":"中央区","address":"中央区新川2-13-4","lat":35.675969,"lon":139.781568},{"name":"築地児童館","province":"東京都","city":"中央区","address":"中央区築地7-9-17","lat":35.666223,"lon":139.775883},{"name":"佃児童館","province":"東京都","city":"中央区","address":"中央区佃1-11-1","lat":35.668925,"lon":139.784726},{"name":"月島児童館","province":"東京都","city":"中央区","address":"中央区月島4-1-1","lat":35.662059,"lon":139.782141},{"name":"晴海児童館","province":"東京都","city":"中央区","address":"中央区晴海2-4-31","lat":35.654907,"lon":139.783935},{"name":"勝どき児童館","province":"東京都","city":"中央区","address":"中央区勝どき1-8-1","lat":35.659665,"lon":139.776583},{"name":"\"中央区立京橋図書館 \"","province":"東京都","city":"中央区","address":"東京都中央区新富1-13-14","lat":35.673688,"lon":139.7756},{"name":"中央区立日本橋図書館","province":"東京都","city":"中央区","address":"東京都中央区日本橋人形町1-1-17","lat":35.684273,"lon":139.78123},{"name":"\"中央区立月島図書館 \"","province":"東京都","city":"中央区","address":"東京都中央区月島4-1-1","lat":35.661921,"lon":139.78192},{"name":"浜町児童館","province":"東京都","city":"中央区","address":"中央区日本橋浜町3-37-1","lat":35.68542,"lon":139.79137},{"name":"堀留町児童館","province":"東京都","city":"中央区","address":"中央区日本橋堀留町1-1-1","lat":35.68706,"lon":139.77928},{"name":"新川児童館","province":"東京都","city":"中央区","address":"中央区新川2-13-4","lat":35.67582,"lon":139.78195},{"name":"築地児童館","province":"東京都","city":"中央区","address":"中央区築地7-9-17","lat":35.66639,"lon":139.77567},{"name":"佃児童館","province":"東京都","city":"中央区","address":"中央区佃1-11-1","lat":35.66927,"lon":139.7834},{"name":"月島児童館","province":"東京都","city":"中央区","address":"中央区月島4-1-1","lat":35.66207,"lon":139.78218},{"name":"晴海児童館","province":"東京都","city":"中央区","address":"中央区晴海2-4-31","lat":35.65434,"lon":139.784},{"name":"勝どき児童館","province":"東京都","city":"中央区","address":"中央区勝どき1-8-1","lat":35.65958,"lon":139.77692},{"name":"三井記念美術館","province":"東京都","city":"中央区","address":"中央区日本橋室町2-1-1三井会館7階","lat":35.686293,"lon":139.772996},{"name":"＊?京橋図書館","province":"東京都","city":"中央区","address":"中央区築地1-1-1","lat":35.67063,"lon":139.772},{"name":"＊?日本橋図書館","province":"東京都","city":"中央区","address":"中央区日本橋人形町1-1-17","lat":35.684773,"lon":139.781493},{"name":"＊?月島図書館","province":"東京都","city":"中央区","address":"中央区月島4-1-1","lat":35.662043,"lon":139.782269},{"name":"浜町児童館","province":"東京都","city":"中央区","address":"中央区日本橋浜町3-37-1","lat":35.685518,"lon":139.791302},{"name":"堀留町児童館","province":"東京都","city":"中央区","address":"中央区日本橋堀留町1-1-1","lat":35.687412,"lon":139.778963},{"name":"新川児童館","province":"東京都","city":"中央区","address":"中央区新川2-13-4","lat":35.675969,"lon":139.781568},{"name":"築地児童館","province":"東京都","city":"中央区","address":"中央区築地7-9-17","lat":35.666223,"lon":139.775883},{"name":"佃児童館","province":"東京都","city":"中央区","address":"中央区佃1-11-1","lat":35.668925,"lon":139.784726},{"name":"月島児童館","province":"東京都","city":"中央区","address":"中央区月島4-1-1","lat":35.662059,"lon":139.782141},{"name":"晴海児童館","province":"東京都","city":"中央区","address":"中央区晴海2-4-31","lat":35.654907,"lon":139.783935},{"name":"勝どき児童館","province":"東京都","city":"中央区","address":"中央区勝どき1-8-1","lat":35.659665,"lon":139.776583},{"name":"\"中央区立京橋図書館 \"","province":"東京都","city":"中央区","address":"東京都中央区新富1-13-14","lat":35.673688,"lon":139.7756},{"name":"中央区立日本橋図書館","province":"東京都","city":"中央区","address":"東京都中央区日本橋人形町1-1-17","lat":35.684273,"lon":139.78123},{"name":"\"中央区立月島図書館 \"","province":"東京都","city":"中央区","address":"東京都中央区月島4-1-1","lat":35.661921,"lon":139.78192},{"name":"浜町児童館","province":"東京都","city":"中央区","address":"中央区日本橋浜町3-37-1","lat":35.68542,"lon":139.79137},{"name":"堀留町児童館","province":"東京都","city":"中央区","address":"中央区日本橋堀留町1-1-1","lat":35.68706,"lon":139.77928},{"name":"新川児童館","province":"東京都","city":"中央区","address":"中央区新川2-13-4","lat":35.67582,"lon":139.78195},{"name":"築地児童館","province":"東京都","city":"中央区","address":"中央区築地7-9-17","lat":35.66639,"lon":139.77567},{"name":"佃児童館","province":"東京都","city":"中央区","address":"中央区佃1-11-1","lat":35.66927,"lon":139.7834},{"name":"月島児童館","province":"東京都","city":"中央区","address":"中央区月島4-1-1","lat":35.66207,"lon":139.78218},{"name":"晴海児童館","province":"東京都","city":"中央区","address":"中央区晴海2-4-31","lat":35.65434,"lon":139.784},{"name":"勝どき児童館","province":"東京都","city":"中央区","address":"中央区勝どき1-8-1","lat":35.65958,"lon":139.77692},{"name":"三井記念美術館","province":"東京都","city":"中央区","address":"中央区日本橋室町2-1-1三井会館7階","lat":35.686293,"lon":139.772996},{"name":"＊?京橋図書館","province":"東京都","city":"中央区","address":"中央区築地1-1-1","lat":35.67063,"lon":139.772},{"name":"＊?日本橋図書館","province":"東京都","city":"中央区","address":"中央区日本橋人形町1-1-17","lat":35.684773,"lon":139.781493},{"name":"＊?月島図書館","province":"東京都","city":"中央区","address":"中央区月島4-1-1","lat":35.662043,"lon":139.782269},{"name":"浜町児童館","province":"東京都","city":"中央区","address":"中央区日本橋浜町3-37-1","lat":35.685518,"lon":139.791302},{"name":"堀留町児童館","province":"東京都","city":"中央区","address":"中央区日本橋堀留町1-1-1","lat":35.687412,"lon":139.778963},{"name":"新川児童館","province":"東京都","city":"中央区","address":"中央区新川2-13-4","lat":35.675969,"lon":139.781568},{"name":"築地児童館","province":"東京都","city":"中央区","address":"中央区築地7-9-17","lat":35.666223,"lon":139.775883},{"name":"佃児童館","province":"東京都","city":"中央区","address":"中央区佃1-11-1","lat":35.668925,"lon":139.784726},{"name":"月島児童館","province":"東京都","city":"中央区","address":"中央区月島4-1-1","lat":35.662059,"lon":139.782141},{"name":"晴海児童館","province":"東京都","city":"中央区","address":"中央区晴海2-4-31","lat":35.654907,"lon":139.783935},{"name":"勝どき児童館","province":"東京都","city":"中央区","address":"中央区勝どき1-8-1","lat":35.659665,"lon":139.776583},{"name":"\"中央区立京橋図書館 \"","province":"東京都","city":"中央区","address":"東京都中央区新富1-13-14","lat":35.673688,"lon":139.7756},{"name":"中央区立日本橋図書館","province":"東京都","city":"中央区","address":"東京都中央区日本橋人形町1-1-17","lat":35.684273,"lon":139.78123},{"name":"\"中央区立月島図書館 \"","province":"東京都","city":"中央区","address":"東京都中央区月島4-1-1","lat":35.661921,"lon":139.78192},{"name":"浜町児童館","province":"東京都","city":"中央区","address":"中央区日本橋浜町3-37-1","lat":35.68542,"lon":139.79137},{"name":"堀留町児童館","province":"東京都","city":"中央区","address":"中央区日本橋堀留町1-1-1","lat":35.68706,"lon":139.77928},{"name":"新川児童館","province":"東京都","city":"中央区","address":"中央区新川2-13-4","lat":35.67582,"lon":139.78195},{"name":"築地児童館","province":"東京都","city":"中央区","address":"中央区築地7-9-17","lat":35.66639,"lon":139.77567},{"name":"佃児童館","province":"東京都","city":"中央区","address":"中央区佃1-11-1","lat":35.66927,"lon":139.7834},{"name":"月島児童館","province":"東京都","city":"中央区","address":"中央区月島4-1-1","lat":35.66207,"lon":139.78218},{"name":"晴海児童館","province":"東京都","city":"中央区","address":"中央区晴海2-4-31","lat":35.65434,"lon":139.784},{"name":"勝どき児童館","province":"東京都","city":"中央区","address":"中央区勝どき1-8-1","lat":35.65958,"lon":139.77692},{"name":"三井記念美術館","province":"東京都","city":"中央区","address":"中央区日本橋室町2-1-1三井会館7階","lat":35.686293,"lon":139.772996},{"name":"＊?京橋図書館","province":"東京都","city":"中央区","address":"中央区築地1-1-1","lat":35.67063,"lon":139.772},{"name":"＊?日本橋図書館","province":"東京都","city":"中央区","address":"中央区日本橋人形町1-1-17","lat":35.684773,"lon":139.781493},{"name":"＊?月島図書館","province":"東京都","city":"中央区","address":"中央区月島4-1-1","lat":35.662043,"lon":139.782269},{"name":"浜町児童館","province":"東京都","city":"中央区","address":"中央区日本橋浜町3-37-1","lat":35.685518,"lon":139.791302},{"name":"堀留町児童館","province":"東京都","city":"中央区","address":"中央区日本橋堀留町1-1-1","lat":35.687412,"lon":139.778963},{"name":"新川児童館","province":"東京都","city":"中央区","address":"中央区新川2-13-4","lat":35.675969,"lon":139.781568},{"name":"築地児童館","province":"東京都","city":"中央区","address":"中央区築地7-9-17","lat":35.666223,"lon":139.775883},{"name":"佃児童館","province":"東京都","city":"中央区","address":"中央区佃1-11-1","lat":35.668925,"lon":139.784726},{"name":"月島児童館","province":"東京都","city":"中央区","address":"中央区月島4-1-1","lat":35.662059,"lon":139.782141},{"name":"晴海児童館","province":"東京都","city":"中央区","address":"中央区晴海2-4-31","lat":35.654907,"lon":139.783935},{"name":"勝どき児童館","province":"東京都","city":"中央区","address":"中央区勝どき1-8-1","lat":35.659665,"lon":139.776583},{"name":"\"中央区立京橋図書館 \"","province":"東京都","city":"中央区","address":"東京都中央区新富1-13-14","lat":35.673688,"lon":139.7756},{"name":"中央区立日本橋図書館","province":"東京都","city":"中央区","address":"東京都中央区日本橋人形町1-1-17","lat":35.684273,"lon":139.78123},{"name":"\"中央区立月島図書館 \"","province":"東京都","city":"中央区","address":"東京都中央区月島4-1-1","lat":35.661921,"lon":139.78192},{"name":"浜町児童館","province":"東京都","city":"中央区","address":"中央区日本橋浜町3-37-1","lat":35.68542,"lon":139.79137},{"name":"堀留町児童館","province":"東京都","city":"中央区","address":"中央区日本橋堀留町1-1-1","lat":35.68706,"lon":139.77928},{"name":"新川児童館","province":"東京都","city":"中央区","address":"中央区新川2-13-4","lat":35.67582,"lon":139.78195},{"name":"築地児童館","province":"東京都","city":"中央区","address":"中央区築地7-9-17","lat":35.66639,"lon":139.77567},{"name":"佃児童館","province":"東京都","city":"中央区","address":"中央区佃1-11-1","lat":35.66927,"lon":139.7834},{"name":"月島児童館","province":"東京都","city":"中央区","address":"中央区月島4-1-1","lat":35.66207,"lon":139.78218},{"name":"晴海児童館","province":"東京都","city":"中央区","address":"中央区晴海2-4-31","lat":35.65434,"lon":139.784},{"name":"勝どき児童館","province":"東京都","city":"中央区","address":"中央区勝どき1-8-1","lat":35.65958,"lon":139.77692},{"name":"三井記念美術館","province":"東京都","city":"中央区","address":"中央区日本橋室町2-1-1三井会館7階","lat":35.686293,"lon":139.772996},{"name":"＊?京橋図書館","province":"東京都","city":"中央区","address":"中央区築地1-1-1","lat":35.67063,"lon":139.772},{"name":"＊?日本橋図書館","province":"東京都","city":"中央区","address":"中央区日本橋人形町1-1-17","lat":35.684773,"lon":139.781493},{"name":"＊?月島図書館","province":"東京都","city":"中央区","address":"中央区月島4-1-1","lat":35.662043,"lon":139.782269},{"name":"浜町児童館","province":"東京都","city":"中央区","address":"中央区日本橋浜町3-37-1","lat":35.685518,"lon":139.791302},{"name":"堀留町児童館","province":"東京都","city":"中央区","address":"中央区日本橋堀留町1-1-1","lat":35.687412,"lon":139.778963},{"name":"新川児童館","province":"東京都","city":"中央区","address":"中央区新川2-13-4","lat":35.675969,"lon":139.781568},{"name":"築地児童館","province":"東京都","city":"中央区","address":"中央区築地7-9-17","lat":35.666223,"lon":139.775883},{"name":"佃児童館","province":"東京都","city":"中央区","address":"中央区佃1-11-1","lat":35.668925,"lon":139.784726},{"name":"月島児童館","province":"東京都","city":"中央区","address":"中央区月島4-1-1","lat":35.662059,"lon":139.782141},{"name":"晴海児童館","province":"東京都","city":"中央区","address":"中央区晴海2-4-31","lat":35.654907,"lon":139.783935},{"name":"勝どき児童館","province":"東京都","city":"中央区","address":"中央区勝どき1-8-1","lat":35.659665,"lon":139.776583},{"name":"\"中央区立京橋図書館 \"","province":"東京都","city":"中央区","address":"東京都中央区新富1-13-14","lat":35.673688,"lon":139.7756},{"name":"中央区立日本橋図書館","province":"東京都","city":"中央区","address":"東京都中央区日本橋人形町1-1-17","lat":35.684273,"lon":139.78123},{"name":"\"中央区立月島図書館 \"","province":"東京都","city":"中央区","address":"東京都中央区月島4-1-1","lat":35.661921,"lon":139.78192},{"name":"浜町児童館","province":"東京都","city":"中央区","address":"中央区日本橋浜町3-37-1","lat":35.68542,"lon":139.79137},{"name":"堀留町児童館","province":"東京都","city":"中央区","address":"中央区日本橋堀留町1-1-1","lat":35.68706,"lon":139.77928},{"name":"新川児童館","province":"東京都","city":"中央区","address":"中央区新川2-13-4","lat":35.67582,"lon":139.78195},{"name":"築地児童館","province":"東京都","city":"中央区","address":"中央区築地7-9-17","lat":35.66639,"lon":139.77567},{"name":"佃児童館","province":"東京都","city":"中央区","address":"中央区佃1-11-1","lat":35.66927,"lon":139.7834},{"name":"月島児童館","province":"東京都","city":"中央区","address":"中央区月島4-1-1","lat":35.66207,"lon":139.78218},{"name":"晴海児童館","province":"東京都","city":"中央区","address":"中央区晴海2-4-31","lat":35.65434,"lon":139.784},{"name":"勝どき児童館","province":"東京都","city":"中央区","address":"中央区勝どき1-8-1","lat":35.65958,"lon":139.77692},{"name":"三井記念美術館","province":"東京都","city":"中央区","address":"中央区日本橋室町2-1-1三井会館7階","lat":35.686293,"lon":139.772996},{"name":"＊?京橋図書館","province":"東京都","city":"中央区","address":"中央区築地1-1-1","lat":35.67063,"lon":139.772},{"name":"＊?日本橋図書館","province":"東京都","city":"中央区","address":"中央区日本橋人形町1-1-17","lat":35.684773,"lon":139.781493},{"name":"＊?月島図書館","province":"東京都","city":"中央区","address":"中央区月島4-1-1","lat":35.662043,"lon":139.782269},{"name":"浜町児童館","province":"東京都","city":"中央区","address":"中央区日本橋浜町3-37-1","lat":35.685518,"lon":139.791302},{"name":"堀留町児童館","province":"東京都","city":"中央区","address":"中央区日本橋堀留町1-1-1","lat":35.687412,"lon":139.778963},{"name":"新川児童館","province":"東京都","city":"中央区","address":"中央区新川2-13-4","lat":35.675969,"lon":139.781568},{"name":"築地児童館","province":"東京都","city":"中央区","address":"中央区築地7-9-17","lat":35.666223,"lon":139.775883},{"name":"佃児童館","province":"東京都","city":"中央区","address":"中央区佃1-11-1","lat":35.668925,"lon":139.784726},{"name":"月島児童館","province":"東京都","city":"中央区","address":"中央区月島4-1-1","lat":35.662059,"lon":139.782141},{"name":"晴海児童館","province":"東京都","city":"中央区","address":"中央区晴海2-4-31","lat":35.654907,"lon":139.783935},{"name":"勝どき児童館","province":"東京都","city":"中央区","address":"中央区勝どき1-8-1","lat":35.659665,"lon":139.776583},{"name":"\"中央区立京橋図書館 \"","province":"東京都","city":"中央区","address":"東京都中央区新富1-13-14","lat":35.673688,"lon":139.7756},{"name":"中央区立日本橋図書館","province":"東京都","city":"中央区","address":"東京都中央区日本橋人形町1-1-17","lat":35.684273,"lon":139.78123},{"name":"\"中央区立月島図書館 \"","province":"東京都","city":"中央区","address":"東京都中央区月島4-1-1","lat":35.661921,"lon":139.78192},{"name":"浜町児童館","province":"東京都","city":"中央区","address":"中央区日本橋浜町3-37-1","lat":35.68542,"lon":139.79137},{"name":"堀留町児童館","province":"東京都","city":"中央区","address":"中央区日本橋堀留町1-1-1","lat":35.68706,"lon":139.77928},{"name":"新川児童館","province":"東京都","city":"中央区","address":"中央区新川2-13-4","lat":35.67582,"lon":139.78195},{"name":"築地児童館","province":"東京都","city":"中央区","address":"中央区築地7-9-17","lat":35.66639,"lon":139.77567},{"name":"佃児童館","province":"東京都","city":"中央区","address":"中央区佃1-11-1","lat":35.66927,"lon":139.7834},{"name":"月島児童館","province":"東京都","city":"中央区","address":"中央区月島4-1-1","lat":35.66207,"lon":139.78218},{"name":"晴海児童館","province":"東京都","city":"中央区","address":"中央区晴海2-4-31","lat":35.65434,"lon":139.784},{"name":"勝どき児童館","province":"東京都","city":"中央区","address":"中央区勝どき1-8-1","lat":35.65958,"lon":139.77692},{"name":"三井記念美術館","province":"東京都","city":"中央区","address":"中央区日本橋室町2-1-1三井会館7階","lat":35.686293,"lon":139.772996},{"name":"＊?京橋図書館","province":"東京都","city":"中央区","address":"中央区築地1-1-1","lat":35.67063,"lon":139.772},{"name":"＊?日本橋図書館","province":"東京都","city":"中央区","address":"中央区日本橋人形町1-1-17","lat":35.684773,"lon":139.781493},{"name":"＊?月島図書館","province":"東京都","city":"中央区","address":"中央区月島4-1-1","lat":35.662043,"lon":139.782269},{"name":"浜町児童館","province":"東京都","city":"中央区","address":"中央区日本橋浜町3-37-1","lat":35.685518,"lon":139.791302},{"name":"堀留町児童館","province":"東京都","city":"中央区","address":"中央区日本橋堀留町1-1-1","lat":35.687412,"lon":139.778963},{"name":"新川児童館","province":"東京都","city":"中央区","address":"中央区新川2-13-4","lat":35.675969,"lon":139.781568},{"name":"築地児童館","province":"東京都","city":"中央区","address":"中央区築地7-9-17","lat":35.666223,"lon":139.775883},{"name":"佃児童館","province":"東京都","city":"中央区","address":"中央区佃1-11-1","lat":35.668925,"lon":139.784726},{"name":"月島児童館","province":"東京都","city":"中央区","address":"中央区月島4-1-1","lat":35.662059,"lon":139.782141},{"name":"晴海児童館","province":"東京都","city":"中央区","address":"中央区晴海2-4-31","lat":35.654907,"lon":139.783935},{"name":"勝どき児童館","province":"東京都","city":"中央区","address":"中央区勝どき1-8-1","lat":35.659665,"lon":139.776583},{"name":"\"中央区立京橋図書館 \"","province":"東京都","city":"中央区","address":"東京都中央区新富1-13-14","lat":35.673688,"lon":139.7756},{"name":"中央区立日本橋図書館","province":"東京都","city":"中央区","address":"東京都中央区日本橋人形町1-1-17","lat":35.684273,"lon":139.78123},{"name":"\"中央区立月島図書館 \"","province":"東京都","city":"中央区","address":"東京都中央区月島4-1-1","lat":35.661921,"lon":139.78192},{"name":"浜町児童館","province":"東京都","city":"中央区","address":"中央区日本橋浜町3-37-1","lat":35.68542,"lon":139.79137},{"name":"堀留町児童館","province":"東京都","city":"中央区","address":"中央区日本橋堀留町1-1-1","lat":35.68706,"lon":139.77928},{"name":"新川児童館","province":"東京都","city":"中央区","address":"中央区新川2-13-4","lat":35.67582,"lon":139.78195},{"name":"築地児童館","province":"東京都","city":"中央区","address":"中央区築地7-9-17","lat":35.66639,"lon":139.77567},{"name":"佃児童館","province":"東京都","city":"中央区","address":"中央区佃1-11-1","lat":35.66927,"lon":139.7834},{"name":"月島児童館","province":"東京都","city":"中央区","address":"中央区月島4-1-1","lat":35.66207,"lon":139.78218},{"name":"晴海児童館","province":"東京都","city":"中央区","address":"中央区晴海2-4-31","lat":35.65434,"lon":139.784},{"name":"勝どき児童館","province":"東京都","city":"中央区","address":"中央区勝どき1-8-1","lat":35.65958,"lon":139.77692},{"name":"三井記念美術館","province":"東京都","city":"中央区","address":"中央区日本橋室町2-1-1三井会館7階","lat":35.686293,"lon":139.772996},{"name":"＊?京橋図書館","province":"東京都","city":"中央区","address":"中央区築地1-1-1","lat":35.67063,"lon":139.772},{"name":"＊?日本橋図書館","province":"東京都","city":"中央区","address":"中央区日本橋人形町1-1-17","lat":35.684773,"lon":139.781493},{"name":"＊?月島図書館","province":"東京都","city":"中央区","address":"中央区月島4-1-1","lat":35.662043,"lon":139.782269},{"name":"浜町児童館","province":"東京都","city":"中央区","address":"中央区日本橋浜町3-37-1","lat":35.685518,"lon":139.791302},{"name":"堀留町児童館","province":"東京都","city":"中央区","address":"中央区日本橋堀留町1-1-1","lat":35.687412,"lon":139.778963},{"name":"新川児童館","province":"東京都","city":"中央区","address":"中央区新川2-13-4","lat":35.675969,"lon":139.781568},{"name":"築地児童館","province":"東京都","city":"中央区","address":"中央区築地7-9-17","lat":35.666223,"lon":139.775883},{"name":"佃児童館","province":"東京都","city":"中央区","address":"中央区佃1-11-1","lat":35.668925,"lon":139.784726},{"name":"月島児童館","province":"東京都","city":"中央区","address":"中央区月島4-1-1","lat":35.662059,"lon":139.782141},{"name":"晴海児童館","province":"東京都","city":"中央区","address":"中央区晴海2-4-31","lat":35.654907,"lon":139.783935},{"name":"勝どき児童館","province":"東京都","city":"中央区","address":"中央区勝どき1-8-1","lat":35.659665,"lon":139.776583},{"name":"\"中央区立京橋図書館 \"","province":"東京都","city":"中央区","address":"東京都中央区新富1-13-14","lat":35.673688,"lon":139.7756},{"name":"中央区立日本橋図書館","province":"東京都","city":"中央区","address":"東京都中央区日本橋人形町1-1-17","lat":35.684273,"lon":139.78123},{"name":"\"中央区立月島図書館 \"","province":"東京都","city":"中央区","address":"東京都中央区月島4-1-1","lat":35.661921,"lon":139.78192},{"name":"浜町児童館","province":"東京都","city":"中央区","address":"中央区日本橋浜町3-37-1","lat":35.68542,"lon":139.79137},{"name":"堀留町児童館","province":"東京都","city":"中央区","address":"中央区日本橋堀留町1-1-1","lat":35.68706,"lon":139.77928},{"name":"新川児童館","province":"東京都","city":"中央区","address":"中央区新川2-13-4","lat":35.67582,"lon":139.78195},{"name":"築地児童館","province":"東京都","city":"中央区","address":"中央区築地7-9-17","lat":35.66639,"lon":139.77567},{"name":"佃児童館","province":"東京都","city":"中央区","address":"中央区佃1-11-1","lat":35.66927,"lon":139.7834},{"name":"月島児童館","province":"東京都","city":"中央区","address":"中央区月島4-1-1","lat":35.66207,"lon":139.78218},{"name":"晴海児童館","province":"東京都","city":"中央区","address":"中央区晴海2-4-31","lat":35.65434,"lon":139.784},{"name":"勝どき児童館","province":"東京都","city":"中央区","address":"中央区勝どき1-8-1","lat":35.65958,"lon":139.77692},{"name":"三井記念美術館","province":"東京都","city":"中央区","address":"中央区日本橋室町2-1-1三井会館7階","lat":35.686293,"lon":139.772996},{"name":"＊?京橋図書館","province":"東京都","city":"中央区","address":"中央区築地1-1-1","lat":35.67063,"lon":139.772},{"name":"＊?日本橋図書館","province":"東京都","city":"中央区","address":"中央区日本橋人形町1-1-17","lat":35.684773,"lon":139.781493},{"name":"＊?月島図書館","province":"東京都","city":"中央区","address":"中央区月島4-1-1","lat":35.662043,"lon":139.782269},{"name":"浜町児童館","province":"東京都","city":"中央区","address":"中央区日本橋浜町3-37-1","lat":35.685518,"lon":139.791302},{"name":"堀留町児童館","province":"東京都","city":"中央区","address":"中央区日本橋堀留町1-1-1","lat":35.687412,"lon":139.778963},{"name":"新川児童館","province":"東京都","city":"中央区","address":"中央区新川2-13-4","lat":35.675969,"lon":139.781568},{"name":"築地児童館","province":"東京都","city":"中央区","address":"中央区築地7-9-17","lat":35.666223,"lon":139.775883},{"name":"佃児童館","province":"東京都","city":"中央区","address":"中央区佃1-11-1","lat":35.668925,"lon":139.784726},{"name":"月島児童館","province":"東京都","city":"中央区","address":"中央区月島4-1-1","lat":35.662059,"lon":139.782141},{"name":"晴海児童館","province":"東京都","city":"中央区","address":"中央区晴海2-4-31","lat":35.654907,"lon":139.783935},{"name":"勝どき児童館","province":"東京都","city":"中央区","address":"中央区勝どき1-8-1","lat":35.659665,"lon":139.776583},{"name":"\"中央区立京橋図書館 \"","province":"東京都","city":"中央区","address":"東京都中央区新富1-13-14","lat":35.673688,"lon":139.7756},{"name":"中央区立日本橋図書館","province":"東京都","city":"中央区","address":"東京都中央区日本橋人形町1-1-17","lat":35.684273,"lon":139.78123},{"name":"\"中央区立月島図書館 \"","province":"東京都","city":"中央区","address":"東京都中央区月島4-1-1","lat":35.661921,"lon":139.78192},{"name":"浜町児童館","province":"東京都","city":"中央区","address":"中央区日本橋浜町3-37-1","lat":35.68542,"lon":139.79137},{"name":"堀留町児童館","province":"東京都","city":"中央区","address":"中央区日本橋堀留町1-1-1","lat":35.68706,"lon":139.77928},{"name":"新川児童館","province":"東京都","city":"中央区","address":"中央区新川2-13-4","lat":35.67582,"lon":139.78195},{"name":"築地児童館","province":"東京都","city":"中央区","address":"中央区築地7-9-17","lat":35.66639,"lon":139.77567},{"name":"佃児童館","province":"東京都","city":"中央区","address":"中央区佃1-11-1","lat":35.66927,"lon":139.7834},{"name":"月島児童館","province":"東京都","city":"中央区","address":"中央区月島4-1-1","lat":35.66207,"lon":139.78218},{"name":"晴海児童館","province":"東京都","city":"中央区","address":"中央区晴海2-4-31","lat":35.65434,"lon":139.784},{"name":"勝どき児童館","province":"東京都","city":"中央区","address":"中央区勝どき1-8-1","lat":35.65958,"lon":139.77692},{"name":"三井記念美術館","province":"東京都","city":"中央区","address":"中央区日本橋室町2-1-1三井会館7階","lat":35.686293,"lon":139.772996},{"name":"＊?京橋図書館","province":"東京都","city":"中央区","address":"中央区築地1-1-1","lat":35.67063,"lon":139.772},{"name":"＊?日本橋図書館","province":"東京都","city":"中央区","address":"中央区日本橋人形町1-1-17","lat":35.684773,"lon":139.781493},{"name":"＊?月島図書館","province":"東京都","city":"中央区","address":"中央区月島4-1-1","lat":35.662043,"lon":139.782269},{"name":"浜町児童館","province":"東京都","city":"中央区","address":"中央区日本橋浜町3-37-1","lat":35.685518,"lon":139.791302},{"name":"堀留町児童館","province":"東京都","city":"中央区","address":"中央区日本橋堀留町1-1-1","lat":35.687412,"lon":139.778963},{"name":"新川児童館","province":"東京都","city":"中央区","address":"中央区新川2-13-4","lat":35.675969,"lon":139.781568},{"name":"築地児童館","province":"東京都","city":"中央区","address":"中央区築地7-9-17","lat":35.666223,"lon":139.775883},{"name":"佃児童館","province":"東京都","city":"中央区","address":"中央区佃1-11-1","lat":35.668925,"lon":139.784726},{"name":"月島児童館","province":"東京都","city":"中央区","address":"中央区月島4-1-1","lat":35.662059,"lon":139.782141},{"name":"晴海児童館","province":"東京都","city":"中央区","address":"中央区晴海2-4-31","lat":35.654907,"lon":139.783935},{"name":"勝どき児童館","province":"東京都","city":"中央区","address":"中央区勝どき1-8-1","lat":35.659665,"lon":139.776583},{"name":"\"中央区立京橋図書館 \"","province":"東京都","city":"中央区","address":"東京都中央区新富1-13-14","lat":35.673688,"lon":139.7756},{"name":"中央区立日本橋図書館","province":"東京都","city":"中央区","address":"東京都中央区日本橋人形町1-1-17","lat":35.684273,"lon":139.78123},{"name":"\"中央区立月島図書館 \"","province":"東京都","city":"中央区","address":"東京都中央区月島4-1-1","lat":35.661921,"lon":139.78192},{"name":"浜町児童館","province":"東京都","city":"中央区","address":"中央区日本橋浜町3-37-1","lat":35.68542,"lon":139.79137},{"name":"堀留町児童館","province":"東京都","city":"中央区","address":"中央区日本橋堀留町1-1-1","lat":35.68706,"lon":139.77928},{"name":"新川児童館","province":"東京都","city":"中央区","address":"中央区新川2-13-4","lat":35.67582,"lon":139.78195},{"name":"築地児童館","province":"東京都","city":"中央区","address":"中央区築地7-9-17","lat":35.66639,"lon":139.77567},{"name":"佃児童館","province":"東京都","city":"中央区","address":"中央区佃1-11-1","lat":35.66927,"lon":139.7834},{"name":"月島児童館","province":"東京都","city":"中央区","address":"中央区月島4-1-1","lat":35.66207,"lon":139.78218},{"name":"晴海児童館","province":"東京都","city":"中央区","address":"中央区晴海2-4-31","lat":35.65434,"lon":139.784},{"name":"勝どき児童館","province":"東京都","city":"中央区","address":"中央区勝どき1-8-1","lat":35.65958,"lon":139.77692},{"name":"三井記念美術館","province":"東京都","city":"中央区","address":"中央区日本橋室町2-1-1三井会館7階","lat":35.686293,"lon":139.772996},{"name":"＊?京橋図書館","province":"東京都","city":"中央区","address":"中央区築地1-1-1","lat":35.67063,"lon":139.772},{"name":"＊?日本橋図書館","province":"東京都","city":"中央区","address":"中央区日本橋人形町1-1-17","lat":35.684773,"lon":139.781493},{"name":"＊?月島図書館","province":"東京都","city":"中央区","address":"中央区月島4-1-1","lat":35.662043,"lon":139.782269},{"name":"浜町児童館","province":"東京都","city":"中央区","address":"中央区日本橋浜町3-37-1","lat":35.685518,"lon":139.791302},{"name":"堀留町児童館","province":"東京都","city":"中央区","address":"中央区日本橋堀留町1-1-1","lat":35.687412,"lon":139.778963},{"name":"新川児童館","province":"東京都","city":"中央区","address":"中央区新川2-13-4","lat":35.675969,"lon":139.781568},{"name":"築地児童館","province":"東京都","city":"中央区","address":"中央区築地7-9-17","lat":35.666223,"lon":139.775883},{"name":"佃児童館","province":"東京都","city":"中央区","address":"中央区佃1-11-1","lat":35.668925,"lon":139.784726},{"name":"月島児童館","province":"東京都","city":"中央区","address":"中央区月島4-1-1","lat":35.662059,"lon":139.782141},{"name":"晴海児童館","province":"東京都","city":"中央区","address":"中央区晴海2-4-31","lat":35.654907,"lon":139.783935},{"name":"勝どき児童館","province":"東京都","city":"中央区","address":"中央区勝どき1-8-1","lat":35.659665,"lon":139.776583},{"name":"\"中央区立京橋図書館 \"","province":"東京都","city":"中央区","address":"東京都中央区新富1-13-14","lat":35.673688,"lon":139.7756},{"name":"中央区立日本橋図書館","province":"東京都","city":"中央区","address":"東京都中央区日本橋人形町1-1-17","lat":35.684273,"lon":139.78123},{"name":"\"中央区立月島図書館 \"","province":"東京都","city":"中央区","address":"東京都中央区月島4-1-1","lat":35.661921,"lon":139.78192},{"name":"浜町児童館","province":"東京都","city":"中央区","address":"中央区日本橋浜町3-37-1","lat":35.68542,"lon":139.79137},{"name":"堀留町児童館","province":"東京都","city":"中央区","address":"中央区日本橋堀留町1-1-1","lat":35.68706,"lon":139.77928},{"name":"新川児童館","province":"東京都","city":"中央区","address":"中央区新川2-13-4","lat":35.67582,"lon":139.78195},{"name":"築地児童館","province":"東京都","city":"中央区","address":"中央区築地7-9-17","lat":35.66639,"lon":139.77567},{"name":"佃児童館","province":"東京都","city":"中央区","address":"中央区佃1-11-1","lat":35.66927,"lon":139.7834},{"name":"月島児童館","province":"東京都","city":"中央区","address":"中央区月島4-1-1","lat":35.66207,"lon":139.78218},{"name":"晴海児童館","province":"東京都","city":"中央区","address":"中央区晴海2-4-31","lat":35.65434,"lon":139.784},{"name":"勝どき児童館","province":"東京都","city":"中央区","address":"中央区勝どき1-8-1","lat":35.65958,"lon":139.77692},{"name":"三井記念美術館","province":"東京都","city":"中央区","address":"中央区日本橋室町2-1-1三井会館7階","lat":35.686293,"lon":139.772996},{"name":"＊?京橋図書館","province":"東京都","city":"中央区","address":"中央区築地1-1-1","lat":35.67063,"lon":139.772},{"name":"＊?日本橋図書館","province":"東京都","city":"中央区","address":"中央区日本橋人形町1-1-17","lat":35.684773,"lon":139.781493},{"name":"＊?月島図書館","province":"東京都","city":"中央区","address":"中央区月島4-1-1","lat":35.662043,"lon":139.782269},{"name":"浜町児童館","province":"東京都","city":"中央区","address":"中央区日本橋浜町3-37-1","lat":35.685518,"lon":139.791302},{"name":"堀留町児童館","province":"東京都","city":"中央区","address":"中央区日本橋堀留町1-1-1","lat":35.687412,"lon":139.778963},{"name":"新川児童館","province":"東京都","city":"中央区","address":"中央区新川2-13-4","lat":35.675969,"lon":139.781568},{"name":"築地児童館","province":"東京都","city":"中央区","address":"中央区築地7-9-17","lat":35.666223,"lon":139.775883},{"name":"佃児童館","province":"東京都","city":"中央区","address":"中央区佃1-11-1","lat":35.668925,"lon":139.784726},{"name":"月島児童館","province":"東京都","city":"中央区","address":"中央区月島4-1-1","lat":35.662059,"lon":139.782141},{"name":"晴海児童館","province":"東京都","city":"中央区","address":"中央区晴海2-4-31","lat":35.654907,"lon":139.783935},{"name":"勝どき児童館","province":"東京都","city":"中央区","address":"中央区勝どき1-8-1","lat":35.659665,"lon":139.776583},{"name":"\"中央区立京橋図書館 \"","province":"東京都","city":"中央区","address":"東京都中央区新富1-13-14","lat":35.673688,"lon":139.7756},{"name":"中央区立日本橋図書館","province":"東京都","city":"中央区","address":"東京都中央区日本橋人形町1-1-17","lat":35.684273,"lon":139.78123},{"name":"\"中央区立月島図書館 \"","province":"東京都","city":"中央区","address":"東京都中央区月島4-1-1","lat":35.661921,"lon":139.78192},{"name":"浜町児童館","province":"東京都","city":"中央区","address":"中央区日本橋浜町3-37-1","lat":35.68542,"lon":139.79137},{"name":"堀留町児童館","province":"東京都","city":"中央区","address":"中央区日本橋堀留町1-1-1","lat":35.68706,"lon":139.77928},{"name":"新川児童館","province":"東京都","city":"中央区","address":"中央区新川2-13-4","lat":35.67582,"lon":139.78195},{"name":"築地児童館","province":"東京都","city":"中央区","address":"中央区築地7-9-17","lat":35.66639,"lon":139.77567},{"name":"佃児童館","province":"東京都","city":"中央区","address":"中央区佃1-11-1","lat":35.66927,"lon":139.7834},{"name":"月島児童館","province":"東京都","city":"中央区","address":"中央区月島4-1-1","lat":35.66207,"lon":139.78218},{"name":"晴海児童館","province":"東京都","city":"中央区","address":"中央区晴海2-4-31","lat":35.65434,"lon":139.784},{"name":"勝どき児童館","province":"東京都","city":"中央区","address":"中央区勝どき1-8-1","lat":35.65958,"lon":139.77692},{"name":"三井記念美術館","province":"東京都","city":"中央区","address":"中央区日本橋室町2-1-1三井会館7階","lat":35.686293,"lon":139.772996},{"name":"＊?京橋図書館","province":"東京都","city":"中央区","address":"中央区築地1-1-1","lat":35.67063,"lon":139.772},{"name":"＊?日本橋図書館","province":"東京都","city":"中央区","address":"中央区日本橋人形町1-1-17","lat":35.684773,"lon":139.781493},{"name":"＊?月島図書館","province":"東京都","city":"中央区","address":"中央区月島4-1-1","lat":35.662043,"lon":139.782269},{"name":"浜町児童館","province":"東京都","city":"中央区","address":"中央区日本橋浜町3-37-1","lat":35.685518,"lon":139.791302},{"name":"堀留町児童館","province":"東京都","city":"中央区","address":"中央区日本橋堀留町1-1-1","lat":35.687412,"lon":139.778963},{"name":"新川児童館","province":"東京都","city":"中央区","address":"中央区新川2-13-4","lat":35.675969,"lon":139.781568},{"name":"築地児童館","province":"東京都","city":"中央区","address":"中央区築地7-9-17","lat":35.666223,"lon":139.775883},{"name":"佃児童館","province":"東京都","city":"中央区","address":"中央区佃1-11-1","lat":35.668925,"lon":139.784726},{"name":"月島児童館","province":"東京都","city":"中央区","address":"中央区月島4-1-1","lat":35.662059,"lon":139.782141},{"name":"晴海児童館","province":"東京都","city":"中央区","address":"中央区晴海2-4-31","lat":35.654907,"lon":139.783935},{"name":"勝どき児童館","province":"東京都","city":"中央区","address":"中央区勝どき1-8-1","lat":35.659665,"lon":139.776583},{"name":"\"中央区立京橋図書館 \"","province":"東京都","city":"中央区","address":"東京都中央区新富1-13-14","lat":35.673688,"lon":139.7756},{"name":"中央区立日本橋図書館","province":"東京都","city":"中央区","address":"東京都中央区日本橋人形町1-1-17","lat":35.684273,"lon":139.78123},{"name":"\"中央区立月島図書館 \"","province":"東京都","city":"中央区","address":"東京都中央区月島4-1-1","lat":35.661921,"lon":139.78192},{"name":"浜町児童館","province":"東京都","city":"中央区","address":"中央区日本橋浜町3-37-1","lat":35.68542,"lon":139.79137},{"name":"堀留町児童館","province":"東京都","city":"中央区","address":"中央区日本橋堀留町1-1-1","lat":35.68706,"lon":139.77928},{"name":"新川児童館","province":"東京都","city":"中央区","address":"中央区新川2-13-4","lat":35.67582,"lon":139.78195},{"name":"築地児童館","province":"東京都","city":"中央区","address":"中央区築地7-9-17","lat":35.66639,"lon":139.77567},{"name":"佃児童館","province":"東京都","city":"中央区","address":"中央区佃1-11-1","lat":35.66927,"lon":139.7834},{"name":"月島児童館","province":"東京都","city":"中央区","address":"中央区月島4-1-1","lat":35.66207,"lon":139.78218},{"name":"晴海児童館","province":"東京都","city":"中央区","address":"中央区晴海2-4-31","lat":35.65434,"lon":139.784},{"name":"勝どき児童館","province":"東京都","city":"中央区","address":"中央区勝どき1-8-1","lat":35.65958,"lon":139.77692},{"name":"三井記念美術館","province":"東京都","city":"中央区","address":"中央区日本橋室町2-1-1三井会館7階","lat":35.686293,"lon":139.772996},{"name":"＊?京橋図書館","province":"東京都","city":"中央区","address":"中央区築地1-1-1","lat":35.67063,"lon":139.772},{"name":"＊?日本橋図書館","province":"東京都","city":"中央区","address":"中央区日本橋人形町1-1-17","lat":35.684773,"lon":139.781493},{"name":"＊?月島図書館","province":"東京都","city":"中央区","address":"中央区月島4-1-1","lat":35.662043,"lon":139.782269},{"name":"浜町児童館","province":"東京都","city":"中央区","address":"中央区日本橋浜町3-37-1","lat":35.685518,"lon":139.791302},{"name":"堀留町児童館","province":"東京都","city":"中央区","address":"中央区日本橋堀留町1-1-1","lat":35.687412,"lon":139.778963},{"name":"新川児童館","province":"東京都","city":"中央区","address":"中央区新川2-13-4","lat":35.675969,"lon":139.781568},{"name":"築地児童館","province":"東京都","city":"中央区","address":"中央区築地7-9-17","lat":35.666223,"lon":139.775883},{"name":"佃児童館","province":"東京都","city":"中央区","address":"中央区佃1-11-1","lat":35.668925,"lon":139.784726},{"name":"月島児童館","province":"東京都","city":"中央区","address":"中央区月島4-1-1","lat":35.662059,"lon":139.782141},{"name":"晴海児童館","province":"東京都","city":"中央区","address":"中央区晴海2-4-31","lat":35.654907,"lon":139.783935},{"name":"勝どき児童館","province":"東京都","city":"中央区","address":"中央区勝どき1-8-1","lat":35.659665,"lon":139.776583},{"name":"\"中央区立京橋図書館 \"","province":"東京都","city":"中央区","address":"東京都中央区新富1-13-14","lat":35.673688,"lon":139.7756},{"name":"中央区立日本橋図書館","province":"東京都","city":"中央区","address":"東京都中央区日本橋人形町1-1-17","lat":35.684273,"lon":139.78123},{"name":"\"中央区立月島図書館 \"","province":"東京都","city":"中央区","address":"東京都中央区月島4-1-1","lat":35.661921,"lon":139.78192},{"name":"浜町児童館","province":"東京都","city":"中央区","address":"中央区日本橋浜町3-37-1","lat":35.68542,"lon":139.79137},{"name":"堀留町児童館","province":"東京都","city":"中央区","address":"中央区日本橋堀留町1-1-1","lat":35.68706,"lon":139.77928},{"name":"新川児童館","province":"東京都","city":"中央区","address":"中央区新川2-13-4","lat":35.67582,"lon":139.78195},{"name":"築地児童館","province":"東京都","city":"中央区","address":"中央区築地7-9-17","lat":35.66639,"lon":139.77567},{"name":"佃児童館","province":"東京都","city":"中央区","address":"中央区佃1-11-1","lat":35.66927,"lon":139.7834},{"name":"月島児童館","province":"東京都","city":"中央区","address":"中央区月島4-1-1","lat":35.66207,"lon":139.78218},{"name":"晴海児童館","province":"東京都","city":"中央区","address":"中央区晴海2-4-31","lat":35.65434,"lon":139.784},{"name":"勝どき児童館","province":"東京都","city":"中央区","address":"中央区勝どき1-8-1","lat":35.65958,"lon":139.77692},{"name":"三井記念美術館","province":"東京都","city":"中央区","address":"中央区日本橋室町2-1-1三井会館7階","lat":35.686293,"lon":139.772996},{"name":"＊?京橋図書館","province":"東京都","city":"中央区","address":"中央区築地1-1-1","lat":35.67063,"lon":139.772},{"name":"＊?日本橋図書館","province":"東京都","city":"中央区","address":"中央区日本橋人形町1-1-17","lat":35.684773,"lon":139.781493},{"name":"＊?月島図書館","province":"東京都","city":"中央区","address":"中央区月島4-1-1","lat":35.662043,"lon":139.782269},{"name":"浜町児童館","province":"東京都","city":"中央区","address":"中央区日本橋浜町3-37-1","lat":35.685518,"lon":139.791302},{"name":"堀留町児童館","province":"東京都","city":"中央区","address":"中央区日本橋堀留町1-1-1","lat":35.687412,"lon":139.778963},{"name":"新川児童館","province":"東京都","city":"中央区","address":"中央区新川2-13-4","lat":35.675969,"lon":139.781568},{"name":"築地児童館","province":"東京都","city":"中央区","address":"中央区築地7-9-17","lat":35.666223,"lon":139.775883},{"name":"佃児童館","province":"東京都","city":"中央区","address":"中央区佃1-11-1","lat":35.668925,"lon":139.784726},{"name":"月島児童館","province":"東京都","city":"中央区","address":"中央区月島4-1-1","lat":35.662059,"lon":139.782141},{"name":"晴海児童館","province":"東京都","city":"中央区","address":"中央区晴海2-4-31","lat":35.654907,"lon":139.783935},{"name":"勝どき児童館","province":"東京都","city":"中央区","address":"中央区勝どき1-8-1","lat":35.659665,"lon":139.776583},{"name":"\"中央区立京橋図書館 \"","province":"東京都","city":"中央区","address":"東京都中央区新富1-13-14","lat":35.673688,"lon":139.7756},{"name":"中央区立日本橋図書館","province":"東京都","city":"中央区","address":"東京都中央区日本橋人形町1-1-17","lat":35.684273,"lon":139.78123},{"name":"\"中央区立月島図書館 \"","province":"東京都","city":"中央区","address":"東京都中央区月島4-1-1","lat":35.661921,"lon":139.78192},{"name":"浜町児童館","province":"東京都","city":"中央区","address":"中央区日本橋浜町3-37-1","lat":35.68542,"lon":139.79137},{"name":"堀留町児童館","province":"東京都","city":"中央区","address":"中央区日本橋堀留町1-1-1","lat":35.68706,"lon":139.77928},{"name":"新川児童館","province":"東京都","city":"中央区","address":"中央区新川2-13-4","lat":35.67582,"lon":139.78195},{"name":"築地児童館","province":"東京都","city":"中央区","address":"中央区築地7-9-17","lat":35.66639,"lon":139.77567},{"name":"佃児童館","province":"東京都","city":"中央区","address":"中央区佃1-11-1","lat":35.66927,"lon":139.7834},{"name":"月島児童館","province":"東京都","city":"中央区","address":"中央区月島4-1-1","lat":35.66207,"lon":139.78218},{"name":"晴海児童館","province":"東京都","city":"中央区","address":"中央区晴海2-4-31","lat":35.65434,"lon":139.784},{"name":"勝どき児童館","province":"東京都","city":"中央区","address":"中央区勝どき1-8-1","lat":35.65958,"lon":139.77692},{"name":"三井記念美術館","province":"東京都","city":"中央区","address":"中央区日本橋室町2-1-1三井会館7階","lat":35.686293,"lon":139.772996},{"name":"＊?京橋図書館","province":"東京都","city":"中央区","address":"中央区築地1-1-1","lat":35.67063,"lon":139.772},{"name":"＊?日本橋図書館","province":"東京都","city":"中央区","address":"中央区日本橋人形町1-1-17","lat":35.684773,"lon":139.781493},{"name":"＊?月島図書館","province":"東京都","city":"中央区","address":"中央区月島4-1-1","lat":35.662043,"lon":139.782269},{"name":"浜町児童館","province":"東京都","city":"中央区","address":"中央区日本橋浜町3-37-1","lat":35.685518,"lon":139.791302},{"name":"堀留町児童館","province":"東京都","city":"中央区","address":"中央区日本橋堀留町1-1-1","lat":35.687412,"lon":139.778963},{"name":"新川児童館","province":"東京都","city":"中央区","address":"中央区新川2-13-4","lat":35.675969,"lon":139.781568},{"name":"築地児童館","province":"東京都","city":"中央区","address":"中央区築地7-9-17","lat":35.666223,"lon":139.775883},{"name":"佃児童館","province":"東京都","city":"中央区","address":"中央区佃1-11-1","lat":35.668925,"lon":139.784726},{"name":"月島児童館","province":"東京都","city":"中央区","address":"中央区月島4-1-1","lat":35.662059,"lon":139.782141},{"name":"晴海児童館","province":"東京都","city":"中央区","address":"中央区晴海2-4-31","lat":35.654907,"lon":139.783935},{"name":"勝どき児童館","province":"東京都","city":"中央区","address":"中央区勝どき1-8-1","lat":35.659665,"lon":139.776583},{"name":"\"中央区立京橋図書館 \"","province":"東京都","city":"中央区","address":"東京都中央区新富1-13-14","lat":35.673688,"lon":139.7756},{"name":"中央区立日本橋図書館","province":"東京都","city":"中央区","address":"東京都中央区日本橋人形町1-1-17","lat":35.684273,"lon":139.78123},{"name":"\"中央区立月島図書館 \"","province":"東京都","city":"中央区","address":"東京都中央区月島4-1-1","lat":35.661921,"lon":139.78192},{"name":"浜町児童館","province":"東京都","city":"中央区","address":"中央区日本橋浜町3-37-1","lat":35.68542,"lon":139.79137},{"name":"堀留町児童館","province":"東京都","city":"中央区","address":"中央区日本橋堀留町1-1-1","lat":35.68706,"lon":139.77928},{"name":"新川児童館","province":"東京都","city":"中央区","address":"中央区新川2-13-4","lat":35.67582,"lon":139.78195},{"name":"築地児童館","province":"東京都","city":"中央区","address":"中央区築地7-9-17","lat":35.66639,"lon":139.77567},{"name":"佃児童館","province":"東京都","city":"中央区","address":"中央区佃1-11-1","lat":35.66927,"lon":139.7834},{"name":"月島児童館","province":"東京都","city":"中央区","address":"中央区月島4-1-1","lat":35.66207,"lon":139.78218},{"name":"晴海児童館","province":"東京都","city":"中央区","address":"中央区晴海2-4-31","lat":35.65434,"lon":139.784},{"name":"勝どき児童館","province":"東京都","city":"中央区","address":"中央区勝どき1-8-1","lat":35.65958,"lon":139.77692},{"name":"三井記念美術館","province":"東京都","city":"中央区","address":"中央区日本橋室町2-1-1三井会館7階","lat":35.686293,"lon":139.772996},{"name":"＊?京橋図書館","province":"東京都","city":"中央区","address":"中央区築地1-1-1","lat":35.67063,"lon":139.772},{"name":"＊?日本橋図書館","province":"東京都","city":"中央区","address":"中央区日本橋人形町1-1-17","lat":35.684773,"lon":139.781493},{"name":"＊?月島図書館","province":"東京都","city":"中央区","address":"中央区月島4-1-1","lat":35.662043,"lon":139.782269},{"name":"浜町児童館","province":"東京都","city":"中央区","address":"中央区日本橋浜町3-37-1","lat":35.685518,"lon":139.791302},{"name":"堀留町児童館","province":"東京都","city":"中央区","address":"中央区日本橋堀留町1-1-1","lat":35.687412,"lon":139.778963},{"name":"新川児童館","province":"東京都","city":"中央区","address":"中央区新川2-13-4","lat":35.675969,"lon":139.781568},{"name":"築地児童館","province":"東京都","city":"中央区","address":"中央区築地7-9-17","lat":35.666223,"lon":139.775883},{"name":"佃児童館","province":"東京都","city":"中央区","address":"中央区佃1-11-1","lat":35.668925,"lon":139.784726},{"name":"月島児童館","province":"東京都","city":"中央区","address":"中央区月島4-1-1","lat":35.662059,"lon":139.782141},{"name":"晴海児童館","province":"東京都","city":"中央区","address":"中央区晴海2-4-31","lat":35.654907,"lon":139.783935},{"name":"勝どき児童館","province":"東京都","city":"中央区","address":"中央区勝どき1-8-1","lat":35.659665,"lon":139.776583},{"name":"\"中央区立京橋図書館 \"","province":"東京都","city":"中央区","address":"東京都中央区新富1-13-14","lat":35.673688,"lon":139.7756},{"name":"中央区立日本橋図書館","province":"東京都","city":"中央区","address":"東京都中央区日本橋人形町1-1-17","lat":35.684273,"lon":139.78123},{"name":"\"中央区立月島図書館 \"","province":"東京都","city":"中央区","address":"東京都中央区月島4-1-1","lat":35.661921,"lon":139.78192},{"name":"浜町児童館","province":"東京都","city":"中央区","address":"中央区日本橋浜町3-37-1","lat":35.68542,"lon":139.79137},{"name":"堀留町児童館","province":"東京都","city":"中央区","address":"中央区日本橋堀留町1-1-1","lat":35.68706,"lon":139.77928},{"name":"新川児童館","province":"東京都","city":"中央区","address":"中央区新川2-13-4","lat":35.67582,"lon":139.78195},{"name":"築地児童館","province":"東京都","city":"中央区","address":"中央区築地7-9-17","lat":35.66639,"lon":139.77567},{"name":"佃児童館","province":"東京都","city":"中央区","address":"中央区佃1-11-1","lat":35.66927,"lon":139.7834},{"name":"月島児童館","province":"東京都","city":"中央区","address":"中央区月島4-1-1","lat":35.66207,"lon":139.78218},{"name":"晴海児童館","province":"東京都","city":"中央区","address":"中央区晴海2-4-31","lat":35.65434,"lon":139.784},{"name":"勝どき児童館","province":"東京都","city":"中央区","address":"中央区勝どき1-8-1","lat":35.65958,"lon":139.77692},{"name":"＊?京橋図書館","province":"東京都","city":"中央区","address":"中央区築地1-1-1","lat":35.67063,"lon":139.772},{"name":"＊?日本橋図書館","province":"東京都","city":"中央区","address":"中央区日本橋人形町1-1-17","lat":35.684773,"lon":139.781493},{"name":"＊?月島図書館","province":"東京都","city":"中央区","address":"中央区月島4-1-1","lat":35.662043,"lon":139.782269},{"name":"浜町児童館","province":"東京都","city":"中央区","address":"中央区日本橋浜町3-37-1","lat":35.685518,"lon":139.791302},{"name":"堀留町児童館","province":"東京都","city":"中央区","address":"中央区日本橋堀留町1-1-1","lat":35.687412,"lon":139.778963},{"name":"新川児童館","province":"東京都","city":"中央区","address":"中央区新川2-13-4","lat":35.675969,"lon":139.781568},{"name":"築地児童館","province":"東京都","city":"中央区","address":"中央区築地7-9-17","lat":35.666223,"lon":139.775883},{"name":"佃児童館","province":"東京都","city":"中央区","address":"中央区佃1-11-1","lat":35.668925,"lon":139.784726},{"name":"月島児童館","province":"東京都","city":"中央区","address":"中央区月島4-1-1","lat":35.662059,"lon":139.782141},{"name":"晴海児童館","province":"東京都","city":"中央区","address":"中央区晴海2-4-31","lat":35.654907,"lon":139.783935},{"name":"勝どき児童館","province":"東京都","city":"中央区","address":"中央区勝どき1-8-1","lat":35.659665,"lon":139.776583},{"name":"\"中央区立京橋図書館 \"","province":"東京都","city":"中央区","address":"東京都中央区新富1-13-14","lat":35.673688,"lon":139.7756},{"name":"中央区立日本橋図書館","province":"東京都","city":"中央区","address":"東京都中央区日本橋人形町1-1-17","lat":35.684273,"lon":139.78123},{"name":"\"中央区立月島図書館 \"","province":"東京都","city":"中央区","address":"東京都中央区月島4-1-1","lat":35.661921,"lon":139.78192},{"name":"浜町児童館","province":"東京都","city":"中央区","address":"中央区日本橋浜町3-37-1","lat":35.68542,"lon":139.79137},{"name":"堀留町児童館","province":"東京都","city":"中央区","address":"中央区日本橋堀留町1-1-1","lat":35.68706,"lon":139.77928},{"name":"新川児童館","province":"東京都","city":"中央区","address":"中央区新川2-13-4","lat":35.67582,"lon":139.78195},{"name":"築地児童館","province":"東京都","city":"中央区","address":"中央区築地7-9-17","lat":35.66639,"lon":139.77567},{"name":"佃児童館","province":"東京都","city":"中央区","address":"中央区佃1-11-1","lat":35.66927,"lon":139.7834},{"name":"月島児童館","province":"東京都","city":"中央区","address":"中央区月島4-1-1","lat":35.66207,"lon":139.78218},{"name":"晴海児童館","province":"東京都","city":"中央区","address":"中央区晴海2-4-31","lat":35.65434,"lon":139.784},{"name":"勝どき児童館","province":"東京都","city":"中央区","address":"中央区勝どき1-8-1","lat":35.65958,"lon":139.77692},{"name":"＊?京橋図書館","province":"東京都","city":"中央区","address":"中央区築地1-1-1","lat":35.67063,"lon":139.772},{"name":"＊?日本橋図書館","province":"東京都","city":"中央区","address":"中央区日本橋人形町1-1-17","lat":35.684773,"lon":139.781493},{"name":"＊?月島図書館","province":"東京都","city":"中央区","address":"中央区月島4-1-1","lat":35.662043,"lon":139.782269},{"name":"浜町児童館","province":"東京都","city":"中央区","address":"中央区日本橋浜町3-37-1","lat":35.685518,"lon":139.791302},{"name":"堀留町児童館","province":"東京都","city":"中央区","address":"中央区日本橋堀留町1-1-1","lat":35.687412,"lon":139.778963},{"name":"新川児童館","province":"東京都","city":"中央区","address":"中央区新川2-13-4","lat":35.675969,"lon":139.781568},{"name":"築地児童館","province":"東京都","city":"中央区","address":"中央区築地7-9-17","lat":35.666223,"lon":139.775883},{"name":"佃児童館","province":"東京都","city":"中央区","address":"中央区佃1-11-1","lat":35.668925,"lon":139.784726},{"name":"月島児童館","province":"東京都","city":"中央区","address":"中央区月島4-1-1","lat":35.662059,"lon":139.782141},{"name":"晴海児童館","province":"東京都","city":"中央区","address":"中央区晴海2-4-31","lat":35.654907,"lon":139.783935},{"name":"勝どき児童館","province":"東京都","city":"中央区","address":"中央区勝どき1-8-1","lat":35.659665,"lon":139.776583},{"name":"\"中央区立京橋図書館 \"","province":"東京都","city":"中央区","address":"東京都中央区新富1-13-14","lat":35.673688,"lon":139.7756},{"name":"中央区立日本橋図書館","province":"東京都","city":"中央区","address":"東京都中央区日本橋人形町1-1-17","lat":35.684273,"lon":139.78123},{"name":"\"中央区立月島図書館 \"","province":"東京都","city":"中央区","address":"東京都中央区月島4-1-1","lat":35.661921,"lon":139.78192},{"name":"浜町児童館","province":"東京都","city":"中央区","address":"中央区日本橋浜町3-37-1","lat":35.68542,"lon":139.79137},{"name":"堀留町児童館","province":"東京都","city":"中央区","address":"中央区日本橋堀留町1-1-1","lat":35.68706,"lon":139.77928},{"name":"新川児童館","province":"東京都","city":"中央区","address":"中央区新川2-13-4","lat":35.67582,"lon":139.78195},{"name":"築地児童館","province":"東京都","city":"中央区","address":"中央区築地7-9-17","lat":35.66639,"lon":139.77567},{"name":"佃児童館","province":"東京都","city":"中央区","address":"中央区佃1-11-1","lat":35.66927,"lon":139.7834},{"name":"月島児童館","province":"東京都","city":"中央区","address":"中央区月島4-1-1","lat":35.66207,"lon":139.78218},{"name":"晴海児童館","province":"東京都","city":"中央区","address":"中央区晴海2-4-31","lat":35.65434,"lon":139.784},{"name":"勝どき児童館","province":"東京都","city":"中央区","address":"中央区勝どき1-8-1","lat":35.65958,"lon":139.77692},{"name":"＊?京橋図書館","province":"東京都","city":"中央区","address":"中央区築地1-1-1","lat":35.67063,"lon":139.772},{"name":"＊?日本橋図書館","province":"東京都","city":"中央区","address":"中央区日本橋人形町1-1-17","lat":35.684773,"lon":139.781493},{"name":"＊?月島図書館","province":"東京都","city":"中央区","address":"中央区月島4-1-1","lat":35.662043,"lon":139.782269},{"name":"浜町児童館","province":"東京都","city":"中央区","address":"中央区日本橋浜町3-37-1","lat":35.685518,"lon":139.791302},{"name":"堀留町児童館","province":"東京都","city":"中央区","address":"中央区日本橋堀留町1-1-1","lat":35.687412,"lon":139.778963},{"name":"新川児童館","province":"東京都","city":"中央区","address":"中央区新川2-13-4","lat":35.675969,"lon":139.781568},{"name":"築地児童館","province":"東京都","city":"中央区","address":"中央区築地7-9-17","lat":35.666223,"lon":139.775883},{"name":"佃児童館","province":"東京都","city":"中央区","address":"中央区佃1-11-1","lat":35.668925,"lon":139.784726},{"name":"月島児童館","province":"東京都","city":"中央区","address":"中央区月島4-1-1","lat":35.662059,"lon":139.782141},{"name":"晴海児童館","province":"東京都","city":"中央区","address":"中央区晴海2-4-31","lat":35.654907,"lon":139.783935},{"name":"勝どき児童館","province":"東京都","city":"中央区","address":"中央区勝どき1-8-1","lat":35.659665,"lon":139.776583},{"name":"\"中央区立京橋図書館 \"","province":"東京都","city":"中央区","address":"東京都中央区新富1-13-14","lat":35.673688,"lon":139.7756},{"name":"中央区立日本橋図書館","province":"東京都","city":"中央区","address":"東京都中央区日本橋人形町1-1-17","lat":35.684273,"lon":139.78123},{"name":"\"中央区立月島図書館 \"","province":"東京都","city":"中央区","address":"東京都中央区月島4-1-1","lat":35.661921,"lon":139.78192},{"name":"浜町児童館","province":"東京都","city":"中央区","address":"中央区日本橋浜町3-37-1","lat":35.68542,"lon":139.79137},{"name":"堀留町児童館","province":"東京都","city":"中央区","address":"中央区日本橋堀留町1-1-1","lat":35.68706,"lon":139.77928},{"name":"新川児童館","province":"東京都","city":"中央区","address":"中央区新川2-13-4","lat":35.67582,"lon":139.78195},{"name":"築地児童館","province":"東京都","city":"中央区","address":"中央区築地7-9-17","lat":35.66639,"lon":139.77567},{"name":"佃児童館","province":"東京都","city":"中央区","address":"中央区佃1-11-1","lat":35.66927,"lon":139.7834},{"name":"月島児童館","province":"東京都","city":"中央区","address":"中央区月島4-1-1","lat":35.66207,"lon":139.78218},{"name":"晴海児童館","province":"東京都","city":"中央区","address":"中央区晴海2-4-31","lat":35.65434,"lon":139.784},{"name":"勝どき児童館","province":"東京都","city":"中央区","address":"中央区勝どき1-8-1","lat":35.65958,"lon":139.77692},{"name":"＊?京橋図書館","province":"東京都","city":"中央区","address":"中央区築地1-1-1","lat":35.67063,"lon":139.772},{"name":"＊?日本橋図書館","province":"東京都","city":"中央区","address":"中央区日本橋人形町1-1-17","lat":35.684773,"lon":139.781493},{"name":"＊?月島図書館","province":"東京都","city":"中央区","address":"中央区月島4-1-1","lat":35.662043,"lon":139.782269},{"name":"浜町児童館","province":"東京都","city":"中央区","address":"中央区日本橋浜町3-37-1","lat":35.685518,"lon":139.791302},{"name":"堀留町児童館","province":"東京都","city":"中央区","address":"中央区日本橋堀留町1-1-1","lat":35.687412,"lon":139.778963},{"name":"新川児童館","province":"東京都","city":"中央区","address":"中央区新川2-13-4","lat":35.675969,"lon":139.781568},{"name":"築地児童館","province":"東京都","city":"中央区","address":"中央区築地7-9-17","lat":35.666223,"lon":139.775883},{"name":"佃児童館","province":"東京都","city":"中央区","address":"中央区佃1-11-1","lat":35.668925,"lon":139.784726},{"name":"月島児童館","province":"東京都","city":"中央区","address":"中央区月島4-1-1","lat":35.662059,"lon":139.782141},{"name":"晴海児童館","province":"東京都","city":"中央区","address":"中央区晴海2-4-31","lat":35.654907,"lon":139.783935},{"name":"勝どき児童館","province":"東京都","city":"中央区","address":"中央区勝どき1-8-1","lat":35.659665,"lon":139.776583},{"name":"\"中央区立京橋図書館 \"","province":"東京都","city":"中央区","address":"東京都中央区新富1-13-14","lat":35.673688,"lon":139.7756},{"name":"中央区立日本橋図書館","province":"東京都","city":"中央区","address":"東京都中央区日本橋人形町1-1-17","lat":35.684273,"lon":139.78123},{"name":"\"中央区立月島図書館 \"","province":"東京都","city":"中央区","address":"東京都中央区月島4-1-1","lat":35.661921,"lon":139.78192},{"name":"浜町児童館","province":"東京都","city":"中央区","address":"中央区日本橋浜町3-37-1","lat":35.68542,"lon":139.79137},{"name":"堀留町児童館","province":"東京都","city":"中央区","address":"中央区日本橋堀留町1-1-1","lat":35.68706,"lon":139.77928},{"name":"新川児童館","province":"東京都","city":"中央区","address":"中央区新川2-13-4","lat":35.67582,"lon":139.78195},{"name":"築地児童館","province":"東京都","city":"中央区","address":"中央区築地7-9-17","lat":35.66639,"lon":139.77567},{"name":"佃児童館","province":"東京都","city":"中央区","address":"中央区佃1-11-1","lat":35.66927,"lon":139.7834},{"name":"月島児童館","province":"東京都","city":"中央区","address":"中央区月島4-1-1","lat":35.66207,"lon":139.78218},{"name":"晴海児童館","province":"東京都","city":"中央区","address":"中央区晴海2-4-31","lat":35.65434,"lon":139.784},{"name":"勝どき児童館","province":"東京都","city":"中央区","address":"中央区勝どき1-8-1","lat":35.65958,"lon":139.77692},{"name":"＊?京橋図書館","province":"東京都","city":"中央区","address":"中央区築地1-1-1","lat":35.67063,"lon":139.772},{"name":"＊?日本橋図書館","province":"東京都","city":"中央区","address":"中央区日本橋人形町1-1-17","lat":35.684773,"lon":139.781493},{"name":"＊?月島図書館","province":"東京都","city":"中央区","address":"中央区月島4-1-1","lat":35.662043,"lon":139.782269},{"name":"浜町児童館","province":"東京都","city":"中央区","address":"中央区日本橋浜町3-37-1","lat":35.685518,"lon":139.791302},{"name":"堀留町児童館","province":"東京都","city":"中央区","address":"中央区日本橋堀留町1-1-1","lat":35.687412,"lon":139.778963},{"name":"新川児童館","province":"東京都","city":"中央区","address":"中央区新川2-13-4","lat":35.675969,"lon":139.781568},{"name":"築地児童館","province":"東京都","city":"中央区","address":"中央区築地7-9-17","lat":35.666223,"lon":139.775883},{"name":"佃児童館","province":"東京都","city":"中央区","address":"中央区佃1-11-1","lat":35.668925,"lon":139.784726},{"name":"月島児童館","province":"東京都","city":"中央区","address":"中央区月島4-1-1","lat":35.662059,"lon":139.782141},{"name":"晴海児童館","province":"東京都","city":"中央区","address":"中央区晴海2-4-31","lat":35.654907,"lon":139.783935},{"name":"勝どき児童館","province":"東京都","city":"中央区","address":"中央区勝どき1-8-1","lat":35.659665,"lon":139.776583},{"name":"\"中央区立京橋図書館 \"","province":"東京都","city":"中央区","address":"東京都中央区新富1-13-14","lat":35.673688,"lon":139.7756},{"name":"中央区立日本橋図書館","province":"東京都","city":"中央区","address":"東京都中央区日本橋人形町1-1-17","lat":35.684273,"lon":139.78123},{"name":"\"中央区立月島図書館 \"","province":"東京都","city":"中央区","address":"東京都中央区月島4-1-1","lat":35.661921,"lon":139.78192},{"name":"浜町児童館","province":"東京都","city":"中央区","address":"中央区日本橋浜町3-37-1","lat":35.68542,"lon":139.79137},{"name":"堀留町児童館","province":"東京都","city":"中央区","address":"中央区日本橋堀留町1-1-1","lat":35.68706,"lon":139.77928},{"name":"新川児童館","province":"東京都","city":"中央区","address":"中央区新川2-13-4","lat":35.67582,"lon":139.78195},{"name":"築地児童館","province":"東京都","city":"中央区","address":"中央区築地7-9-17","lat":35.66639,"lon":139.77567},{"name":"佃児童館","province":"東京都","city":"中央区","address":"中央区佃1-11-1","lat":35.66927,"lon":139.7834},{"name":"月島児童館","province":"東京都","city":"中央区","address":"中央区月島4-1-1","lat":35.66207,"lon":139.78218},{"name":"晴海児童館","province":"東京都","city":"中央区","address":"中央区晴海2-4-31","lat":35.65434,"lon":139.784},{"name":"勝どき児童館","province":"東京都","city":"中央区","address":"中央区勝どき1-8-1","lat":35.65958,"lon":139.77692},{"name":"＊?京橋図書館","province":"東京都","city":"中央区","address":"中央区築地1-1-1","lat":35.67063,"lon":139.772},{"name":"＊?日本橋図書館","province":"東京都","city":"中央区","address":"中央区日本橋人形町1-1-17","lat":35.684773,"lon":139.781493},{"name":"＊?月島図書館","province":"東京都","city":"中央区","address":"中央区月島4-1-1","lat":35.662043,"lon":139.782269},{"name":"浜町児童館","province":"東京都","city":"中央区","address":"中央区日本橋浜町3-37-1","lat":35.685518,"lon":139.791302},{"name":"堀留町児童館","province":"東京都","city":"中央区","address":"中央区日本橋堀留町1-1-1","lat":35.687412,"lon":139.778963},{"name":"新川児童館","province":"東京都","city":"中央区","address":"中央区新川2-13-4","lat":35.675969,"lon":139.781568},{"name":"築地児童館","province":"東京都","city":"中央区","address":"中央区築地7-9-17","lat":35.666223,"lon":139.775883},{"name":"佃児童館","province":"東京都","city":"中央区","address":"中央区佃1-11-1","lat":35.668925,"lon":139.784726},{"name":"月島児童館","province":"東京都","city":"中央区","address":"中央区月島4-1-1","lat":35.662059,"lon":139.782141},{"name":"晴海児童館","province":"東京都","city":"中央区","address":"中央区晴海2-4-31","lat":35.654907,"lon":139.783935},{"name":"勝どき児童館","province":"東京都","city":"中央区","address":"中央区勝どき1-8-1","lat":35.659665,"lon":139.776583},{"name":"\"中央区立京橋図書館 \"","province":"東京都","city":"中央区","address":"東京都中央区新富1-13-14","lat":35.673688,"lon":139.7756},{"name":"中央区立日本橋図書館","province":"東京都","city":"中央区","address":"東京都中央区日本橋人形町1-1-17","lat":35.684273,"lon":139.78123},{"name":"\"中央区立月島図書館 \"","province":"東京都","city":"中央区","address":"東京都中央区月島4-1-1","lat":35.661921,"lon":139.78192},{"name":"浜町児童館","province":"東京都","city":"中央区","address":"中央区日本橋浜町3-37-1","lat":35.68542,"lon":139.79137},{"name":"堀留町児童館","province":"東京都","city":"中央区","address":"中央区日本橋堀留町1-1-1","lat":35.68706,"lon":139.77928},{"name":"新川児童館","province":"東京都","city":"中央区","address":"中央区新川2-13-4","lat":35.67582,"lon":139.78195},{"name":"築地児童館","province":"東京都","city":"中央区","address":"中央区築地7-9-17","lat":35.66639,"lon":139.77567},{"name":"佃児童館","province":"東京都","city":"中央区","address":"中央区佃1-11-1","lat":35.66927,"lon":139.7834},{"name":"月島児童館","province":"東京都","city":"中央区","address":"中央区月島4-1-1","lat":35.66207,"lon":139.78218},{"name":"晴海児童館","province":"東京都","city":"中央区","address":"中央区晴海2-4-31","lat":35.65434,"lon":139.784},{"name":"勝どき児童館","province":"東京都","city":"中央区","address":"中央区勝どき1-8-1","lat":35.65958,"lon":139.77692},{"name":"＊?京橋図書館","province":"東京都","city":"中央区","address":"中央区築地1-1-1","lat":35.67063,"lon":139.772},{"name":"＊?日本橋図書館","province":"東京都","city":"中央区","address":"中央区日本橋人形町1-1-17","lat":35.684773,"lon":139.781493},{"name":"＊?月島図書館","province":"東京都","city":"中央区","address":"中央区月島4-1-1","lat":35.662043,"lon":139.782269},{"name":"浜町児童館","province":"東京都","city":"中央区","address":"中央区日本橋浜町3-37-1","lat":35.685518,"lon":139.791302},{"name":"堀留町児童館","province":"東京都","city":"中央区","address":"中央区日本橋堀留町1-1-1","lat":35.687412,"lon":139.778963},{"name":"新川児童館","province":"東京都","city":"中央区","address":"中央区新川2-13-4","lat":35.675969,"lon":139.781568},{"name":"築地児童館","province":"東京都","city":"中央区","address":"中央区築地7-9-17","lat":35.666223,"lon":139.775883},{"name":"佃児童館","province":"東京都","city":"中央区","address":"中央区佃1-11-1","lat":35.668925,"lon":139.784726},{"name":"月島児童館","province":"東京都","city":"中央区","address":"中央区月島4-1-1","lat":35.662059,"lon":139.782141},{"name":"晴海児童館","province":"東京都","city":"中央区","address":"中央区晴海2-4-31","lat":35.654907,"lon":139.783935},{"name":"勝どき児童館","province":"東京都","city":"中央区","address":"中央区勝どき1-8-1","lat":35.659665,"lon":139.776583},{"name":"\"中央区立京橋図書館 \"","province":"東京都","city":"中央区","address":"東京都中央区新富1-13-14","lat":35.673688,"lon":139.7756},{"name":"中央区立日本橋図書館","province":"東京都","city":"中央区","address":"東京都中央区日本橋人形町1-1-17","lat":35.684273,"lon":139.78123},{"name":"\"中央区立月島図書館 \"","province":"東京都","city":"中央区","address":"東京都中央区月島4-1-1","lat":35.661921,"lon":139.78192},{"name":"浜町児童館","province":"東京都","city":"中央区","address":"中央区日本橋浜町3-37-1","lat":35.68542,"lon":139.79137},{"name":"堀留町児童館","province":"東京都","city":"中央区","address":"中央区日本橋堀留町1-1-1","lat":35.68706,"lon":139.77928},{"name":"新川児童館","province":"東京都","city":"中央区","address":"中央区新川2-13-4","lat":35.67582,"lon":139.78195},{"name":"築地児童館","province":"東京都","city":"中央区","address":"中央区築地7-9-17","lat":35.66639,"lon":139.77567},{"name":"佃児童館","province":"東京都","city":"中央区","address":"中央区佃1-11-1","lat":35.66927,"lon":139.7834},{"name":"月島児童館","province":"東京都","city":"中央区","address":"中央区月島4-1-1","lat":35.66207,"lon":139.78218},{"name":"晴海児童館","province":"東京都","city":"中央区","address":"中央区晴海2-4-31","lat":35.65434,"lon":139.784},{"name":"勝どき児童館","province":"東京都","city":"中央区","address":"中央区勝どき1-8-1","lat":35.65958,"lon":139.77692},{"name":"＊?京橋図書館","province":"東京都","city":"中央区","address":"中央区築地1-1-1","lat":35.67063,"lon":139.772},{"name":"＊?日本橋図書館","province":"東京都","city":"中央区","address":"中央区日本橋人形町1-1-17","lat":35.684773,"lon":139.781493},{"name":"＊?月島図書館","province":"東京都","city":"中央区","address":"中央区月島4-1-1","lat":35.662043,"lon":139.782269},{"name":"浜町児童館","province":"東京都","city":"中央区","address":"中央区日本橋浜町3-37-1","lat":35.685518,"lon":139.791302},{"name":"堀留町児童館","province":"東京都","city":"中央区","address":"中央区日本橋堀留町1-1-1","lat":35.687412,"lon":139.778963},{"name":"新川児童館","province":"東京都","city":"中央区","address":"中央区新川2-13-4","lat":35.675969,"lon":139.781568},{"name":"築地児童館","province":"東京都","city":"中央区","address":"中央区築地7-9-17","lat":35.666223,"lon":139.775883},{"name":"佃児童館","province":"東京都","city":"中央区","address":"中央区佃1-11-1","lat":35.668925,"lon":139.784726},{"name":"月島児童館","province":"東京都","city":"中央区","address":"中央区月島4-1-1","lat":35.662059,"lon":139.782141},{"name":"晴海児童館","province":"東京都","city":"中央区","address":"中央区晴海2-4-31","lat":35.654907,"lon":139.783935},{"name":"勝どき児童館","province":"東京都","city":"中央区","address":"中央区勝どき1-8-1","lat":35.659665,"lon":139.776583},{"name":"\"中央区立京橋図書館 \"","province":"東京都","city":"中央区","address":"東京都中央区新富1-13-14","lat":35.673688,"lon":139.7756},{"name":"中央区立日本橋図書館","province":"東京都","city":"中央区","address":"東京都中央区日本橋人形町1-1-17","lat":35.684273,"lon":139.78123},{"name":"\"中央区立月島図書館 \"","province":"東京都","city":"中央区","address":"東京都中央区月島4-1-1","lat":35.661921,"lon":139.78192},{"name":"浜町児童館","province":"東京都","city":"中央区","address":"中央区日本橋浜町3-37-1","lat":35.68542,"lon":139.79137},{"name":"堀留町児童館","province":"東京都","city":"中央区","address":"中央区日本橋堀留町1-1-1","lat":35.68706,"lon":139.77928},{"name":"新川児童館","province":"東京都","city":"中央区","address":"中央区新川2-13-4","lat":35.67582,"lon":139.78195},{"name":"築地児童館","province":"東京都","city":"中央区","address":"中央区築地7-9-17","lat":35.66639,"lon":139.77567},{"name":"佃児童館","province":"東京都","city":"中央区","address":"中央区佃1-11-1","lat":35.66927,"lon":139.7834},{"name":"月島児童館","province":"東京都","city":"中央区","address":"中央区月島4-1-1","lat":35.66207,"lon":139.78218},{"name":"晴海児童館","province":"東京都","city":"中央区","address":"中央区晴海2-4-31","lat":35.65434,"lon":139.784},{"name":"勝どき児童館","province":"東京都","city":"中央区","address":"中央区勝どき1-8-1","lat":35.65958,"lon":139.77692},{"name":"＊?京橋図書館","province":"東京都","city":"中央区","address":"中央区築地1-1-1","lat":35.67063,"lon":139.772},{"name":"＊?日本橋図書館","province":"東京都","city":"中央区","address":"中央区日本橋人形町1-1-17","lat":35.684773,"lon":139.781493},{"name":"＊?月島図書館","province":"東京都","city":"中央区","address":"中央区月島4-1-1","lat":35.662043,"lon":139.782269},{"name":"浜町児童館","province":"東京都","city":"中央区","address":"中央区日本橋浜町3-37-1","lat":35.685518,"lon":139.791302},{"name":"堀留町児童館","province":"東京都","city":"中央区","address":"中央区日本橋堀留町1-1-1","lat":35.687412,"lon":139.778963},{"name":"新川児童館","province":"東京都","city":"中央区","address":"中央区新川2-13-4","lat":35.675969,"lon":139.781568},{"name":"築地児童館","province":"東京都","city":"中央区","address":"中央区築地7-9-17","lat":35.666223,"lon":139.775883},{"name":"佃児童館","province":"東京都","city":"中央区","address":"中央区佃1-11-1","lat":35.668925,"lon":139.784726},{"name":"月島児童館","province":"東京都","city":"中央区","address":"中央区月島4-1-1","lat":35.662059,"lon":139.782141},{"name":"晴海児童館","province":"東京都","city":"中央区","address":"中央区晴海2-4-31","lat":35.654907,"lon":139.783935},{"name":"勝どき児童館","province":"東京都","city":"中央区","address":"中央区勝どき1-8-1","lat":35.659665,"lon":139.776583},{"name":"\"中央区立京橋図書館 \"","province":"東京都","city":"中央区","address":"東京都中央区新富1-13-14","lat":35.673688,"lon":139.7756},{"name":"中央区立日本橋図書館","province":"東京都","city":"中央区","address":"東京都中央区日本橋人形町1-1-17","lat":35.684273,"lon":139.78123},{"name":"\"中央区立月島図書館 \"","province":"東京都","city":"中央区","address":"東京都中央区月島4-1-1","lat":35.661921,"lon":139.78192},{"name":"浜町児童館","province":"東京都","city":"中央区","address":"中央区日本橋浜町3-37-1","lat":35.68542,"lon":139.79137},{"name":"堀留町児童館","province":"東京都","city":"中央区","address":"中央区日本橋堀留町1-1-1","lat":35.68706,"lon":139.77928},{"name":"新川児童館","province":"東京都","city":"中央区","address":"中央区新川2-13-4","lat":35.67582,"lon":139.78195},{"name":"築地児童館","province":"東京都","city":"中央区","address":"中央区築地7-9-17","lat":35.66639,"lon":139.77567},{"name":"佃児童館","province":"東京都","city":"中央区","address":"中央区佃1-11-1","lat":35.66927,"lon":139.7834},{"name":"月島児童館","province":"東京都","city":"中央区","address":"中央区月島4-1-1","lat":35.66207,"lon":139.78218},{"name":"晴海児童館","province":"東京都","city":"中央区","address":"中央区晴海2-4-31","lat":35.65434,"lon":139.784},{"name":"勝どき児童館","province":"東京都","city":"中央区","address":"中央区勝どき1-8-1","lat":35.65958,"lon":139.77692},{"name":"＊?京橋図書館","province":"東京都","city":"中央区","address":"中央区築地1-1-1","lat":35.67063,"lon":139.772},{"name":"＊?日本橋図書館","province":"東京都","city":"中央区","address":"中央区日本橋人形町1-1-17","lat":35.684773,"lon":139.781493},{"name":"＊?月島図書館","province":"東京都","city":"中央区","address":"中央区月島4-1-1","lat":35.662043,"lon":139.782269},{"name":"浜町児童館","province":"東京都","city":"中央区","address":"中央区日本橋浜町3-37-1","lat":35.685518,"lon":139.791302},{"name":"堀留町児童館","province":"東京都","city":"中央区","address":"中央区日本橋堀留町1-1-1","lat":35.687412,"lon":139.778963},{"name":"新川児童館","province":"東京都","city":"中央区","address":"中央区新川2-13-4","lat":35.675969,"lon":139.781568},{"name":"築地児童館","province":"東京都","city":"中央区","address":"中央区築地7-9-17","lat":35.666223,"lon":139.775883},{"name":"佃児童館","province":"東京都","city":"中央区","address":"中央区佃1-11-1","lat":35.668925,"lon":139.784726},{"name":"月島児童館","province":"東京都","city":"中央区","address":"中央区月島4-1-1","lat":35.662059,"lon":139.782141},{"name":"晴海児童館","province":"東京都","city":"中央区","address":"中央区晴海2-4-31","lat":35.654907,"lon":139.783935},{"name":"勝どき児童館","province":"東京都","city":"中央区","address":"中央区勝どき1-8-1","lat":35.659665,"lon":139.776583},{"name":"\"中央区立京橋図書館 \"","province":"東京都","city":"中央区","address":"東京都中央区新富1-13-14","lat":35.673688,"lon":139.7756},{"name":"中央区立日本橋図書館","province":"東京都","city":"中央区","address":"東京都中央区日本橋人形町1-1-17","lat":35.684273,"lon":139.78123},{"name":"\"中央区立月島図書館 \"","province":"東京都","city":"中央区","address":"東京都中央区月島4-1-1","lat":35.661921,"lon":139.78192},{"name":"浜町児童館","province":"東京都","city":"中央区","address":"中央区日本橋浜町3-37-1","lat":35.68542,"lon":139.79137},{"name":"堀留町児童館","province":"東京都","city":"中央区","address":"中央区日本橋堀留町1-1-1","lat":35.68706,"lon":139.77928},{"name":"新川児童館","province":"東京都","city":"中央区","address":"中央区新川2-13-4","lat":35.67582,"lon":139.78195},{"name":"築地児童館","province":"東京都","city":"中央区","address":"中央区築地7-9-17","lat":35.66639,"lon":139.77567},{"name":"佃児童館","province":"東京都","city":"中央区","address":"中央区佃1-11-1","lat":35.66927,"lon":139.7834},{"name":"月島児童館","province":"東京都","city":"中央区","address":"中央区月島4-1-1","lat":35.66207,"lon":139.78218},{"name":"晴海児童館","province":"東京都","city":"中央区","address":"中央区晴海2-4-31","lat":35.65434,"lon":139.784},{"name":"勝どき児童館","province":"東京都","city":"中央区","address":"中央区勝どき1-8-1","lat":35.65958,"lon":139.77692},{"name":"＊?京橋図書館","province":"東京都","city":"中央区","address":"中央区築地1-1-1","lat":35.67063,"lon":139.772},{"name":"＊?日本橋図書館","province":"東京都","city":"中央区","address":"中央区日本橋人形町1-1-17","lat":35.684773,"lon":139.781493},{"name":"＊?月島図書館","province":"東京都","city":"中央区","address":"中央区月島4-1-1","lat":35.662043,"lon":139.782269},{"name":"浜町児童館","province":"東京都","city":"中央区","address":"中央区日本橋浜町3-37-1","lat":35.685518,"lon":139.791302},{"name":"堀留町児童館","province":"東京都","city":"中央区","address":"中央区日本橋堀留町1-1-1","lat":35.687412,"lon":139.778963},{"name":"新川児童館","province":"東京都","city":"中央区","address":"中央区新川2-13-4","lat":35.675969,"lon":139.781568},{"name":"築地児童館","province":"東京都","city":"中央区","address":"中央区築地7-9-17","lat":35.666223,"lon":139.775883},{"name":"佃児童館","province":"東京都","city":"中央区","address":"中央区佃1-11-1","lat":35.668925,"lon":139.784726},{"name":"月島児童館","province":"東京都","city":"中央区","address":"中央区月島4-1-1","lat":35.662059,"lon":139.782141},{"name":"晴海児童館","province":"東京都","city":"中央区","address":"中央区晴海2-4-31","lat":35.654907,"lon":139.783935},{"name":"勝どき児童館","province":"東京都","city":"中央区","address":"中央区勝どき1-8-1","lat":35.659665,"lon":139.776583},{"name":"\"中央区立京橋図書館 \"","province":"東京都","city":"中央区","address":"東京都中央区新富1-13-14","lat":35.673688,"lon":139.7756},{"name":"中央区立日本橋図書館","province":"東京都","city":"中央区","address":"東京都中央区日本橋人形町1-1-17","lat":35.684273,"lon":139.78123},{"name":"\"中央区立月島図書館 \"","province":"東京都","city":"中央区","address":"東京都中央区月島4-1-1","lat":35.661921,"lon":139.78192},{"name":"浜町児童館","province":"東京都","city":"中央区","address":"中央区日本橋浜町3-37-1","lat":35.68542,"lon":139.79137},{"name":"堀留町児童館","province":"東京都","city":"中央区","address":"中央区日本橋堀留町1-1-1","lat":35.68706,"lon":139.77928},{"name":"新川児童館","province":"東京都","city":"中央区","address":"中央区新川2-13-4","lat":35.67582,"lon":139.78195},{"name":"築地児童館","province":"東京都","city":"中央区","address":"中央区築地7-9-17","lat":35.66639,"lon":139.77567},{"name":"佃児童館","province":"東京都","city":"中央区","address":"中央区佃1-11-1","lat":35.66927,"lon":139.7834},{"name":"月島児童館","province":"東京都","city":"中央区","address":"中央区月島4-1-1","lat":35.66207,"lon":139.78218},{"name":"晴海児童館","province":"東京都","city":"中央区","address":"中央区晴海2-4-31","lat":35.65434,"lon":139.784},{"name":"勝どき児童館","province":"東京都","city":"中央区","address":"中央区勝どき1-8-1","lat":35.65958,"lon":139.77692},{"name":"＊?京橋図書館","province":"東京都","city":"中央区","address":"中央区築地1-1-1","lat":35.67063,"lon":139.772},{"name":"＊?日本橋図書館","province":"東京都","city":"中央区","address":"中央区日本橋人形町1-1-17","lat":35.684773,"lon":139.781493},{"name":"＊?月島図書館","province":"東京都","city":"中央区","address":"中央区月島4-1-1","lat":35.662043,"lon":139.782269},{"name":"浜町児童館","province":"東京都","city":"中央区","address":"中央区日本橋浜町3-37-1","lat":35.685518,"lon":139.791302},{"name":"堀留町児童館","province":"東京都","city":"中央区","address":"中央区日本橋堀留町1-1-1","lat":35.687412,"lon":139.778963},{"name":"新川児童館","province":"東京都","city":"中央区","address":"中央区新川2-13-4","lat":35.675969,"lon":139.781568},{"name":"築地児童館","province":"東京都","city":"中央区","address":"中央区築地7-9-17","lat":35.666223,"lon":139.775883},{"name":"佃児童館","province":"東京都","city":"中央区","address":"中央区佃1-11-1","lat":35.668925,"lon":139.784726},{"name":"月島児童館","province":"東京都","city":"中央区","address":"中央区月島4-1-1","lat":35.662059,"lon":139.782141},{"name":"晴海児童館","province":"東京都","city":"中央区","address":"中央区晴海2-4-31","lat":35.654907,"lon":139.783935},{"name":"勝どき児童館","province":"東京都","city":"中央区","address":"中央区勝どき1-8-1","lat":35.659665,"lon":139.776583},{"name":"\"中央区立京橋図書館 \"","province":"東京都","city":"中央区","address":"東京都中央区新富1-13-14","lat":35.673688,"lon":139.7756},{"name":"中央区立日本橋図書館","province":"東京都","city":"中央区","address":"東京都中央区日本橋人形町1-1-17","lat":35.684273,"lon":139.78123},{"name":"\"中央区立月島図書館 \"","province":"東京都","city":"中央区","address":"東京都中央区月島4-1-1","lat":35.661921,"lon":139.78192},{"name":"浜町児童館","province":"東京都","city":"中央区","address":"中央区日本橋浜町3-37-1","lat":35.68542,"lon":139.79137},{"name":"堀留町児童館","province":"東京都","city":"中央区","address":"中央区日本橋堀留町1-1-1","lat":35.68706,"lon":139.77928},{"name":"新川児童館","province":"東京都","city":"中央区","address":"中央区新川2-13-4","lat":35.67582,"lon":139.78195},{"name":"築地児童館","province":"東京都","city":"中央区","address":"中央区築地7-9-17","lat":35.66639,"lon":139.77567},{"name":"佃児童館","province":"東京都","city":"中央区","address":"中央区佃1-11-1","lat":35.66927,"lon":139.7834},{"name":"月島児童館","province":"東京都","city":"中央区","address":"中央区月島4-1-1","lat":35.66207,"lon":139.78218},{"name":"晴海児童館","province":"東京都","city":"中央区","address":"中央区晴海2-4-31","lat":35.65434,"lon":139.784},{"name":"勝どき児童館","province":"東京都","city":"中央区","address":"中央区勝どき1-8-1","lat":35.65958,"lon":139.77692},{"name":"＊?京橋図書館","province":"東京都","city":"中央区","address":"中央区築地1-1-1","lat":35.67063,"lon":139.772},{"name":"＊?日本橋図書館","province":"東京都","city":"中央区","address":"中央区日本橋人形町1-1-17","lat":35.684773,"lon":139.781493},{"name":"＊?月島図書館","province":"東京都","city":"中央区","address":"中央区月島4-1-1","lat":35.662043,"lon":139.782269}]}