{"keyword":"館","data":[{"name":"浜町児童館","province":"東京都","city":"中央区","address":"中央区日本橋浜町3-37-1","lat":35.685518,"lon":139.791302},{"name":"堀留町児童館","province":"東京都","city":"中央区","address":"中央区日本橋堀留町1-1-1","lat":35.687412,"lon":139.778963},{"name":"新川児童館","province":"東京都","city":"中央区","address":"中央区新川2-13-4","lat":35.675969,"lon":139.781568},{"name":"築地児童館","province":"東京都","city":"中央区","address":"中央区築地7-9-17","lat":35.666223,"lon":139.775883},{"name":"佃児童館","province":"東京都","city":"中央区","address":"中央区佃1-11-1","lat":35.668925,"lon":139.784726},{"name":"月島児童館","province":"東京都","city":"中央区","address":"中央区月島4-1-1","lat":35.662059,"lon":139.782141},{"name":"晴海児童館","province":"東京都","city":"中央区","address":"中央区晴海2-4-31","lat":35.654907,"lon":139.783935},{"name":"勝どき児童館","province":"東京都","city":"中央区","address":"中央区勝どき1-8-1","lat":35.659665,"lon":139.776583},{"name":"\"中央区立京橋図書館 \"","province":"東京都","city":"中央区","address":"東京都中央区新富1-13-14","lat":35.673688,"lon":139.7756},{"name":"中央区立日本橋図書館","province":"東京都","city":"中央区","address":"東京都中央区日本橋人形町1-1-17","lat":35.684273,"lon":139.78123},{"name":"\"中央区立月島図書館 \"","province":"東京都","city":"中央区","address":"東京都中央区月島4-1-1","lat":35.661921,"lon":139.78192},{"name":"浜町児童館","province":"東京都","city":"中央区","address":"中央区日本橋浜町3-37-1","lat":35.68542,"lon":139.79137},{"name":"堀留町児童館","province":"東京都","city":"中央区","address":"中央区日本橋堀留町1-1-1","lat":35.68706,"lon":139.77928},{"name":"新川児童館","province":"東京都","city":"中央区","address":"中央区新川2-13-4","lat":35.67582,"lon":139.78195},{"name":"築地児童館","province":"東京都","city":"中央区","address":"中央区築地7-9-17","lat":35.66639,"lon":139.77567},{"name":"佃児童館","province":"東京都","city":"中央区","address":"中央区佃1-11-1","lat":35.66927,"lon":139.7834},{"name":"月島児童館","province":"東京都","city":"中央区","address":"中央区月島4-1-1","lat":35.66207,"lon":139.78218},{"name":"晴海児童館","province":"東京都","city":"中央区","address":"中央区晴海2-4-31","lat":35.65434,"lon":139.784},{"name":"勝どき児童館","province":"東京都","city":"中央区","address":"中央区勝どき1-8-1","lat":35.65958,"lon":139.77692},{"name":"＊?京橋図書館","province":"東京都","city":"中央区","address":"中央区築地1-1-1","lat":35.67063,"lon":139.772},{"name":"＊?日本橋図書館","province":"東京都","city":"中央区","address":"中央区日本橋人形町1-1-17","lat":35.684773,"lon":139.781493},{"name":"＊?月島図書館","province":"東京都","city":"中央区","address":"中央区月島4-1-1","lat":35.662043,"lon":139.782269}]}