{"keyword":"し尿","data":[{"name":"国分寺市子ども家庭支援センター","province":"東京都","city":"国分寺市","address":"国分寺市光町3-13-20","lat":35.707698,"lon":139.442757},{"name":"国分寺市いずみ保健センター","province":"東京都","city":"国分寺市","address":"国分寺市泉町2-3-8","lat":35.696398,"lon":139.468855},{"name":"国分寺市","province":"東京都","city":"国分寺市","address":"国分寺市戸倉1-6-1","lat":35.7110208,"lon":139.4626078},{"name":"東京都公文書館","province":"東京都","city":"国分寺市","address":"東京都国分寺市泉町2丁目2-21","lat":35.69758,"lon":139.469918},{"name":"武蔵国分寺公園","province":"東京都","city":"国分寺市","address":"東京都国分寺市西元町1丁目11","lat":35.695313,"lon":139.471005},{"name":"殿ヶ谷戸庭園","province":"東京都","city":"国分寺市","address":"東京都国分寺市南町2丁目16","lat":35.698538,"lon":139.481512},{"name":"東京都立多摩図書館","province":"東京都","city":"国分寺市","address":"東京都国分寺市泉町2丁目2-26","lat":35.697944,"lon":139.469609},{"name":"東京都立多摩図書館","province":"東京都","city":"国分寺市","address":"東京都国分寺市泉町2丁目2-26","lat":35.697917,"lon":139.470081},{"name":"国分寺消防署","province":"東京都","city":"国分寺市","address":"東京都国分寺市泉町2丁目2-3","lat":35.69651,"lon":139.470486},{"name":"武蔵国分寺跡資料館","province":"東京都","city":"国分寺市","address":"東京都国分寺市西元町1丁目13-10","lat":35.693836,"lon":139.472786},{"name":"国分寺市役所　本庁","province":"東京都","city":"国分寺市","address":"東京都国分寺市戸倉1丁目6-1","lat":35.710444,"lon":139.463122},{"name":"国分寺市役所　本庁","province":"東京都","city":"国分寺市","address":"東京都国分寺市戸倉1丁目6-1","lat":35.710925,"lon":139.462782},{"name":"国分寺市役所　本庁","province":"東京都","city":"国分寺市","address":"東京都国分寺市戸倉1丁目6-1","lat":35.710557,"lon":139.462961},{"name":"国分寺市いずみプラザ","province":"東京都","city":"国分寺市","address":"東京都国分寺市泉町2丁目3-8","lat":35.696222,"lon":139.468688},{"name":"国分寺市いずみプラザ","province":"東京都","city":"国分寺市","address":"東京都国分寺市泉町2丁目3-8","lat":35.696287,"lon":139.468809},{"name":"国分寺市立本多公民館","province":"東京都","city":"国分寺市","address":"東京都国分寺市本多1丁目7-1","lat":35.705349,"lon":139.482333},{"name":"国分寺市ひかりプラザ","province":"東京都","city":"国分寺市","address":"東京都国分寺市光町1丁目46-8","lat":35.702543,"lon":139.444666},{"name":"国分寺市ひかりプラザ","province":"東京都","city":"国分寺市","address":"東京都国分寺市光町1丁目46-8","lat":35.702607,"lon":139.444609},{"name":"史跡の駅","province":"東京都","city":"国分寺市","address":"東京都国分寺市西元町1丁目13-6","lat":35.693225,"lon":139.472917},{"name":"国分寺市立本多公民館","province":"東京都","city":"国分寺市","address":"東京都国分寺市本多1丁目7-1","lat":35.705322,"lon":139.482711},{"name":"国分寺市立光公民館","province":"東京都","city":"国分寺市","address":"東京都国分寺市光町3丁目13-19","lat":35.707821,"lon":139.443053},{"name":"国分寺市立光公民館","province":"東京都","city":"国分寺市","address":"東京都国分寺市光町3丁目13-19","lat":35.707779,"lon":139.44312},{"name":"国分寺市立もとまち公民館","province":"東京都","city":"国分寺市","address":"東京都国分寺市東元町2丁目3-13","lat":35.692128,"lon":139.483487},{"name":"国分寺市立並木公民館","province":"東京都","city":"国分寺市","address":"東京都国分寺市並木町2丁目12-3","lat":35.715786,"lon":139.453249},{"name":"生きがいセンターこいがくぼ","province":"東京都","city":"国分寺市","address":"東京都国分寺市西恋ヶ窪3丁目32-6","lat":35.705771,"lon":139.465369},{"name":"生きがいセンターほんだ","province":"東京都","city":"国分寺市","address":"東京都国分寺市本多5丁目29-3","lat":35.705692,"lon":139.487216},{"name":"国分寺市いきいきセンター","province":"東京都","city":"国分寺市","address":"東京都国分寺市泉町2丁目3","lat":35.696555,"lon":139.468271},{"name":"国分寺市立福祉センター","province":"東京都","city":"国分寺市","address":"東京都国分寺市戸倉4丁目14","lat":35.708122,"lon":139.455714},{"name":"国分寺市立アクティ・ココブンジ","province":"東京都","city":"国分寺市","address":"東京都国分寺市本町2丁目2-1","lat":35.700678,"lon":139.481543},{"name":"国分寺市立恋ケ窪図書館","province":"東京都","city":"国分寺市","address":"東京都国分寺市西恋ヶ窪4丁目12-8","lat":35.707662,"lon":139.464215},{"name":"国分寺市立光図書館","province":"東京都","city":"国分寺市","address":"東京都国分寺市光町3丁目13-19","lat":35.707852,"lon":139.443073},{"name":"国分寺市立もとまち図書館","province":"東京都","city":"国分寺市","address":"東京都国分寺市東元町2丁目3","lat":35.692278,"lon":139.483471},{"name":"国分寺市立並木図書館","province":"東京都","city":"国分寺市","address":"東京都国分寺市並木町2丁目12-3","lat":35.715857,"lon":139.453154},{"name":"国分寺市立本町・南町地域センター","province":"東京都","city":"国分寺市","address":"東京都国分寺市南町3丁目21-1","lat":35.699822,"lon":139.478864},{"name":"国分寺市立北町地域センター","province":"東京都","city":"国分寺市","address":"東京都国分寺市北町3丁目2-13","lat":35.717831,"lon":139.450012},{"name":"国分寺市立北の原地域センター","province":"東京都","city":"国分寺市","address":"東京都国分寺市東恋ヶ窪6丁目9-11","lat":35.713633,"lon":139.46919},{"name":"国分寺市内藤地域センター","province":"東京都","city":"国分寺市","address":"東京都国分寺市内藤2丁目22-34","lat":35.698206,"lon":139.456225},{"name":"国分寺市立西町プラザ","province":"東京都","city":"国分寺市","address":"東京都国分寺市西町3丁目22-1","lat":35.710847,"lon":139.434242},{"name":"国分寺市立西町プラザ","province":"東京都","city":"国分寺市","address":"東京都国分寺市西町3丁目22-1","lat":35.710835,"lon":139.434322},{"name":"国分寺市立もとまちプラザ","province":"東京都","city":"国分寺市","address":"東京都国分寺市西元町3丁目18-12","lat":35.691285,"lon":139.474987},{"name":"国分寺市立cocobunjiプラザ","province":"東京都","city":"国分寺市","address":"東京都国分寺市本町3丁目1","lat":35.700464,"lon":139.480087},{"name":"国分寺市立いずみホール","province":"東京都","city":"国分寺市","address":"東京都国分寺市泉町3丁目36-12","lat":35.698843,"lon":139.464856},{"name":"窪東公園","province":"東京都","city":"国分寺市","address":"東京都国分寺市東戸倉2丁目19","lat":35.715162,"lon":139.465935},{"name":"北町公園","province":"東京都","city":"国分寺市","address":"東京都国分寺市北町5丁目25","lat":35.720666,"lon":139.451078},{"name":"東恋ヶ窪でんしゃ公園","province":"東京都","city":"国分寺市","address":"東京都国分寺市東恋ヶ窪1丁目","lat":35.704299,"lon":139.470081},{"name":"姿見の池緑地","province":"東京都","city":"国分寺市","address":"東京都国分寺市西恋ヶ窪1丁目32","lat":35.701024,"lon":139.468891},{"name":"内藤さつき公園","province":"東京都","city":"国分寺市","address":"東京都国分寺市内藤1丁目24","lat":35.697298,"lon":139.458472},{"name":"国分寺いきいき農園","province":"東京都","city":"国分寺市","address":"東京都国分寺市戸倉3丁目14","lat":35.709124,"lon":139.452392},{"name":"国分寺駅北口駅前広場","province":"東京都","city":"国分寺市","address":"東京都国分寺市本町3丁目10","lat":35.701895,"lon":139.48045},{"name":"国分寺市障害者センター","province":"東京都","city":"国分寺市","address":"東京都国分寺市泉町2丁目3-8","lat":35.696264,"lon":139.468453},{"name":"市民室内プール","province":"東京都","city":"国分寺市","address":"東京都国分寺市西恋ヶ窪3丁目32-6","lat":35.705738,"lon":139.465354},{"name":"青雲セレモニー","province":"東京都","city":"国分寺市","address":"東京都国分寺市光町3丁目27-41","lat":35.7068234,"lon":139.44014607},{"name":"有限会社谺企画","province":"東京都","city":"国分寺市","address":"東京都国分寺市北町2丁目24-2","lat":35.71707249,"lon":139.45122526},{"name":"葬儀の心和堂","province":"東京都","city":"国分寺市","address":"東京都国分寺市富士本1丁目21-3","lat":35.7027131,"lon":139.45126188},{"name":"株式会社みよし","province":"東京都","city":"国分寺市","address":"東京都国分寺市東元町4丁目1-37","lat":35.69072905,"lon":139.48027371},{"name":"国分寺市いずみ保健センター","province":"東京都","city":"国分寺市","address":"東京都国分寺市泉町2丁目3-8","lat":35.69639202,"lon":139.46876059},{"name":"国分寺市いずみ保健センター","province":"東京都","city":"国分寺市","address":"国分寺市泉町2-3-8","lat":35.69611,"lon":139.46869},{"name":"国分寺市子ども家庭支援センター","province":"東京都","city":"国分寺市","address":"国分寺市光町3-13-20","lat":35.708,"lon":139.44296},{"name":"(有)野村容器","province":"東京都","city":"国分寺市","address":"国分寺市東恋ケ窪5-2-3","lat":35.707634,"lon":139.467743},{"name":"国分寺市選挙管理委員会","province":"東京都","city":"国分寺市","address":"国分寺市戸倉1-6-1","lat":35.71036,"lon":139.463207},{"name":"国分寺市本庁舎","province":"東京都","city":"国分寺市","address":"国分寺市戸倉1-6-1","lat":35.711021,"lon":139.462608},{"name":"国分寺消防署","province":"東京都","city":"国分寺市","address":"国分寺市本多1-7-15","lat":35.70578,"lon":139.4827},{"name":"国分寺市子ども家庭支援センター","province":"東京都","city":"国分寺市","address":"国分寺市光町3-13-20","lat":35.707698,"lon":139.442757},{"name":"国分寺市いずみ保健センター","province":"東京都","city":"国分寺市","address":"国分寺市泉町2-3-8","lat":35.696398,"lon":139.468855},{"name":"国分寺市","province":"東京都","city":"国分寺市","address":"国分寺市戸倉1-6-1","lat":35.7110208,"lon":139.4626078},{"name":"東京都公文書館","province":"東京都","city":"国分寺市","address":"東京都国分寺市泉町2丁目2-21","lat":35.69758,"lon":139.469918},{"name":"武蔵国分寺公園","province":"東京都","city":"国分寺市","address":"東京都国分寺市西元町1丁目11","lat":35.695313,"lon":139.471005},{"name":"殿ヶ谷戸庭園","province":"東京都","city":"国分寺市","address":"東京都国分寺市南町2丁目16","lat":35.698538,"lon":139.481512},{"name":"東京都立多摩図書館","province":"東京都","city":"国分寺市","address":"東京都国分寺市泉町2丁目2-26","lat":35.697944,"lon":139.469609},{"name":"東京都立多摩図書館","province":"東京都","city":"国分寺市","address":"東京都国分寺市泉町2丁目2-26","lat":35.697917,"lon":139.470081},{"name":"国分寺消防署","province":"東京都","city":"国分寺市","address":"東京都国分寺市泉町2丁目2-3","lat":35.69651,"lon":139.470486},{"name":"武蔵国分寺跡資料館","province":"東京都","city":"国分寺市","address":"東京都国分寺市西元町1丁目13-10","lat":35.693836,"lon":139.472786},{"name":"国分寺市役所　本庁","province":"東京都","city":"国分寺市","address":"東京都国分寺市戸倉1丁目6-1","lat":35.710444,"lon":139.463122},{"name":"国分寺市役所　本庁","province":"東京都","city":"国分寺市","address":"東京都国分寺市戸倉1丁目6-1","lat":35.710925,"lon":139.462782},{"name":"国分寺市役所　本庁","province":"東京都","city":"国分寺市","address":"東京都国分寺市戸倉1丁目6-1","lat":35.710557,"lon":139.462961},{"name":"国分寺市いずみプラザ","province":"東京都","city":"国分寺市","address":"東京都国分寺市泉町2丁目3-8","lat":35.696222,"lon":139.468688},{"name":"国分寺市いずみプラザ","province":"東京都","city":"国分寺市","address":"東京都国分寺市泉町2丁目3-8","lat":35.696287,"lon":139.468809},{"name":"国分寺市立本多公民館","province":"東京都","city":"国分寺市","address":"東京都国分寺市本多1丁目7-1","lat":35.705349,"lon":139.482333},{"name":"国分寺市ひかりプラザ","province":"東京都","city":"国分寺市","address":"東京都国分寺市光町1丁目46-8","lat":35.702543,"lon":139.444666},{"name":"国分寺市ひかりプラザ","province":"東京都","city":"国分寺市","address":"東京都国分寺市光町1丁目46-8","lat":35.702607,"lon":139.444609},{"name":"史跡の駅","province":"東京都","city":"国分寺市","address":"東京都国分寺市西元町1丁目13-6","lat":35.693225,"lon":139.472917},{"name":"国分寺市立本多公民館","province":"東京都","city":"国分寺市","address":"東京都国分寺市本多1丁目7-1","lat":35.705322,"lon":139.482711},{"name":"国分寺市立光公民館","province":"東京都","city":"国分寺市","address":"東京都国分寺市光町3丁目13-19","lat":35.707821,"lon":139.443053},{"name":"国分寺市立光公民館","province":"東京都","city":"国分寺市","address":"東京都国分寺市光町3丁目13-19","lat":35.707779,"lon":139.44312},{"name":"国分寺市立もとまち公民館","province":"東京都","city":"国分寺市","address":"東京都国分寺市東元町2丁目3-13","lat":35.692128,"lon":139.483487},{"name":"国分寺市立並木公民館","province":"東京都","city":"国分寺市","address":"東京都国分寺市並木町2丁目12-3","lat":35.715786,"lon":139.453249},{"name":"生きがいセンターこいがくぼ","province":"東京都","city":"国分寺市","address":"東京都国分寺市西恋ヶ窪3丁目32-6","lat":35.705771,"lon":139.465369},{"name":"生きがいセンターほんだ","province":"東京都","city":"国分寺市","address":"東京都国分寺市本多5丁目29-3","lat":35.705692,"lon":139.487216},{"name":"国分寺市いきいきセンター","province":"東京都","city":"国分寺市","address":"東京都国分寺市泉町2丁目3","lat":35.696555,"lon":139.468271},{"name":"国分寺市立福祉センター","province":"東京都","city":"国分寺市","address":"東京都国分寺市戸倉4丁目14","lat":35.708122,"lon":139.455714},{"name":"国分寺市立アクティ・ココブンジ","province":"東京都","city":"国分寺市","address":"東京都国分寺市本町2丁目2-1","lat":35.700678,"lon":139.481543},{"name":"国分寺市立恋ケ窪図書館","province":"東京都","city":"国分寺市","address":"東京都国分寺市西恋ヶ窪4丁目12-8","lat":35.707662,"lon":139.464215},{"name":"国分寺市立光図書館","province":"東京都","city":"国分寺市","address":"東京都国分寺市光町3丁目13-19","lat":35.707852,"lon":139.443073},{"name":"国分寺市立もとまち図書館","province":"東京都","city":"国分寺市","address":"東京都国分寺市東元町2丁目3","lat":35.692278,"lon":139.483471},{"name":"国分寺市立並木図書館","province":"東京都","city":"国分寺市","address":"東京都国分寺市並木町2丁目12-3","lat":35.715857,"lon":139.453154},{"name":"国分寺市立本町・南町地域センター","province":"東京都","city":"国分寺市","address":"東京都国分寺市南町3丁目21-1","lat":35.699822,"lon":139.478864},{"name":"国分寺市立北町地域センター","province":"東京都","city":"国分寺市","address":"東京都国分寺市北町3丁目2-13","lat":35.717831,"lon":139.450012},{"name":"国分寺市立北の原地域センター","province":"東京都","city":"国分寺市","address":"東京都国分寺市東恋ヶ窪6丁目9-11","lat":35.713633,"lon":139.46919},{"name":"国分寺市内藤地域センター","province":"東京都","city":"国分寺市","address":"東京都国分寺市内藤2丁目22-34","lat":35.698206,"lon":139.456225},{"name":"国分寺市立西町プラザ","province":"東京都","city":"国分寺市","address":"東京都国分寺市西町3丁目22-1","lat":35.710847,"lon":139.434242},{"name":"国分寺市立西町プラザ","province":"東京都","city":"国分寺市","address":"東京都国分寺市西町3丁目22-1","lat":35.710835,"lon":139.434322},{"name":"国分寺市立もとまちプラザ","province":"東京都","city":"国分寺市","address":"東京都国分寺市西元町3丁目18-12","lat":35.691285,"lon":139.474987},{"name":"国分寺市立cocobunjiプラザ","province":"東京都","city":"国分寺市","address":"東京都国分寺市本町3丁目1","lat":35.700464,"lon":139.480087},{"name":"国分寺市立いずみホール","province":"東京都","city":"国分寺市","address":"東京都国分寺市泉町3丁目36-12","lat":35.698843,"lon":139.464856},{"name":"窪東公園","province":"東京都","city":"国分寺市","address":"東京都国分寺市東戸倉2丁目19","lat":35.715162,"lon":139.465935},{"name":"北町公園","province":"東京都","city":"国分寺市","address":"東京都国分寺市北町5丁目25","lat":35.720666,"lon":139.451078},{"name":"東恋ヶ窪でんしゃ公園","province":"東京都","city":"国分寺市","address":"東京都国分寺市東恋ヶ窪1丁目","lat":35.704299,"lon":139.470081},{"name":"姿見の池緑地","province":"東京都","city":"国分寺市","address":"東京都国分寺市西恋ヶ窪1丁目32","lat":35.701024,"lon":139.468891},{"name":"内藤さつき公園","province":"東京都","city":"国分寺市","address":"東京都国分寺市内藤1丁目24","lat":35.697298,"lon":139.458472},{"name":"国分寺いきいき農園","province":"東京都","city":"国分寺市","address":"東京都国分寺市戸倉3丁目14","lat":35.709124,"lon":139.452392},{"name":"国分寺駅北口駅前広場","province":"東京都","city":"国分寺市","address":"東京都国分寺市本町3丁目10","lat":35.701895,"lon":139.48045},{"name":"国分寺市障害者センター","province":"東京都","city":"国分寺市","address":"東京都国分寺市泉町2丁目3-8","lat":35.696264,"lon":139.468453},{"name":"市民室内プール","province":"東京都","city":"国分寺市","address":"東京都国分寺市西恋ヶ窪3丁目32-6","lat":35.705738,"lon":139.465354},{"name":"青雲セレモニー","province":"東京都","city":"国分寺市","address":"東京都国分寺市光町3丁目27-41","lat":35.7068234,"lon":139.44014607},{"name":"有限会社谺企画","province":"東京都","city":"国分寺市","address":"東京都国分寺市北町2丁目24-2","lat":35.71707249,"lon":139.45122526},{"name":"葬儀の心和堂","province":"東京都","city":"国分寺市","address":"東京都国分寺市富士本1丁目21-3","lat":35.7027131,"lon":139.45126188},{"name":"株式会社みよし","province":"東京都","city":"国分寺市","address":"東京都国分寺市東元町4丁目1-37","lat":35.69072905,"lon":139.48027371},{"name":"国分寺市いずみ保健センター","province":"東京都","city":"国分寺市","address":"東京都国分寺市泉町2丁目3-8","lat":35.69639202,"lon":139.46876059},{"name":"国分寺市いずみ保健センター","province":"東京都","city":"国分寺市","address":"国分寺市泉町2-3-8","lat":35.69611,"lon":139.46869},{"name":"国分寺市子ども家庭支援センター","province":"東京都","city":"国分寺市","address":"国分寺市光町3-13-20","lat":35.708,"lon":139.44296},{"name":"(有)野村容器","province":"東京都","city":"国分寺市","address":"国分寺市東恋ケ窪5-2-3","lat":35.707634,"lon":139.467743},{"name":"国分寺市選挙管理委員会","province":"東京都","city":"国分寺市","address":"国分寺市戸倉1-6-1","lat":35.71036,"lon":139.463207},{"name":"国分寺市子ども家庭支援センター","province":"東京都","city":"国分寺市","address":"国分寺市光町3-13-20","lat":35.707698,"lon":139.442757},{"name":"国分寺市いずみ保健センター","province":"東京都","city":"国分寺市","address":"国分寺市泉町2-3-8","lat":35.696398,"lon":139.468855},{"name":"国分寺市","province":"東京都","city":"国分寺市","address":"国分寺市戸倉1-6-1","lat":35.7110208,"lon":139.4626078},{"name":"青雲セレモニー","province":"東京都","city":"国分寺市","address":"東京都国分寺市光町3丁目27-41","lat":35.7068234,"lon":139.44014607},{"name":"有限会社谺企画","province":"東京都","city":"国分寺市","address":"東京都国分寺市北町2丁目24-2","lat":35.71707249,"lon":139.45122526},{"name":"葬儀の心和堂","province":"東京都","city":"国分寺市","address":"東京都国分寺市富士本1丁目21-3","lat":35.7027131,"lon":139.45126188},{"name":"株式会社みよし","province":"東京都","city":"国分寺市","address":"東京都国分寺市東元町4丁目1-37","lat":35.69072905,"lon":139.48027371},{"name":"国分寺市いずみ保健センター","province":"東京都","city":"国分寺市","address":"東京都国分寺市泉町2丁目3-8","lat":35.69639202,"lon":139.46876059},{"name":"国分寺市いずみ保健センター","province":"東京都","city":"国分寺市","address":"国分寺市泉町2-3-8","lat":35.69611,"lon":139.46869},{"name":"国分寺市子ども家庭支援センター","province":"東京都","city":"国分寺市","address":"国分寺市光町3-13-20","lat":35.708,"lon":139.44296},{"name":"(有)野村容器","province":"東京都","city":"国分寺市","address":"国分寺市東恋ケ窪5-2-3","lat":35.707634,"lon":139.467743},{"name":"国分寺市選挙管理委員会","province":"東京都","city":"国分寺市","address":"国分寺市戸倉1-6-1","lat":35.71036,"lon":139.463207},{"name":"国分寺市いずみ保健センター","province":"東京都","city":"国分寺市","address":"国分寺市泉町2-3-8","lat":35.696398,"lon":139.468855},{"name":"国分寺市","province":"東京都","city":"国分寺市","address":"国分寺市戸倉1-6-1","lat":35.7110208,"lon":139.4626078},{"name":"青雲セレモニー","province":"東京都","city":"国分寺市","address":"東京都国分寺市光町3丁目27-41","lat":35.7068234,"lon":139.44014607},{"name":"有限会社谺企画","province":"東京都","city":"国分寺市","address":"東京都国分寺市北町2丁目24-2","lat":35.71707249,"lon":139.45122526},{"name":"葬儀の心和堂","province":"東京都","city":"国分寺市","address":"東京都国分寺市富士本1丁目21-3","lat":35.7027131,"lon":139.45126188},{"name":"株式会社みよし","province":"東京都","city":"国分寺市","address":"東京都国分寺市東元町4丁目1-37","lat":35.69072905,"lon":139.48027371},{"name":"国分寺市いずみ保健センター","province":"東京都","city":"国分寺市","address":"東京都国分寺市泉町2丁目3-8","lat":35.69639202,"lon":139.46876059},{"name":"国分寺市いずみ保健センター","province":"東京都","city":"国分寺市","address":"国分寺市泉町2-3-8","lat":35.69611,"lon":139.46869},{"name":"(有)野村容器","province":"東京都","city":"国分寺市","address":"国分寺市東恋ケ窪5-2-3","lat":35.707634,"lon":139.467743},{"name":"国分寺市選挙管理委員会","province":"東京都","city":"国分寺市","address":"国分寺市戸倉1-6-1","lat":35.71036,"lon":139.463207},{"name":"国分寺市いずみ保健センター","province":"東京都","city":"国分寺市","address":"国分寺市泉町2-3-8","lat":35.696398,"lon":139.468855},{"name":"国分寺市","province":"東京都","city":"国分寺市","address":"国分寺市戸倉1-6-1","lat":35.7110208,"lon":139.4626078},{"name":"青雲セレモニー","province":"東京都","city":"国分寺市","address":"東京都国分寺市光町3丁目27-41","lat":35.7068234,"lon":139.44014607},{"name":"有限会社谺企画","province":"東京都","city":"国分寺市","address":"東京都国分寺市北町2丁目24-2","lat":35.71707249,"lon":139.45122526},{"name":"葬儀の心和堂","province":"東京都","city":"国分寺市","address":"東京都国分寺市富士本1丁目21-3","lat":35.7027131,"lon":139.45126188},{"name":"株式会社みよし","province":"東京都","city":"国分寺市","address":"東京都国分寺市東元町4丁目1-37","lat":35.69072905,"lon":139.48027371},{"name":"国分寺市いずみ保健センター","province":"東京都","city":"国分寺市","address":"東京都国分寺市泉町2丁目3-8","lat":35.69639202,"lon":139.46876059},{"name":"国分寺市いずみ保健センター","province":"東京都","city":"国分寺市","address":"国分寺市泉町2-3-8","lat":35.69611,"lon":139.46869},{"name":"(有)野村容器","province":"東京都","city":"国分寺市","address":"国分寺市東恋ケ窪5-2-3","lat":35.707634,"lon":139.467743},{"name":"国分寺市選挙管理委員会","province":"東京都","city":"国分寺市","address":"国分寺市戸倉1-6-1","lat":35.71036,"lon":139.463207},{"name":"国分寺市いずみ保健センター","province":"東京都","city":"国分寺市","address":"国分寺市泉町2-3-8","lat":35.696398,"lon":139.468855},{"name":"国分寺市","province":"東京都","city":"国分寺市","address":"国分寺市戸倉1-6-1","lat":35.7110208,"lon":139.4626078},{"name":"国分寺市いずみ保健センター","province":"東京都","city":"国分寺市","address":"東京都国分寺市泉町2丁目3-8","lat":35.69639202,"lon":139.46876059},{"name":"国分寺市いずみ保健センター","province":"東京都","city":"国分寺市","address":"国分寺市泉町2-3-8","lat":35.69611,"lon":139.46869},{"name":"(有)野村容器","province":"東京都","city":"国分寺市","address":"国分寺市東恋ケ窪5-2-3","lat":35.707634,"lon":139.467743},{"name":"国分寺市選挙管理委員会","province":"東京都","city":"国分寺市","address":"国分寺市戸倉1-6-1","lat":35.71036,"lon":139.463207},{"name":"国分寺市いずみ保健センター","province":"東京都","city":"国分寺市","address":"国分寺市泉町2-3-8","lat":35.696398,"lon":139.468855},{"name":"国分寺市いずみ保健センター","province":"東京都","city":"国分寺市","address":"東京都国分寺市泉町2丁目3-8","lat":35.69639202,"lon":139.46876059},{"name":"国分寺市いずみ保健センター","province":"東京都","city":"国分寺市","address":"国分寺市泉町2-3-8","lat":35.69611,"lon":139.46869},{"name":"(有)野村容器","province":"東京都","city":"国分寺市","address":"国分寺市東恋ケ窪5-2-3","lat":35.707634,"lon":139.467743},{"name":"国分寺市選挙管理委員会","province":"東京都","city":"国分寺市","address":"国分寺市戸倉1-6-1","lat":35.71036,"lon":139.463207},{"name":"国分寺市いずみ保健センター","province":"東京都","city":"国分寺市","address":"国分寺市泉町2-3-8","lat":35.696398,"lon":139.468855},{"name":"国分寺市いずみ保健センター","province":"東京都","city":"国分寺市","address":"東京都国分寺市泉町2丁目3-8","lat":35.69639202,"lon":139.46876059},{"name":"国分寺市いずみ保健センター","province":"東京都","city":"国分寺市","address":"国分寺市泉町2-3-8","lat":35.69611,"lon":139.46869},{"name":"国分寺市選挙管理委員会","province":"東京都","city":"国分寺市","address":"国分寺市戸倉1-6-1","lat":35.71036,"lon":139.463207},{"name":"国分寺市いずみ保健センター","province":"東京都","city":"国分寺市","address":"国分寺市泉町2-3-8","lat":35.696398,"lon":139.468855},{"name":"国分寺市いずみ保健センター","province":"東京都","city":"国分寺市","address":"東京都国分寺市泉町2丁目3-8","lat":35.69639202,"lon":139.46876059},{"name":"国分寺市いずみ保健センター","province":"東京都","city":"国分寺市","address":"国分寺市泉町2-3-8","lat":35.69611,"lon":139.46869},{"name":"国分寺市選挙管理委員会","province":"東京都","city":"国分寺市","address":"国分寺市戸倉1-6-1","lat":35.71036,"lon":139.463207},{"name":"国分寺市いずみ保健センター","province":"東京都","city":"国分寺市","address":"国分寺市泉町2-3-8","lat":35.696398,"lon":139.468855},{"name":"国分寺市いずみ保健センター","province":"東京都","city":"国分寺市","address":"東京都国分寺市泉町2丁目3-8","lat":35.69639202,"lon":139.46876059},{"name":"国分寺市いずみ保健センター","province":"東京都","city":"国分寺市","address":"国分寺市泉町2-3-8","lat":35.69611,"lon":139.46869},{"name":"国分寺市選挙管理委員会","province":"東京都","city":"国分寺市","address":"国分寺市戸倉1-6-1","lat":35.71036,"lon":139.463207},{"name":"国分寺市いずみ保健センター","province":"東京都","city":"国分寺市","address":"国分寺市泉町2-3-8","lat":35.696398,"lon":139.468855},{"name":"国分寺市いずみ保健センター","province":"東京都","city":"国分寺市","address":"東京都国分寺市泉町2丁目3-8","lat":35.69639202,"lon":139.46876059},{"name":"国分寺市いずみ保健センター","province":"東京都","city":"国分寺市","address":"国分寺市泉町2-3-8","lat":35.69611,"lon":139.46869},{"name":"国分寺市選挙管理委員会","province":"東京都","city":"国分寺市","address":"国分寺市戸倉1-6-1","lat":35.71036,"lon":139.463207},{"name":"国分寺市いずみ保健センター","province":"東京都","city":"国分寺市","address":"国分寺市泉町2-3-8","lat":35.696398,"lon":139.468855},{"name":"国分寺市いずみ保健センター","province":"東京都","city":"国分寺市","address":"東京都国分寺市泉町2丁目3-8","lat":35.69639202,"lon":139.46876059},{"name":"国分寺市いずみ保健センター","province":"東京都","city":"国分寺市","address":"国分寺市泉町2-3-8","lat":35.69611,"lon":139.46869},{"name":"国分寺市選挙管理委員会","province":"東京都","city":"国分寺市","address":"国分寺市戸倉1-6-1","lat":35.71036,"lon":139.463207},{"name":"国分寺市いずみ保健センター","province":"東京都","city":"国分寺市","address":"国分寺市泉町2-3-8","lat":35.696398,"lon":139.468855},{"name":"国分寺市いずみ保健センター","province":"東京都","city":"国分寺市","address":"東京都国分寺市泉町2丁目3-8","lat":35.69639202,"lon":139.46876059},{"name":"国分寺市いずみ保健センター","province":"東京都","city":"国分寺市","address":"国分寺市泉町2-3-8","lat":35.69611,"lon":139.46869},{"name":"国分寺市選挙管理委員会","province":"東京都","city":"国分寺市","address":"国分寺市戸倉1-6-1","lat":35.71036,"lon":139.463207},{"name":"国分寺市いずみ保健センター","province":"東京都","city":"国分寺市","address":"国分寺市泉町2-3-8","lat":35.696398,"lon":139.468855},{"name":"国分寺市いずみ保健センター","province":"東京都","city":"国分寺市","address":"東京都国分寺市泉町2丁目3-8","lat":35.69639202,"lon":139.46876059},{"name":"国分寺市いずみ保健センター","province":"東京都","city":"国分寺市","address":"国分寺市泉町2-3-8","lat":35.69611,"lon":139.46869},{"name":"国分寺市選挙管理委員会","province":"東京都","city":"国分寺市","address":"国分寺市戸倉1-6-1","lat":35.71036,"lon":139.463207},{"name":"国分寺市いずみ保健センター","province":"東京都","city":"国分寺市","address":"国分寺市泉町2-3-8","lat":35.696398,"lon":139.468855},{"name":"国分寺市いずみ保健センター","province":"東京都","city":"国分寺市","address":"東京都国分寺市泉町2丁目3-8","lat":35.69639202,"lon":139.46876059},{"name":"国分寺市いずみ保健センター","province":"東京都","city":"国分寺市","address":"国分寺市泉町2-3-8","lat":35.69611,"lon":139.46869},{"name":"国分寺市選挙管理委員会","province":"東京都","city":"国分寺市","address":"国分寺市戸倉1-6-1","lat":35.71036,"lon":139.463207},{"name":"国分寺市いずみ保健センター","province":"東京都","city":"国分寺市","address":"国分寺市泉町2-3-8","lat":35.696398,"lon":139.468855},{"name":"国分寺市いずみ保健センター","province":"東京都","city":"国分寺市","address":"東京都国分寺市泉町2丁目3-8","lat":35.69639202,"lon":139.46876059},{"name":"国分寺市いずみ保健センター","province":"東京都","city":"国分寺市","address":"国分寺市泉町2-3-8","lat":35.69611,"lon":139.46869},{"name":"国分寺市選挙管理委員会","province":"東京都","city":"国分寺市","address":"国分寺市戸倉1-6-1","lat":35.71036,"lon":139.463207},{"name":"国分寺市いずみ保健センター","province":"東京都","city":"国分寺市","address":"国分寺市泉町2-3-8","lat":35.696398,"lon":139.468855},{"name":"国分寺市いずみ保健センター","province":"東京都","city":"国分寺市","address":"東京都国分寺市泉町2丁目3-8","lat":35.69639202,"lon":139.46876059},{"name":"国分寺市いずみ保健センター","province":"東京都","city":"国分寺市","address":"国分寺市泉町2-3-8","lat":35.69611,"lon":139.46869},{"name":"国分寺市選挙管理委員会","province":"東京都","city":"国分寺市","address":"国分寺市戸倉1-6-1","lat":35.71036,"lon":139.463207},{"name":"国分寺市いずみ保健センター","province":"東京都","city":"国分寺市","address":"国分寺市泉町2-3-8","lat":35.696398,"lon":139.468855},{"name":"国分寺市いずみ保健センター","province":"東京都","city":"国分寺市","address":"東京都国分寺市泉町2丁目3-8","lat":35.69639202,"lon":139.46876059},{"name":"国分寺市いずみ保健センター","province":"東京都","city":"国分寺市","address":"国分寺市泉町2-3-8","lat":35.69611,"lon":139.46869},{"name":"国分寺市選挙管理委員会","province":"東京都","city":"国分寺市","address":"国分寺市戸倉1-6-1","lat":35.71036,"lon":139.463207},{"name":"国分寺市いずみ保健センター","province":"東京都","city":"国分寺市","address":"国分寺市泉町2-3-8","lat":35.696398,"lon":139.468855},{"name":"国分寺市いずみ保健センター","province":"東京都","city":"国分寺市","address":"東京都国分寺市泉町2丁目3-8","lat":35.69639202,"lon":139.46876059},{"name":"国分寺市いずみ保健センター","province":"東京都","city":"国分寺市","address":"国分寺市泉町2-3-8","lat":35.69611,"lon":139.46869},{"name":"国分寺市選挙管理委員会","province":"東京都","city":"国分寺市","address":"国分寺市戸倉1-6-1","lat":35.71036,"lon":139.463207},{"name":"国分寺市いずみ保健センター","province":"東京都","city":"国分寺市","address":"国分寺市泉町2-3-8","lat":35.696398,"lon":139.468855},{"name":"国分寺市いずみ保健センター","province":"東京都","city":"国分寺市","address":"東京都国分寺市泉町2丁目3-8","lat":35.69639202,"lon":139.46876059},{"name":"国分寺市いずみ保健センター","province":"東京都","city":"国分寺市","address":"国分寺市泉町2-3-8","lat":35.69611,"lon":139.46869},{"name":"国分寺市選挙管理委員会","province":"東京都","city":"国分寺市","address":"国分寺市戸倉1-6-1","lat":35.71036,"lon":139.463207},{"name":"国分寺市いずみ保健センター","province":"東京都","city":"国分寺市","address":"国分寺市泉町2-3-8","lat":35.696398,"lon":139.468855},{"name":"国分寺市いずみ保健センター","province":"東京都","city":"国分寺市","address":"東京都国分寺市泉町2丁目3-8","lat":35.69639202,"lon":139.46876059},{"name":"国分寺市いずみ保健センター","province":"東京都","city":"国分寺市","address":"国分寺市泉町2-3-8","lat":35.69611,"lon":139.46869},{"name":"国分寺市選挙管理委員会","province":"東京都","city":"国分寺市","address":"国分寺市戸倉1-6-1","lat":35.71036,"lon":139.463207},{"name":"国分寺市いずみ保健センター","province":"東京都","city":"国分寺市","address":"国分寺市泉町2-3-8","lat":35.696398,"lon":139.468855},{"name":"国分寺市いずみ保健センター","province":"東京都","city":"国分寺市","address":"東京都国分寺市泉町2丁目3-8","lat":35.69639202,"lon":139.46876059},{"name":"国分寺市いずみ保健センター","province":"東京都","city":"国分寺市","address":"国分寺市泉町2-3-8","lat":35.69611,"lon":139.46869},{"name":"国分寺市選挙管理委員会","province":"東京都","city":"国分寺市","address":"国分寺市戸倉1-6-1","lat":35.71036,"lon":139.463207},{"name":"国分寺市いずみ保健センター","province":"東京都","city":"国分寺市","address":"国分寺市泉町2-3-8","lat":35.696398,"lon":139.468855},{"name":"国分寺市いずみ保健センター","province":"東京都","city":"国分寺市","address":"東京都国分寺市泉町2丁目3-8","lat":35.69639202,"lon":139.46876059},{"name":"国分寺市いずみ保健センター","province":"東京都","city":"国分寺市","address":"国分寺市泉町2-3-8","lat":35.69611,"lon":139.46869},{"name":"国分寺市選挙管理委員会","province":"東京都","city":"国分寺市","address":"国分寺市戸倉1-6-1","lat":35.71036,"lon":139.463207},{"name":"国分寺市いずみ保健センター","province":"東京都","city":"国分寺市","address":"国分寺市泉町2-3-8","lat":35.696398,"lon":139.468855},{"name":"国分寺市いずみ保健センター","province":"東京都","city":"国分寺市","address":"東京都国分寺市泉町2丁目3-8","lat":35.69639202,"lon":139.46876059},{"name":"国分寺市いずみ保健センター","province":"東京都","city":"国分寺市","address":"国分寺市泉町2-3-8","lat":35.69611,"lon":139.46869},{"name":"国分寺市選挙管理委員会","province":"東京都","city":"国分寺市","address":"国分寺市戸倉1-6-1","lat":35.71036,"lon":139.463207},{"name":"国分寺市いずみ保健センター","province":"東京都","city":"国分寺市","address":"国分寺市泉町2-3-8","lat":35.696398,"lon":139.468855},{"name":"国分寺市いずみ保健センター","province":"東京都","city":"国分寺市","address":"東京都国分寺市泉町2丁目3-8","lat":35.69639202,"lon":139.46876059},{"name":"国分寺市いずみ保健センター","province":"東京都","city":"国分寺市","address":"国分寺市泉町2-3-8","lat":35.69611,"lon":139.46869},{"name":"国分寺市選挙管理委員会","province":"東京都","city":"国分寺市","address":"国分寺市戸倉1-6-1","lat":35.71036,"lon":139.463207},{"name":"国分寺市いずみ保健センター","province":"東京都","city":"国分寺市","address":"国分寺市泉町2-3-8","lat":35.696398,"lon":139.468855},{"name":"国分寺市いずみ保健センター","province":"東京都","city":"国分寺市","address":"東京都国分寺市泉町2丁目3-8","lat":35.69639202,"lon":139.46876059},{"name":"国分寺市いずみ保健センター","province":"東京都","city":"国分寺市","address":"国分寺市泉町2-3-8","lat":35.69611,"lon":139.46869},{"name":"国分寺市選挙管理委員会","province":"東京都","city":"国分寺市","address":"国分寺市戸倉1-6-1","lat":35.71036,"lon":139.463207},{"name":"国分寺市いずみ保健センター","province":"東京都","city":"国分寺市","address":"国分寺市泉町2-3-8","lat":35.696398,"lon":139.468855},{"name":"国分寺市いずみ保健センター","province":"東京都","city":"国分寺市","address":"東京都国分寺市泉町2丁目3-8","lat":35.69639202,"lon":139.46876059},{"name":"国分寺市いずみ保健センター","province":"東京都","city":"国分寺市","address":"国分寺市泉町2-3-8","lat":35.69611,"lon":139.46869},{"name":"国分寺市選挙管理委員会","province":"東京都","city":"国分寺市","address":"国分寺市戸倉1-6-1","lat":35.71036,"lon":139.463207},{"name":"国分寺市いずみ保健センター","province":"東京都","city":"国分寺市","address":"国分寺市泉町2-3-8","lat":35.696398,"lon":139.468855},{"name":"国分寺市いずみ保健センター","province":"東京都","city":"国分寺市","address":"東京都国分寺市泉町2丁目3-8","lat":35.69639202,"lon":139.46876059},{"name":"国分寺市いずみ保健センター","province":"東京都","city":"国分寺市","address":"国分寺市泉町2-3-8","lat":35.69611,"lon":139.46869},{"name":"国分寺市選挙管理委員会","province":"東京都","city":"国分寺市","address":"国分寺市戸倉1-6-1","lat":35.71036,"lon":139.463207},{"name":"国分寺市いずみ保健センター","province":"東京都","city":"国分寺市","address":"国分寺市泉町2-3-8","lat":35.696398,"lon":139.468855},{"name":"国分寺市いずみ保健センター","province":"東京都","city":"国分寺市","address":"東京都国分寺市泉町2丁目3-8","lat":35.69639202,"lon":139.46876059},{"name":"国分寺市いずみ保健センター","province":"東京都","city":"国分寺市","address":"国分寺市泉町2-3-8","lat":35.69611,"lon":139.46869},{"name":"国分寺市選挙管理委員会","province":"東京都","city":"国分寺市","address":"国分寺市戸倉1-6-1","lat":35.71036,"lon":139.463207},{"name":"国分寺市いずみ保健センター","province":"東京都","city":"国分寺市","address":"国分寺市泉町2-3-8","lat":35.696398,"lon":139.468855},{"name":"国分寺市いずみ保健センター","province":"東京都","city":"国分寺市","address":"東京都国分寺市泉町2丁目3-8","lat":35.69639202,"lon":139.46876059},{"name":"国分寺市いずみ保健センター","province":"東京都","city":"国分寺市","address":"国分寺市泉町2-3-8","lat":35.69611,"lon":139.46869},{"name":"国分寺市選挙管理委員会","province":"東京都","city":"国分寺市","address":"国分寺市戸倉1-6-1","lat":35.71036,"lon":139.463207},{"name":"国分寺市いずみ保健センター","province":"東京都","city":"国分寺市","address":"国分寺市泉町2-3-8","lat":35.696398,"lon":139.468855},{"name":"国分寺市いずみ保健センター","province":"東京都","city":"国分寺市","address":"東京都国分寺市泉町2丁目3-8","lat":35.69639202,"lon":139.46876059},{"name":"国分寺市いずみ保健センター","province":"東京都","city":"国分寺市","address":"国分寺市泉町2-3-8","lat":35.69611,"lon":139.46869},{"name":"国分寺市選挙管理委員会","province":"東京都","city":"国分寺市","address":"国分寺市戸倉1-6-1","lat":35.71036,"lon":139.463207},{"name":"国分寺市いずみ保健センター","province":"東京都","city":"国分寺市","address":"国分寺市泉町2-3-8","lat":35.696398,"lon":139.468855},{"name":"国分寺市いずみ保健センター","province":"東京都","city":"国分寺市","address":"東京都国分寺市泉町2丁目3-8","lat":35.69639202,"lon":139.46876059},{"name":"国分寺市いずみ保健センター","province":"東京都","city":"国分寺市","address":"国分寺市泉町2-3-8","lat":35.69611,"lon":139.46869},{"name":"国分寺市選挙管理委員会","province":"東京都","city":"国分寺市","address":"国分寺市戸倉1-6-1","lat":35.71036,"lon":139.463207},{"name":"国分寺市いずみ保健センター","province":"東京都","city":"国分寺市","address":"国分寺市泉町2-3-8","lat":35.696398,"lon":139.468855},{"name":"国分寺市いずみ保健センター","province":"東京都","city":"国分寺市","address":"東京都国分寺市泉町2丁目3-8","lat":35.69639202,"lon":139.46876059},{"name":"国分寺市いずみ保健センター","province":"東京都","city":"国分寺市","address":"国分寺市泉町2-3-8","lat":35.69611,"lon":139.46869},{"name":"国分寺市選挙管理委員会","province":"東京都","city":"国分寺市","address":"国分寺市戸倉1-6-1","lat":35.71036,"lon":139.463207},{"name":"国分寺市いずみ保健センター","province":"東京都","city":"国分寺市","address":"国分寺市泉町2-3-8","lat":35.696398,"lon":139.468855},{"name":"国分寺市いずみ保健センター","province":"東京都","city":"国分寺市","address":"東京都国分寺市泉町2丁目3-8","lat":35.69639202,"lon":139.46876059},{"name":"国分寺市いずみ保健センター","province":"東京都","city":"国分寺市","address":"国分寺市泉町2-3-8","lat":35.69611,"lon":139.46869},{"name":"国分寺市選挙管理委員会","province":"東京都","city":"国分寺市","address":"国分寺市戸倉1-6-1","lat":35.71036,"lon":139.463207},{"name":"国分寺市いずみ保健センター","province":"東京都","city":"国分寺市","address":"国分寺市泉町2-3-8","lat":35.696398,"lon":139.468855},{"name":"国分寺市いずみ保健センター","province":"東京都","city":"国分寺市","address":"東京都国分寺市泉町2丁目3-8","lat":35.69639202,"lon":139.46876059},{"name":"国分寺市いずみ保健センター","province":"東京都","city":"国分寺市","address":"国分寺市泉町2-3-8","lat":35.69611,"lon":139.46869},{"name":"国分寺市選挙管理委員会","province":"東京都","city":"国分寺市","address":"国分寺市戸倉1-6-1","lat":35.71036,"lon":139.463207},{"name":"国分寺市いずみ保健センター","province":"東京都","city":"国分寺市","address":"国分寺市泉町2-3-8","lat":35.696398,"lon":139.468855},{"name":"国分寺市いずみ保健センター","province":"東京都","city":"国分寺市","address":"東京都国分寺市泉町2丁目3-8","lat":35.69639202,"lon":139.46876059},{"name":"国分寺市いずみ保健センター","province":"東京都","city":"国分寺市","address":"国分寺市泉町2-3-8","lat":35.69611,"lon":139.46869},{"name":"国分寺市選挙管理委員会","province":"東京都","city":"国分寺市","address":"国分寺市戸倉1-6-1","lat":35.71036,"lon":139.463207},{"name":"国分寺市いずみ保健センター","province":"東京都","city":"国分寺市","address":"国分寺市泉町2-3-8","lat":35.696398,"lon":139.468855},{"name":"国分寺市いずみ保健センター","province":"東京都","city":"国分寺市","address":"東京都国分寺市泉町2丁目3-8","lat":35.69639202,"lon":139.46876059},{"name":"国分寺市いずみ保健センター","province":"東京都","city":"国分寺市","address":"国分寺市泉町2-3-8","lat":35.69611,"lon":139.46869},{"name":"国分寺市選挙管理委員会","province":"東京都","city":"国分寺市","address":"国分寺市戸倉1-6-1","lat":35.71036,"lon":139.463207},{"name":"国分寺市いずみ保健センター","province":"東京都","city":"国分寺市","address":"国分寺市泉町2-3-8","lat":35.696398,"lon":139.468855},{"name":"国分寺市いずみ保健センター","province":"東京都","city":"国分寺市","address":"東京都国分寺市泉町2丁目3-8","lat":35.69639202,"lon":139.46876059},{"name":"国分寺市いずみ保健センター","province":"東京都","city":"国分寺市","address":"国分寺市泉町2-3-8","lat":35.69611,"lon":139.46869},{"name":"国分寺市選挙管理委員会","province":"東京都","city":"国分寺市","address":"国分寺市戸倉1-6-1","lat":35.71036,"lon":139.463207},{"name":"国分寺市いずみ保健センター","province":"東京都","city":"国分寺市","address":"国分寺市泉町2-3-8","lat":35.696398,"lon":139.468855},{"name":"国分寺市いずみ保健センター","province":"東京都","city":"国分寺市","address":"東京都国分寺市泉町2丁目3-8","lat":35.69639202,"lon":139.46876059},{"name":"国分寺市いずみ保健センター","province":"東京都","city":"国分寺市","address":"国分寺市泉町2-3-8","lat":35.69611,"lon":139.46869},{"name":"国分寺市選挙管理委員会","province":"東京都","city":"国分寺市","address":"国分寺市戸倉1-6-1","lat":35.71036,"lon":139.463207},{"name":"国分寺市いずみ保健センター","province":"東京都","city":"国分寺市","address":"国分寺市泉町2-3-8","lat":35.696398,"lon":139.468855},{"name":"国分寺市いずみ保健センター","province":"東京都","city":"国分寺市","address":"東京都国分寺市泉町2丁目3-8","lat":35.69639202,"lon":139.46876059},{"name":"国分寺市いずみ保健センター","province":"東京都","city":"国分寺市","address":"国分寺市泉町2-3-8","lat":35.69611,"lon":139.46869},{"name":"国分寺市選挙管理委員会","province":"東京都","city":"国分寺市","address":"国分寺市戸倉1-6-1","lat":35.71036,"lon":139.463207},{"name":"国分寺市いずみ保健センター","province":"東京都","city":"国分寺市","address":"国分寺市泉町2-3-8","lat":35.696398,"lon":139.468855},{"name":"国分寺市いずみ保健センター","province":"東京都","city":"国分寺市","address":"東京都国分寺市泉町2丁目3-8","lat":35.69639202,"lon":139.46876059},{"name":"国分寺市いずみ保健センター","province":"東京都","city":"国分寺市","address":"国分寺市泉町2-3-8","lat":35.69611,"lon":139.46869},{"name":"国分寺市選挙管理委員会","province":"東京都","city":"国分寺市","address":"国分寺市戸倉1-6-1","lat":35.71036,"lon":139.463207},{"name":"国分寺市いずみ保健センター","province":"東京都","city":"国分寺市","address":"国分寺市泉町2-3-8","lat":35.696398,"lon":139.468855},{"name":"国分寺市いずみ保健センター","province":"東京都","city":"国分寺市","address":"東京都国分寺市泉町2丁目3-8","lat":35.69639202,"lon":139.46876059},{"name":"国分寺市いずみ保健センター","province":"東京都","city":"国分寺市","address":"国分寺市泉町2-3-8","lat":35.69611,"lon":139.46869},{"name":"国分寺市選挙管理委員会","province":"東京都","city":"国分寺市","address":"国分寺市戸倉1-6-1","lat":35.71036,"lon":139.463207},{"name":"国分寺市いずみ保健センター","province":"東京都","city":"国分寺市","address":"国分寺市泉町2-3-8","lat":35.696398,"lon":139.468855},{"name":"国分寺市いずみ保健センター","province":"東京都","city":"国分寺市","address":"東京都国分寺市泉町2丁目3-8","lat":35.69639202,"lon":139.46876059},{"name":"国分寺市いずみ保健センター","province":"東京都","city":"国分寺市","address":"国分寺市泉町2-3-8","lat":35.69611,"lon":139.46869},{"name":"国分寺市選挙管理委員会","province":"東京都","city":"国分寺市","address":"国分寺市戸倉1-6-1","lat":35.71036,"lon":139.463207},{"name":"国分寺市いずみ保健センター","province":"東京都","city":"国分寺市","address":"国分寺市泉町2-3-8","lat":35.696398,"lon":139.468855},{"name":"国分寺市いずみ保健センター","province":"東京都","city":"国分寺市","address":"東京都国分寺市泉町2丁目3-8","lat":35.69639202,"lon":139.46876059},{"name":"国分寺市いずみ保健センター","province":"東京都","city":"国分寺市","address":"国分寺市泉町2-3-8","lat":35.69611,"lon":139.46869},{"name":"国分寺市選挙管理委員会","province":"東京都","city":"国分寺市","address":"国分寺市戸倉1-6-1","lat":35.71036,"lon":139.463207},{"name":"国分寺市いずみ保健センター","province":"東京都","city":"国分寺市","address":"国分寺市泉町2-3-8","lat":35.696398,"lon":139.468855},{"name":"国分寺市いずみ保健センター","province":"東京都","city":"国分寺市","address":"東京都国分寺市泉町2丁目3-8","lat":35.69639202,"lon":139.46876059},{"name":"国分寺市いずみ保健センター","province":"東京都","city":"国分寺市","address":"国分寺市泉町2-3-8","lat":35.69611,"lon":139.46869},{"name":"国分寺市選挙管理委員会","province":"東京都","city":"国分寺市","address":"国分寺市戸倉1-6-1","lat":35.71036,"lon":139.463207},{"name":"国分寺市いずみ保健センター","province":"東京都","city":"国分寺市","address":"国分寺市泉町2-3-8","lat":35.696398,"lon":139.468855},{"name":"国分寺市いずみ保健センター","province":"東京都","city":"国分寺市","address":"東京都国分寺市泉町2丁目3-8","lat":35.69639202,"lon":139.46876059},{"name":"国分寺市いずみ保健センター","province":"東京都","city":"国分寺市","address":"国分寺市泉町2-3-8","lat":35.69611,"lon":139.46869},{"name":"国分寺市選挙管理委員会","province":"東京都","city":"国分寺市","address":"国分寺市戸倉1-6-1","lat":35.71036,"lon":139.463207},{"name":"国分寺市いずみ保健センター","province":"東京都","city":"国分寺市","address":"国分寺市泉町2-3-8","lat":35.696398,"lon":139.468855},{"name":"国分寺市いずみ保健センター","province":"東京都","city":"国分寺市","address":"東京都国分寺市泉町2丁目3-8","lat":35.69639202,"lon":139.46876059},{"name":"国分寺市いずみ保健センター","province":"東京都","city":"国分寺市","address":"国分寺市泉町2-3-8","lat":35.69611,"lon":139.46869},{"name":"国分寺市選挙管理委員会","province":"東京都","city":"国分寺市","address":"国分寺市戸倉1-6-1","lat":35.71036,"lon":139.463207},{"name":"国分寺市いずみ保健センター","province":"東京都","city":"国分寺市","address":"国分寺市泉町2-3-8","lat":35.696398,"lon":139.468855},{"name":"国分寺市いずみ保健センター","province":"東京都","city":"国分寺市","address":"東京都国分寺市泉町2丁目3-8","lat":35.69639202,"lon":139.46876059},{"name":"国分寺市いずみ保健センター","province":"東京都","city":"国分寺市","address":"国分寺市泉町2-3-8","lat":35.69611,"lon":139.46869},{"name":"国分寺市選挙管理委員会","province":"東京都","city":"国分寺市","address":"国分寺市戸倉1-6-1","lat":35.71036,"lon":139.463207},{"name":"国分寺市いずみ保健センター","province":"東京都","city":"国分寺市","address":"国分寺市泉町2-3-8","lat":35.696398,"lon":139.468855},{"name":"国分寺市いずみ保健センター","province":"東京都","city":"国分寺市","address":"東京都国分寺市泉町2丁目3-8","lat":35.69639202,"lon":139.46876059},{"name":"国分寺市いずみ保健センター","province":"東京都","city":"国分寺市","address":"国分寺市泉町2-3-8","lat":35.69611,"lon":139.46869},{"name":"国分寺市選挙管理委員会","province":"東京都","city":"国分寺市","address":"国分寺市戸倉1-6-1","lat":35.71036,"lon":139.463207},{"name":"国分寺市いずみ保健センター","province":"東京都","city":"国分寺市","address":"国分寺市泉町2-3-8","lat":35.696398,"lon":139.468855},{"name":"国分寺市いずみ保健センター","province":"東京都","city":"国分寺市","address":"東京都国分寺市泉町2丁目3-8","lat":35.69639202,"lon":139.46876059},{"name":"国分寺市いずみ保健センター","province":"東京都","city":"国分寺市","address":"国分寺市泉町2-3-8","lat":35.69611,"lon":139.46869},{"name":"国分寺市いずみ保健センター","province":"東京都","city":"国分寺市","address":"国分寺市泉町2-3-8","lat":35.696398,"lon":139.468855},{"name":"国分寺市いずみ保健センター","province":"東京都","city":"国分寺市","address":"東京都国分寺市泉町2丁目3-8","lat":35.69639202,"lon":139.46876059},{"name":"国分寺市いずみ保健センター","province":"東京都","city":"国分寺市","address":"国分寺市泉町2-3-8","lat":35.69611,"lon":139.46869},{"name":"国分寺市いずみ保健センター","province":"東京都","city":"国分寺市","address":"国分寺市泉町2-3-8","lat":35.696398,"lon":139.468855},{"name":"国分寺市いずみ保健センター","province":"東京都","city":"国分寺市","address":"東京都国分寺市泉町2丁目3-8","lat":35.69639202,"lon":139.46876059},{"name":"国分寺市いずみ保健センター","province":"東京都","city":"国分寺市","address":"国分寺市泉町2-3-8","lat":35.69611,"lon":139.46869},{"name":"国分寺市いずみ保健センター","province":"東京都","city":"国分寺市","address":"国分寺市泉町2-3-8","lat":35.696398,"lon":139.468855},{"name":"国分寺市いずみ保健センター","province":"東京都","city":"国分寺市","address":"東京都国分寺市泉町2丁目3-8","lat":35.69639202,"lon":139.46876059},{"name":"国分寺市いずみ保健センター","province":"東京都","city":"国分寺市","address":"国分寺市泉町2-3-8","lat":35.69611,"lon":139.46869}]}