{"keyword":"スポーツ","data":[{"name":"ひかりスポーツセンター","province":"東京都","city":"国分寺市","address":"東京都国分寺市光町1-46-8ひかりプラザ","lat":35.70264198,"lon":139.4445856},{"name":"フィットネスルーム（ひかりスポーツセンター内）","province":"東京都","city":"国分寺市","address":"東京都国分寺市光町1-46-8ひかりプラザ","lat":35.70264198,"lon":139.4445856},{"name":"国分寺市民室内プール","province":"東京都","city":"国分寺市","address":"東京都国分寺市西恋ヶ窪3-32-6","lat":35.70586023,"lon":139.4653462},{"name":"戸倉野球場","province":"東京都","city":"国分寺市","address":"東京都国分寺市戸倉1-31-1","lat":35.71418107,"lon":139.4591364},{"name":"本多武道館","province":"東京都","city":"国分寺市","address":"東京都国分寺市本多2-1-18","lat":35.70476857,"lon":139.4811189},{"name":"戸倉第一テニスコート","province":"東京都","city":"国分寺市","address":"東京都国分寺市戸倉1-28-14","lat":35.71356877,"lon":139.4591917},{"name":"戸倉第二テニスコート","province":"東京都","city":"国分寺市","address":"東京都国分寺市戸倉2-5-2","lat":35.70869365,"lon":139.4609194},{"name":"西元町ゲートボール場","province":"東京都","city":"国分寺市","address":"東京都国分寺市西元町3-22","lat":35.6906539,"lon":139.4730347},{"name":"新町ゲートボール場","province":"東京都","city":"国分寺市","address":"東京都国分寺市新町1-19-2","lat":35.71161702,"lon":139.4487797},{"name":"戸倉ゲートボール場","province":"東京都","city":"国分寺市","address":"東京都国分寺市戸倉3-43-1","lat":35.70791715,"lon":139.4511394}]}