{"keyword":"スモッグ","data":[{"name":"東京都立多摩図書館","province":"東京都","city":"国分寺市","address":"東京都国分寺市泉町2-2-26","lat":35.698081,"lon":139.469872},{"name":"武蔵国分寺公園","province":"東京都","city":"国分寺市","address":"東京都国分寺市泉町二丁目・西元町二丁目","lat":35.69685,"lon":139.472757},{"name":"殿ヶ谷戸庭園","province":"東京都","city":"国分寺市","address":"東京都国分寺市南町二丁目","lat":35.69872,"lon":139.481937},{"name":"東恋ヶ窪浄水所","province":"東京都","city":"国分寺市","address":"東京都国分寺市東恋ヶ窪2丁目5-8","lat":35.7064827,"lon":139.47639009},{"name":"国分寺市立窪東公園","province":"東京都","city":"国分寺市","address":"東京都国分寺市東戸倉2丁目19","lat":35.71561748,"lon":139.46532404},{"name":"(有)野村容器","province":"東京都","city":"国分寺市","address":"国分寺市東恋ケ窪5-2-3","lat":35.707634,"lon":139.467743},{"name":"東京都立多摩図書館","province":"東京都","city":"国分寺市","address":"東京都国分寺市泉町2-2-26","lat":35.698081,"lon":139.469872},{"name":"武蔵国分寺公園","province":"東京都","city":"国分寺市","address":"東京都国分寺市泉町二丁目・西元町二丁目","lat":35.69685,"lon":139.472757},{"name":"殿ヶ谷戸庭園","province":"東京都","city":"国分寺市","address":"東京都国分寺市南町二丁目","lat":35.69872,"lon":139.481937},{"name":"(有)野村容器","province":"東京都","city":"国分寺市","address":"国分寺市東恋ケ窪5-2-3","lat":35.707634,"lon":139.467743},{"name":"東京都立多摩図書館","province":"東京都","city":"国分寺市","address":"東京都国分寺市泉町2-2-26","lat":35.698081,"lon":139.469872},{"name":"武蔵国分寺公園","province":"東京都","city":"国分寺市","address":"東京都国分寺市泉町二丁目・西元町二丁目","lat":35.69685,"lon":139.472757},{"name":"殿ヶ谷戸庭園","province":"東京都","city":"国分寺市","address":"東京都国分寺市南町二丁目","lat":35.69872,"lon":139.481937},{"name":"(有)野村容器","province":"東京都","city":"国分寺市","address":"国分寺市東恋ケ窪5-2-3","lat":35.707634,"lon":139.467743},{"name":"東京都立多摩図書館","province":"東京都","city":"国分寺市","address":"東京都国分寺市泉町2-2-26","lat":35.698081,"lon":139.469872},{"name":"武蔵国分寺公園","province":"東京都","city":"国分寺市","address":"東京都国分寺市泉町二丁目・西元町二丁目","lat":35.69685,"lon":139.472757},{"name":"殿ヶ谷戸庭園","province":"東京都","city":"国分寺市","address":"東京都国分寺市南町二丁目","lat":35.69872,"lon":139.481937},{"name":"(有)野村容器","province":"東京都","city":"国分寺市","address":"国分寺市東恋ケ窪5-2-3","lat":35.707634,"lon":139.467743},{"name":"東京都立多摩図書館","province":"東京都","city":"国分寺市","address":"東京都国分寺市泉町2-2-26","lat":35.698081,"lon":139.469872},{"name":"武蔵国分寺公園","province":"東京都","city":"国分寺市","address":"東京都国分寺市泉町二丁目・西元町二丁目","lat":35.69685,"lon":139.472757},{"name":"殿ヶ谷戸庭園","province":"東京都","city":"国分寺市","address":"東京都国分寺市南町二丁目","lat":35.69872,"lon":139.481937},{"name":"(有)野村容器","province":"東京都","city":"国分寺市","address":"国分寺市東恋ケ窪5-2-3","lat":35.707634,"lon":139.467743},{"name":"東京都立多摩図書館","province":"東京都","city":"国分寺市","address":"東京都国分寺市泉町2-2-26","lat":35.698081,"lon":139.469872},{"name":"武蔵国分寺公園","province":"東京都","city":"国分寺市","address":"東京都国分寺市泉町二丁目・西元町二丁目","lat":35.69685,"lon":139.472757},{"name":"殿ヶ谷戸庭園","province":"東京都","city":"国分寺市","address":"東京都国分寺市南町二丁目","lat":35.69872,"lon":139.481937},{"name":"(有)野村容器","province":"東京都","city":"国分寺市","address":"国分寺市東恋ケ窪5-2-3","lat":35.707634,"lon":139.467743},{"name":"東京都立多摩図書館","province":"東京都","city":"国分寺市","address":"東京都国分寺市泉町2-2-26","lat":35.698081,"lon":139.469872},{"name":"武蔵国分寺公園","province":"東京都","city":"国分寺市","address":"東京都国分寺市泉町二丁目・西元町二丁目","lat":35.69685,"lon":139.472757},{"name":"殿ヶ谷戸庭園","province":"東京都","city":"国分寺市","address":"東京都国分寺市南町二丁目","lat":35.69872,"lon":139.481937},{"name":"(有)野村容器","province":"東京都","city":"国分寺市","address":"国分寺市東恋ケ窪5-2-3","lat":35.707634,"lon":139.467743},{"name":"東京都立多摩図書館","province":"東京都","city":"国分寺市","address":"東京都国分寺市泉町2-2-26","lat":35.698081,"lon":139.469872},{"name":"武蔵国分寺公園","province":"東京都","city":"国分寺市","address":"東京都国分寺市泉町二丁目・西元町二丁目","lat":35.69685,"lon":139.472757},{"name":"殿ヶ谷戸庭園","province":"東京都","city":"国分寺市","address":"東京都国分寺市南町二丁目","lat":35.69872,"lon":139.481937},{"name":"(有)野村容器","province":"東京都","city":"国分寺市","address":"国分寺市東恋ケ窪5-2-3","lat":35.707634,"lon":139.467743},{"name":"東京都立多摩図書館","province":"東京都","city":"国分寺市","address":"東京都国分寺市泉町2-2-26","lat":35.698081,"lon":139.469872},{"name":"武蔵国分寺公園","province":"東京都","city":"国分寺市","address":"東京都国分寺市泉町二丁目・西元町二丁目","lat":35.69685,"lon":139.472757},{"name":"殿ヶ谷戸庭園","province":"東京都","city":"国分寺市","address":"東京都国分寺市南町二丁目","lat":35.69872,"lon":139.481937},{"name":"(有)野村容器","province":"東京都","city":"国分寺市","address":"国分寺市東恋ケ窪5-2-3","lat":35.707634,"lon":139.467743},{"name":"東京都立多摩図書館","province":"東京都","city":"国分寺市","address":"東京都国分寺市泉町2-2-26","lat":35.698081,"lon":139.469872},{"name":"武蔵国分寺公園","province":"東京都","city":"国分寺市","address":"東京都国分寺市泉町二丁目・西元町二丁目","lat":35.69685,"lon":139.472757},{"name":"殿ヶ谷戸庭園","province":"東京都","city":"国分寺市","address":"東京都国分寺市南町二丁目","lat":35.69872,"lon":139.481937},{"name":"(有)野村容器","province":"東京都","city":"国分寺市","address":"国分寺市東恋ケ窪5-2-3","lat":35.707634,"lon":139.467743},{"name":"東京都立多摩図書館","province":"東京都","city":"国分寺市","address":"東京都国分寺市泉町2-2-26","lat":35.698081,"lon":139.469872},{"name":"武蔵国分寺公園","province":"東京都","city":"国分寺市","address":"東京都国分寺市泉町二丁目・西元町二丁目","lat":35.69685,"lon":139.472757},{"name":"殿ヶ谷戸庭園","province":"東京都","city":"国分寺市","address":"東京都国分寺市南町二丁目","lat":35.69872,"lon":139.481937},{"name":"(有)野村容器","province":"東京都","city":"国分寺市","address":"国分寺市東恋ケ窪5-2-3","lat":35.707634,"lon":139.467743},{"name":"東京都立多摩図書館","province":"東京都","city":"国分寺市","address":"東京都国分寺市泉町2-2-26","lat":35.698081,"lon":139.469872},{"name":"武蔵国分寺公園","province":"東京都","city":"国分寺市","address":"東京都国分寺市泉町二丁目・西元町二丁目","lat":35.69685,"lon":139.472757},{"name":"殿ヶ谷戸庭園","province":"東京都","city":"国分寺市","address":"東京都国分寺市南町二丁目","lat":35.69872,"lon":139.481937},{"name":"(有)野村容器","province":"東京都","city":"国分寺市","address":"国分寺市東恋ケ窪5-2-3","lat":35.707634,"lon":139.467743},{"name":"東京都立多摩図書館","province":"東京都","city":"国分寺市","address":"東京都国分寺市泉町2-2-26","lat":35.698081,"lon":139.469872},{"name":"武蔵国分寺公園","province":"東京都","city":"国分寺市","address":"東京都国分寺市泉町二丁目・西元町二丁目","lat":35.69685,"lon":139.472757},{"name":"殿ヶ谷戸庭園","province":"東京都","city":"国分寺市","address":"東京都国分寺市南町二丁目","lat":35.69872,"lon":139.481937},{"name":"(有)野村容器","province":"東京都","city":"国分寺市","address":"国分寺市東恋ケ窪5-2-3","lat":35.707634,"lon":139.467743},{"name":"東京都立多摩図書館","province":"東京都","city":"国分寺市","address":"東京都国分寺市泉町2-2-26","lat":35.698081,"lon":139.469872},{"name":"武蔵国分寺公園","province":"東京都","city":"国分寺市","address":"東京都国分寺市泉町二丁目・西元町二丁目","lat":35.69685,"lon":139.472757},{"name":"殿ヶ谷戸庭園","province":"東京都","city":"国分寺市","address":"東京都国分寺市南町二丁目","lat":35.69872,"lon":139.481937},{"name":"(有)野村容器","province":"東京都","city":"国分寺市","address":"国分寺市東恋ケ窪5-2-3","lat":35.707634,"lon":139.467743},{"name":"東京都立多摩図書館","province":"東京都","city":"国分寺市","address":"東京都国分寺市泉町2-2-26","lat":35.698081,"lon":139.469872},{"name":"武蔵国分寺公園","province":"東京都","city":"国分寺市","address":"東京都国分寺市泉町二丁目・西元町二丁目","lat":35.69685,"lon":139.472757},{"name":"殿ヶ谷戸庭園","province":"東京都","city":"国分寺市","address":"東京都国分寺市南町二丁目","lat":35.69872,"lon":139.481937},{"name":"(有)野村容器","province":"東京都","city":"国分寺市","address":"国分寺市東恋ケ窪5-2-3","lat":35.707634,"lon":139.467743},{"name":"東京都立多摩図書館","province":"東京都","city":"国分寺市","address":"東京都国分寺市泉町2-2-26","lat":35.698081,"lon":139.469872},{"name":"武蔵国分寺公園","province":"東京都","city":"国分寺市","address":"東京都国分寺市泉町二丁目・西元町二丁目","lat":35.69685,"lon":139.472757},{"name":"殿ヶ谷戸庭園","province":"東京都","city":"国分寺市","address":"東京都国分寺市南町二丁目","lat":35.69872,"lon":139.481937},{"name":"(有)野村容器","province":"東京都","city":"国分寺市","address":"国分寺市東恋ケ窪5-2-3","lat":35.707634,"lon":139.467743},{"name":"東京都立多摩図書館","province":"東京都","city":"国分寺市","address":"東京都国分寺市泉町2-2-26","lat":35.698081,"lon":139.469872},{"name":"武蔵国分寺公園","province":"東京都","city":"国分寺市","address":"東京都国分寺市泉町二丁目・西元町二丁目","lat":35.69685,"lon":139.472757},{"name":"殿ヶ谷戸庭園","province":"東京都","city":"国分寺市","address":"東京都国分寺市南町二丁目","lat":35.69872,"lon":139.481937},{"name":"(有)野村容器","province":"東京都","city":"国分寺市","address":"国分寺市東恋ケ窪5-2-3","lat":35.707634,"lon":139.467743},{"name":"東京都立多摩図書館","province":"東京都","city":"国分寺市","address":"東京都国分寺市泉町2-2-26","lat":35.698081,"lon":139.469872},{"name":"武蔵国分寺公園","province":"東京都","city":"国分寺市","address":"東京都国分寺市泉町二丁目・西元町二丁目","lat":35.69685,"lon":139.472757},{"name":"殿ヶ谷戸庭園","province":"東京都","city":"国分寺市","address":"東京都国分寺市南町二丁目","lat":35.69872,"lon":139.481937},{"name":"(有)野村容器","province":"東京都","city":"国分寺市","address":"国分寺市東恋ケ窪5-2-3","lat":35.707634,"lon":139.467743},{"name":"東京都立多摩図書館","province":"東京都","city":"国分寺市","address":"東京都国分寺市泉町2-2-26","lat":35.698081,"lon":139.469872},{"name":"武蔵国分寺公園","province":"東京都","city":"国分寺市","address":"東京都国分寺市泉町二丁目・西元町二丁目","lat":35.69685,"lon":139.472757},{"name":"殿ヶ谷戸庭園","province":"東京都","city":"国分寺市","address":"東京都国分寺市南町二丁目","lat":35.69872,"lon":139.481937},{"name":"(有)野村容器","province":"東京都","city":"国分寺市","address":"国分寺市東恋ケ窪5-2-3","lat":35.707634,"lon":139.467743},{"name":"東京都立多摩図書館","province":"東京都","city":"国分寺市","address":"東京都国分寺市泉町2-2-26","lat":35.698081,"lon":139.469872},{"name":"武蔵国分寺公園","province":"東京都","city":"国分寺市","address":"東京都国分寺市泉町二丁目・西元町二丁目","lat":35.69685,"lon":139.472757},{"name":"殿ヶ谷戸庭園","province":"東京都","city":"国分寺市","address":"東京都国分寺市南町二丁目","lat":35.69872,"lon":139.481937},{"name":"(有)野村容器","province":"東京都","city":"国分寺市","address":"国分寺市東恋ケ窪5-2-3","lat":35.707634,"lon":139.467743},{"name":"東京都立多摩図書館","province":"東京都","city":"国分寺市","address":"東京都国分寺市泉町2-2-26","lat":35.698081,"lon":139.469872},{"name":"武蔵国分寺公園","province":"東京都","city":"国分寺市","address":"東京都国分寺市泉町二丁目・西元町二丁目","lat":35.69685,"lon":139.472757},{"name":"殿ヶ谷戸庭園","province":"東京都","city":"国分寺市","address":"東京都国分寺市南町二丁目","lat":35.69872,"lon":139.481937},{"name":"(有)野村容器","province":"東京都","city":"国分寺市","address":"国分寺市東恋ケ窪5-2-3","lat":35.707634,"lon":139.467743},{"name":"東京都立多摩図書館","province":"東京都","city":"国分寺市","address":"東京都国分寺市泉町2-2-26","lat":35.698081,"lon":139.469872},{"name":"武蔵国分寺公園","province":"東京都","city":"国分寺市","address":"東京都国分寺市泉町二丁目・西元町二丁目","lat":35.69685,"lon":139.472757},{"name":"殿ヶ谷戸庭園","province":"東京都","city":"国分寺市","address":"東京都国分寺市南町二丁目","lat":35.69872,"lon":139.481937},{"name":"(有)野村容器","province":"東京都","city":"国分寺市","address":"国分寺市東恋ケ窪5-2-3","lat":35.707634,"lon":139.467743},{"name":"東京都立多摩図書館","province":"東京都","city":"国分寺市","address":"東京都国分寺市泉町2-2-26","lat":35.698081,"lon":139.469872},{"name":"武蔵国分寺公園","province":"東京都","city":"国分寺市","address":"東京都国分寺市泉町二丁目・西元町二丁目","lat":35.69685,"lon":139.472757},{"name":"殿ヶ谷戸庭園","province":"東京都","city":"国分寺市","address":"東京都国分寺市南町二丁目","lat":35.69872,"lon":139.481937},{"name":"(有)野村容器","province":"東京都","city":"国分寺市","address":"国分寺市東恋ケ窪5-2-3","lat":35.707634,"lon":139.467743},{"name":"東京都立多摩図書館","province":"東京都","city":"国分寺市","address":"東京都国分寺市泉町2-2-26","lat":35.698081,"lon":139.469872},{"name":"武蔵国分寺公園","province":"東京都","city":"国分寺市","address":"東京都国分寺市泉町二丁目・西元町二丁目","lat":35.69685,"lon":139.472757},{"name":"殿ヶ谷戸庭園","province":"東京都","city":"国分寺市","address":"東京都国分寺市南町二丁目","lat":35.69872,"lon":139.481937},{"name":"(有)野村容器","province":"東京都","city":"国分寺市","address":"国分寺市東恋ケ窪5-2-3","lat":35.707634,"lon":139.467743},{"name":"東京都立多摩図書館","province":"東京都","city":"国分寺市","address":"東京都国分寺市泉町2-2-26","lat":35.698081,"lon":139.469872},{"name":"武蔵国分寺公園","province":"東京都","city":"国分寺市","address":"東京都国分寺市泉町二丁目・西元町二丁目","lat":35.69685,"lon":139.472757},{"name":"殿ヶ谷戸庭園","province":"東京都","city":"国分寺市","address":"東京都国分寺市南町二丁目","lat":35.69872,"lon":139.481937},{"name":"(有)野村容器","province":"東京都","city":"国分寺市","address":"国分寺市東恋ケ窪5-2-3","lat":35.707634,"lon":139.467743},{"name":"東京都立多摩図書館","province":"東京都","city":"国分寺市","address":"東京都国分寺市泉町2-2-26","lat":35.698081,"lon":139.469872},{"name":"武蔵国分寺公園","province":"東京都","city":"国分寺市","address":"東京都国分寺市泉町二丁目・西元町二丁目","lat":35.69685,"lon":139.472757},{"name":"殿ヶ谷戸庭園","province":"東京都","city":"国分寺市","address":"東京都国分寺市南町二丁目","lat":35.69872,"lon":139.481937},{"name":"(有)野村容器","province":"東京都","city":"国分寺市","address":"国分寺市東恋ケ窪5-2-3","lat":35.707634,"lon":139.467743},{"name":"東京都立多摩図書館","province":"東京都","city":"国分寺市","address":"東京都国分寺市泉町2-2-26","lat":35.698081,"lon":139.469872},{"name":"武蔵国分寺公園","province":"東京都","city":"国分寺市","address":"東京都国分寺市泉町二丁目・西元町二丁目","lat":35.69685,"lon":139.472757},{"name":"殿ヶ谷戸庭園","province":"東京都","city":"国分寺市","address":"東京都国分寺市南町二丁目","lat":35.69872,"lon":139.481937},{"name":"(有)野村容器","province":"東京都","city":"国分寺市","address":"国分寺市東恋ケ窪5-2-3","lat":35.707634,"lon":139.467743},{"name":"東京都立多摩図書館","province":"東京都","city":"国分寺市","address":"東京都国分寺市泉町2-2-26","lat":35.698081,"lon":139.469872},{"name":"武蔵国分寺公園","province":"東京都","city":"国分寺市","address":"東京都国分寺市泉町二丁目・西元町二丁目","lat":35.69685,"lon":139.472757},{"name":"殿ヶ谷戸庭園","province":"東京都","city":"国分寺市","address":"東京都国分寺市南町二丁目","lat":35.69872,"lon":139.481937},{"name":"(有)野村容器","province":"東京都","city":"国分寺市","address":"国分寺市東恋ケ窪5-2-3","lat":35.707634,"lon":139.467743},{"name":"東京都立多摩図書館","province":"東京都","city":"国分寺市","address":"東京都国分寺市泉町2-2-26","lat":35.698081,"lon":139.469872},{"name":"武蔵国分寺公園","province":"東京都","city":"国分寺市","address":"東京都国分寺市泉町二丁目・西元町二丁目","lat":35.69685,"lon":139.472757},{"name":"殿ヶ谷戸庭園","province":"東京都","city":"国分寺市","address":"東京都国分寺市南町二丁目","lat":35.69872,"lon":139.481937},{"name":"(有)野村容器","province":"東京都","city":"国分寺市","address":"国分寺市東恋ケ窪5-2-3","lat":35.707634,"lon":139.467743},{"name":"東京都立多摩図書館","province":"東京都","city":"国分寺市","address":"東京都国分寺市泉町2-2-26","lat":35.698081,"lon":139.469872},{"name":"武蔵国分寺公園","province":"東京都","city":"国分寺市","address":"東京都国分寺市泉町二丁目・西元町二丁目","lat":35.69685,"lon":139.472757},{"name":"殿ヶ谷戸庭園","province":"東京都","city":"国分寺市","address":"東京都国分寺市南町二丁目","lat":35.69872,"lon":139.481937},{"name":"(有)野村容器","province":"東京都","city":"国分寺市","address":"国分寺市東恋ケ窪5-2-3","lat":35.707634,"lon":139.467743},{"name":"東京都立多摩図書館","province":"東京都","city":"国分寺市","address":"東京都国分寺市泉町2-2-26","lat":35.698081,"lon":139.469872},{"name":"武蔵国分寺公園","province":"東京都","city":"国分寺市","address":"東京都国分寺市泉町二丁目・西元町二丁目","lat":35.69685,"lon":139.472757},{"name":"殿ヶ谷戸庭園","province":"東京都","city":"国分寺市","address":"東京都国分寺市南町二丁目","lat":35.69872,"lon":139.481937},{"name":"(有)野村容器","province":"東京都","city":"国分寺市","address":"国分寺市東恋ケ窪5-2-3","lat":35.707634,"lon":139.467743},{"name":"東京都立多摩図書館","province":"東京都","city":"国分寺市","address":"東京都国分寺市泉町2-2-26","lat":35.698081,"lon":139.469872},{"name":"武蔵国分寺公園","province":"東京都","city":"国分寺市","address":"東京都国分寺市泉町二丁目・西元町二丁目","lat":35.69685,"lon":139.472757},{"name":"殿ヶ谷戸庭園","province":"東京都","city":"国分寺市","address":"東京都国分寺市南町二丁目","lat":35.69872,"lon":139.481937},{"name":"(有)野村容器","province":"東京都","city":"国分寺市","address":"国分寺市東恋ケ窪5-2-3","lat":35.707634,"lon":139.467743},{"name":"東京都立多摩図書館","province":"東京都","city":"国分寺市","address":"東京都国分寺市泉町2-2-26","lat":35.698081,"lon":139.469872},{"name":"武蔵国分寺公園","province":"東京都","city":"国分寺市","address":"東京都国分寺市泉町二丁目・西元町二丁目","lat":35.69685,"lon":139.472757},{"name":"殿ヶ谷戸庭園","province":"東京都","city":"国分寺市","address":"東京都国分寺市南町二丁目","lat":35.69872,"lon":139.481937},{"name":"(有)野村容器","province":"東京都","city":"国分寺市","address":"国分寺市東恋ケ窪5-2-3","lat":35.707634,"lon":139.467743},{"name":"東京都立多摩図書館","province":"東京都","city":"国分寺市","address":"東京都国分寺市泉町2-2-26","lat":35.698081,"lon":139.469872},{"name":"武蔵国分寺公園","province":"東京都","city":"国分寺市","address":"東京都国分寺市泉町二丁目・西元町二丁目","lat":35.69685,"lon":139.472757},{"name":"殿ヶ谷戸庭園","province":"東京都","city":"国分寺市","address":"東京都国分寺市南町二丁目","lat":35.69872,"lon":139.481937},{"name":"(有)野村容器","province":"東京都","city":"国分寺市","address":"国分寺市東恋ケ窪5-2-3","lat":35.707634,"lon":139.467743},{"name":"東京都立多摩図書館","province":"東京都","city":"国分寺市","address":"東京都国分寺市泉町2-2-26","lat":35.698081,"lon":139.469872},{"name":"武蔵国分寺公園","province":"東京都","city":"国分寺市","address":"東京都国分寺市泉町二丁目・西元町二丁目","lat":35.69685,"lon":139.472757},{"name":"殿ヶ谷戸庭園","province":"東京都","city":"国分寺市","address":"東京都国分寺市南町二丁目","lat":35.69872,"lon":139.481937},{"name":"(有)野村容器","province":"東京都","city":"国分寺市","address":"国分寺市東恋ケ窪5-2-3","lat":35.707634,"lon":139.467743},{"name":"東京都立多摩図書館","province":"東京都","city":"国分寺市","address":"東京都国分寺市泉町2-2-26","lat":35.698081,"lon":139.469872},{"name":"武蔵国分寺公園","province":"東京都","city":"国分寺市","address":"東京都国分寺市泉町二丁目・西元町二丁目","lat":35.69685,"lon":139.472757},{"name":"殿ヶ谷戸庭園","province":"東京都","city":"国分寺市","address":"東京都国分寺市南町二丁目","lat":35.69872,"lon":139.481937},{"name":"(有)野村容器","province":"東京都","city":"国分寺市","address":"国分寺市東恋ケ窪5-2-3","lat":35.707634,"lon":139.467743},{"name":"東京都立多摩図書館","province":"東京都","city":"国分寺市","address":"東京都国分寺市泉町2-2-26","lat":35.698081,"lon":139.469872},{"name":"武蔵国分寺公園","province":"東京都","city":"国分寺市","address":"東京都国分寺市泉町二丁目・西元町二丁目","lat":35.69685,"lon":139.472757},{"name":"殿ヶ谷戸庭園","province":"東京都","city":"国分寺市","address":"東京都国分寺市南町二丁目","lat":35.69872,"lon":139.481937},{"name":"(有)野村容器","province":"東京都","city":"国分寺市","address":"国分寺市東恋ケ窪5-2-3","lat":35.707634,"lon":139.467743},{"name":"東京都立多摩図書館","province":"東京都","city":"国分寺市","address":"東京都国分寺市泉町2-2-26","lat":35.698081,"lon":139.469872},{"name":"武蔵国分寺公園","province":"東京都","city":"国分寺市","address":"東京都国分寺市泉町二丁目・西元町二丁目","lat":35.69685,"lon":139.472757},{"name":"殿ヶ谷戸庭園","province":"東京都","city":"国分寺市","address":"東京都国分寺市南町二丁目","lat":35.69872,"lon":139.481937},{"name":"(有)野村容器","province":"東京都","city":"国分寺市","address":"国分寺市東恋ケ窪5-2-3","lat":35.707634,"lon":139.467743},{"name":"東京都立多摩図書館","province":"東京都","city":"国分寺市","address":"東京都国分寺市泉町2-2-26","lat":35.698081,"lon":139.469872},{"name":"武蔵国分寺公園","province":"東京都","city":"国分寺市","address":"東京都国分寺市泉町二丁目・西元町二丁目","lat":35.69685,"lon":139.472757},{"name":"殿ヶ谷戸庭園","province":"東京都","city":"国分寺市","address":"東京都国分寺市南町二丁目","lat":35.69872,"lon":139.481937},{"name":"(有)野村容器","province":"東京都","city":"国分寺市","address":"国分寺市東恋ケ窪5-2-3","lat":35.707634,"lon":139.467743},{"name":"東京都立多摩図書館","province":"東京都","city":"国分寺市","address":"東京都国分寺市泉町2-2-26","lat":35.698081,"lon":139.469872},{"name":"武蔵国分寺公園","province":"東京都","city":"国分寺市","address":"東京都国分寺市泉町二丁目・西元町二丁目","lat":35.69685,"lon":139.472757},{"name":"殿ヶ谷戸庭園","province":"東京都","city":"国分寺市","address":"東京都国分寺市南町二丁目","lat":35.69872,"lon":139.481937},{"name":"(有)野村容器","province":"東京都","city":"国分寺市","address":"国分寺市東恋ケ窪5-2-3","lat":35.707634,"lon":139.467743},{"name":"東京都立多摩図書館","province":"東京都","city":"国分寺市","address":"東京都国分寺市泉町2-2-26","lat":35.698081,"lon":139.469872},{"name":"武蔵国分寺公園","province":"東京都","city":"国分寺市","address":"東京都国分寺市泉町二丁目・西元町二丁目","lat":35.69685,"lon":139.472757},{"name":"殿ヶ谷戸庭園","province":"東京都","city":"国分寺市","address":"東京都国分寺市南町二丁目","lat":35.69872,"lon":139.481937},{"name":"(有)野村容器","province":"東京都","city":"国分寺市","address":"国分寺市東恋ケ窪5-2-3","lat":35.707634,"lon":139.467743},{"name":"東京都立多摩図書館","province":"東京都","city":"国分寺市","address":"東京都国分寺市泉町2-2-26","lat":35.698081,"lon":139.469872},{"name":"武蔵国分寺公園","province":"東京都","city":"国分寺市","address":"東京都国分寺市泉町二丁目・西元町二丁目","lat":35.69685,"lon":139.472757},{"name":"殿ヶ谷戸庭園","province":"東京都","city":"国分寺市","address":"東京都国分寺市南町二丁目","lat":35.69872,"lon":139.481937},{"name":"(有)野村容器","province":"東京都","city":"国分寺市","address":"国分寺市東恋ケ窪5-2-3","lat":35.707634,"lon":139.467743},{"name":"東京都立多摩図書館","province":"東京都","city":"国分寺市","address":"東京都国分寺市泉町2-2-26","lat":35.698081,"lon":139.469872},{"name":"武蔵国分寺公園","province":"東京都","city":"国分寺市","address":"東京都国分寺市泉町二丁目・西元町二丁目","lat":35.69685,"lon":139.472757},{"name":"殿ヶ谷戸庭園","province":"東京都","city":"国分寺市","address":"東京都国分寺市南町二丁目","lat":35.69872,"lon":139.481937},{"name":"(有)野村容器","province":"東京都","city":"国分寺市","address":"国分寺市東恋ケ窪5-2-3","lat":35.707634,"lon":139.467743},{"name":"東京都立多摩図書館","province":"東京都","city":"国分寺市","address":"東京都国分寺市泉町2-2-26","lat":35.698081,"lon":139.469872},{"name":"武蔵国分寺公園","province":"東京都","city":"国分寺市","address":"東京都国分寺市泉町二丁目・西元町二丁目","lat":35.69685,"lon":139.472757},{"name":"殿ヶ谷戸庭園","province":"東京都","city":"国分寺市","address":"東京都国分寺市南町二丁目","lat":35.69872,"lon":139.481937},{"name":"(有)野村容器","province":"東京都","city":"国分寺市","address":"国分寺市東恋ケ窪5-2-3","lat":35.707634,"lon":139.467743},{"name":"東京都立多摩図書館","province":"東京都","city":"国分寺市","address":"東京都国分寺市泉町2-2-26","lat":35.698081,"lon":139.469872},{"name":"武蔵国分寺公園","province":"東京都","city":"国分寺市","address":"東京都国分寺市泉町二丁目・西元町二丁目","lat":35.69685,"lon":139.472757},{"name":"殿ヶ谷戸庭園","province":"東京都","city":"国分寺市","address":"東京都国分寺市南町二丁目","lat":35.69872,"lon":139.481937},{"name":"(有)野村容器","province":"東京都","city":"国分寺市","address":"国分寺市東恋ケ窪5-2-3","lat":35.707634,"lon":139.467743},{"name":"東京都立多摩図書館","province":"東京都","city":"国分寺市","address":"東京都国分寺市泉町2-2-26","lat":35.698081,"lon":139.469872},{"name":"武蔵国分寺公園","province":"東京都","city":"国分寺市","address":"東京都国分寺市泉町二丁目・西元町二丁目","lat":35.69685,"lon":139.472757},{"name":"殿ヶ谷戸庭園","province":"東京都","city":"国分寺市","address":"東京都国分寺市南町二丁目","lat":35.69872,"lon":139.481937},{"name":"(有)野村容器","province":"東京都","city":"国分寺市","address":"国分寺市東恋ケ窪5-2-3","lat":35.707634,"lon":139.467743}]}