{"keyword":"保育","data":[{"name":"千春第二保育園","province":"東京都","city":"国分寺市","address":"国分寺市戸倉1丁目22番地2","lat":35.712176,"lon":139.460733},{"name":"国分寺市立しんまち保育園","province":"東京都","city":"国分寺市","address":"国分寺市新町1丁目7番地11","lat":35.712967,"lon":139.453825},{"name":"ベネッセ国分寺保育園","province":"東京都","city":"国分寺市","address":"国分寺市本多3-1-7","lat":35.707702,"lon":139.480334},{"name":"ほんだ保育園","province":"東京都","city":"国分寺市","address":"国分寺市本多3丁目14番12号","lat":35.712052,"lon":139.479553},{"name":"キャリー保育園国分寺","province":"東京都","city":"国分寺市","address":"国分寺市本多5丁目2番3号","lat":35.704547,"lon":139.486209},{"name":"ぶんじっこ保育園（本園・分園）","province":"東京都","city":"国分寺市","address":"国分寺市本町4丁目22番9号","lat":35.703425,"lon":139.477835},{"name":"グローバルキッズ西国分寺園","province":"東京都","city":"国分寺市","address":"国分寺市西恋ヶ窪3-18-5","lat":35.704174,"lon":139.466349},{"name":"西国分寺保育園","province":"東京都","city":"国分寺市","address":"国分寺市西恋ヶ窪2丁目18番地1","lat":35.701802,"lon":139.464522},{"name":"えがおの森保育園","province":"東京都","city":"国分寺市","address":"国分寺市西恋ヶ窪4丁目17番地18","lat":35.708788,"lon":139.465705},{"name":"ポッポのもり保育園","province":"東京都","city":"国分寺市","address":"国分寺市西恋ヶ窪3丁目5番地25","lat":35.70308,"lon":139.463911},{"name":"桑の実西国分寺保育園","province":"東京都","city":"国分寺市","address":"国分寺市西恋ヶ窪1-32-15","lat":35.701139,"lon":139.468141},{"name":"明国保育園","province":"東京都","city":"国分寺市","address":"国分寺市東恋ヶ窪3-5-7","lat":35.70558,"lon":139.473626},{"name":"恋ヶ窪保育園","province":"東京都","city":"国分寺市","address":"国分寺市東恋ヶ窪2丁目6番地13","lat":35.706569,"lon":139.477168},{"name":"浴光保育園","province":"東京都","city":"国分寺市","address":"国分寺市東恋ヶ窪4丁目5番地1","lat":35.706874,"lon":139.469607},{"name":"こもれびの森保育園","province":"東京都","city":"国分寺市","address":"国分寺市東恋ヶ窪5丁目8番地3","lat":35.710043,"lon":139.465333},{"name":"国分寺Ｊキッズステーション","province":"東京都","city":"国分寺市","address":"国分寺市南町3丁目20番3号","lat":35.699792,"lon":139.480346},{"name":"保育園ピコ国分寺","province":"東京都","city":"国分寺市","address":"国分寺市南町3丁目11番7号","lat":35.698356,"lon":139.480207},{"name":"アスクこくぶんじ南町保育園","province":"東京都","city":"国分寺市","address":"国分寺市南町1丁目13番19号","lat":35.698811,"lon":139.486849},{"name":"国分寺市立もとまち保育園","province":"東京都","city":"国分寺市","address":"国分寺市東元町2丁目13番18号","lat":35.694376,"lon":139.481412},{"name":"にしこくワンダーランド保育園","province":"東京都","city":"国分寺市","address":"国分寺市西元町2丁目7番9号","lat":35.692187,"lon":139.468319},{"name":"国分寺市立こくぶんじ保育園","province":"東京都","city":"国分寺市","address":"国分寺市泉町2丁目7番2号","lat":35.698739,"lon":139.46843},{"name":"生活クラブ保育園ぽむ・国分寺","province":"東京都","city":"国分寺市","address":"国分寺市泉町3-33-2西晴ビル1階","lat":35.698806,"lon":139.466525},{"name":"富士本保育園","province":"東京都","city":"国分寺市","address":"国分寺市富士本2丁目30番地4","lat":35.707235,"lon":139.446282},{"name":"ひだまりの森保育園","province":"東京都","city":"国分寺市","address":"国分寺市富士本1丁目2番地16","lat":35.703905,"lon":139.452856},{"name":"ひよし保育園","province":"東京都","city":"国分寺市","address":"国分寺市日吉町2丁目20番地5","lat":35.701416,"lon":139.452451},{"name":"やなぎ保育園","province":"東京都","city":"国分寺市","address":"国分寺市日吉町1丁目46番地7","lat":35.700797,"lon":139.455731},{"name":"ポッポのはな保育園","province":"東京都","city":"国分寺市","address":"国分寺市日吉町1丁目2番地14","lat":35.700286,"lon":139.461378},{"name":"ひかり保育園","province":"東京都","city":"国分寺市","address":"国分寺市光町3丁目24番地2","lat":35.706318,"lon":139.44071},{"name":"まなびの森保育園国分寺","province":"東京都","city":"国分寺市","address":"国分寺市光町二丁目5番地1","lat":35.700908,"lon":139.444196},{"name":"くるみの木保育園","province":"東京都","city":"国分寺市","address":"国分寺市西町5丁目8番地8","lat":35.718055,"lon":139.433635},{"name":"ともだちの森保育園","province":"東京都","city":"国分寺市","address":"国分寺市高木町1丁目22番地41","lat":35.712509,"lon":139.440524}]}