{"keyword":"収蔵","data":[{"name":"東恋ヶ窪配水所","province":"東京都","city":"国分寺市","address":"東京都国分寺市東恋ヶ窪2-5-8","lat":35.7065051,"lon":139.476399},{"name":"国分寺北町給水所","province":"東京都","city":"国分寺市","address":"東京都国分寺市北町4-1-5","lat":35.721054,"lon":139.45038},{"name":"東恋ヶ窪浄水所","province":"東京都","city":"国分寺市","address":"東京都国分寺市東恋ヶ窪2丁目5-8","lat":35.7064827,"lon":139.47639009},{"name":"国分寺市立窪東公園","province":"東京都","city":"国分寺市","address":"東京都国分寺市東戸倉2丁目19","lat":35.71561748,"lon":139.46532404},{"name":"＊?本多公民館","province":"東京都","city":"国分寺市","address":"国分寺市本多1-7-1","lat":35.705284,"lon":139.48249},{"name":"＊?並木公民館","province":"東京都","city":"国分寺市","address":"国分寺市並木町2-12-3","lat":35.715834,"lon":139.45322},{"name":"＊?恋ケ窪公民館","province":"東京都","city":"国分寺市","address":"国分寺市西恋ヶ窪4-12-8","lat":35.707761,"lon":139.464256},{"name":"＊?もとまち公民館","province":"東京都","city":"国分寺市","address":"国分寺市東元町2-3-13","lat":35.692093,"lon":139.48307},{"name":"＊?光公民館","province":"東京都","city":"国分寺市","address":"国分寺市光町3-13-19","lat":35.70781,"lon":139.443193},{"name":"東恋ヶ窪配水所","province":"東京都","city":"国分寺市","address":"東京都国分寺市東恋ヶ窪2-5-8","lat":35.7065051,"lon":139.476399},{"name":"国分寺北町給水所","province":"東京都","city":"国分寺市","address":"東京都国分寺市北町4-1-5","lat":35.721054,"lon":139.45038},{"name":"東恋ヶ窪浄水所","province":"東京都","city":"国分寺市","address":"東京都国分寺市東恋ヶ窪2丁目5-8","lat":35.7064827,"lon":139.47639009},{"name":"国分寺市立窪東公園","province":"東京都","city":"国分寺市","address":"東京都国分寺市東戸倉2丁目19","lat":35.71561748,"lon":139.46532404},{"name":"＊?本多公民館","province":"東京都","city":"国分寺市","address":"国分寺市本多1-7-1","lat":35.705284,"lon":139.48249},{"name":"＊?並木公民館","province":"東京都","city":"国分寺市","address":"国分寺市並木町2-12-3","lat":35.715834,"lon":139.45322},{"name":"＊?恋ケ窪公民館","province":"東京都","city":"国分寺市","address":"国分寺市西恋ヶ窪4-12-8","lat":35.707761,"lon":139.464256},{"name":"＊?もとまち公民館","province":"東京都","city":"国分寺市","address":"国分寺市東元町2-3-13","lat":35.692093,"lon":139.48307},{"name":"＊?光公民館","province":"東京都","city":"国分寺市","address":"国分寺市光町3-13-19","lat":35.70781,"lon":139.443193},{"name":"東恋ヶ窪配水所","province":"東京都","city":"国分寺市","address":"東京都国分寺市東恋ヶ窪2-5-8","lat":35.7065051,"lon":139.476399},{"name":"国分寺北町給水所","province":"東京都","city":"国分寺市","address":"東京都国分寺市北町4-1-5","lat":35.721054,"lon":139.45038},{"name":"東恋ヶ窪浄水所","province":"東京都","city":"国分寺市","address":"東京都国分寺市東恋ヶ窪2丁目5-8","lat":35.7064827,"lon":139.47639009},{"name":"国分寺市立窪東公園","province":"東京都","city":"国分寺市","address":"東京都国分寺市東戸倉2丁目19","lat":35.71561748,"lon":139.46532404},{"name":"＊?本多公民館","province":"東京都","city":"国分寺市","address":"国分寺市本多1-7-1","lat":35.705284,"lon":139.48249},{"name":"＊?並木公民館","province":"東京都","city":"国分寺市","address":"国分寺市並木町2-12-3","lat":35.715834,"lon":139.45322},{"name":"＊?恋ケ窪公民館","province":"東京都","city":"国分寺市","address":"国分寺市西恋ヶ窪4-12-8","lat":35.707761,"lon":139.464256},{"name":"＊?もとまち公民館","province":"東京都","city":"国分寺市","address":"国分寺市東元町2-3-13","lat":35.692093,"lon":139.48307},{"name":"＊?光公民館","province":"東京都","city":"国分寺市","address":"国分寺市光町3-13-19","lat":35.70781,"lon":139.443193},{"name":"東恋ヶ窪配水所","province":"東京都","city":"国分寺市","address":"東京都国分寺市東恋ヶ窪2-5-8","lat":35.7065051,"lon":139.476399},{"name":"国分寺北町給水所","province":"東京都","city":"国分寺市","address":"東京都国分寺市北町4-1-5","lat":35.721054,"lon":139.45038},{"name":"国分寺市立窪東公園","province":"東京都","city":"国分寺市","address":"東京都国分寺市東戸倉2丁目19","lat":35.71561748,"lon":139.46532404},{"name":"＊?本多公民館","province":"東京都","city":"国分寺市","address":"国分寺市本多1-7-1","lat":35.705284,"lon":139.48249},{"name":"＊?並木公民館","province":"東京都","city":"国分寺市","address":"国分寺市並木町2-12-3","lat":35.715834,"lon":139.45322},{"name":"＊?恋ケ窪公民館","province":"東京都","city":"国分寺市","address":"国分寺市西恋ヶ窪4-12-8","lat":35.707761,"lon":139.464256},{"name":"＊?もとまち公民館","province":"東京都","city":"国分寺市","address":"国分寺市東元町2-3-13","lat":35.692093,"lon":139.48307},{"name":"＊?光公民館","province":"東京都","city":"国分寺市","address":"国分寺市光町3-13-19","lat":35.70781,"lon":139.443193},{"name":"東恋ヶ窪配水所","province":"東京都","city":"国分寺市","address":"東京都国分寺市東恋ヶ窪2-5-8","lat":35.7065051,"lon":139.476399},{"name":"国分寺北町給水所","province":"東京都","city":"国分寺市","address":"東京都国分寺市北町4-1-5","lat":35.721054,"lon":139.45038},{"name":"＊?本多公民館","province":"東京都","city":"国分寺市","address":"国分寺市本多1-7-1","lat":35.705284,"lon":139.48249},{"name":"＊?並木公民館","province":"東京都","city":"国分寺市","address":"国分寺市並木町2-12-3","lat":35.715834,"lon":139.45322},{"name":"＊?恋ケ窪公民館","province":"東京都","city":"国分寺市","address":"国分寺市西恋ヶ窪4-12-8","lat":35.707761,"lon":139.464256},{"name":"＊?もとまち公民館","province":"東京都","city":"国分寺市","address":"国分寺市東元町2-3-13","lat":35.692093,"lon":139.48307},{"name":"＊?光公民館","province":"東京都","city":"国分寺市","address":"国分寺市光町3-13-19","lat":35.70781,"lon":139.443193},{"name":"東恋ヶ窪配水所","province":"東京都","city":"国分寺市","address":"東京都国分寺市東恋ヶ窪2-5-8","lat":35.7065051,"lon":139.476399},{"name":"国分寺北町給水所","province":"東京都","city":"国分寺市","address":"東京都国分寺市北町4-1-5","lat":35.721054,"lon":139.45038},{"name":"＊?本多公民館","province":"東京都","city":"国分寺市","address":"国分寺市本多1-7-1","lat":35.705284,"lon":139.48249},{"name":"＊?並木公民館","province":"東京都","city":"国分寺市","address":"国分寺市並木町2-12-3","lat":35.715834,"lon":139.45322},{"name":"＊?恋ケ窪公民館","province":"東京都","city":"国分寺市","address":"国分寺市西恋ヶ窪4-12-8","lat":35.707761,"lon":139.464256},{"name":"＊?もとまち公民館","province":"東京都","city":"国分寺市","address":"国分寺市東元町2-3-13","lat":35.692093,"lon":139.48307},{"name":"＊?光公民館","province":"東京都","city":"国分寺市","address":"国分寺市光町3-13-19","lat":35.70781,"lon":139.443193},{"name":"東恋ヶ窪配水所","province":"東京都","city":"国分寺市","address":"東京都国分寺市東恋ヶ窪2-5-8","lat":35.7065051,"lon":139.476399},{"name":"国分寺北町給水所","province":"東京都","city":"国分寺市","address":"東京都国分寺市北町4-1-5","lat":35.721054,"lon":139.45038},{"name":"＊?本多公民館","province":"東京都","city":"国分寺市","address":"国分寺市本多1-7-1","lat":35.705284,"lon":139.48249},{"name":"＊?並木公民館","province":"東京都","city":"国分寺市","address":"国分寺市並木町2-12-3","lat":35.715834,"lon":139.45322},{"name":"＊?恋ケ窪公民館","province":"東京都","city":"国分寺市","address":"国分寺市西恋ヶ窪4-12-8","lat":35.707761,"lon":139.464256},{"name":"＊?もとまち公民館","province":"東京都","city":"国分寺市","address":"国分寺市東元町2-3-13","lat":35.692093,"lon":139.48307},{"name":"＊?光公民館","province":"東京都","city":"国分寺市","address":"国分寺市光町3-13-19","lat":35.70781,"lon":139.443193},{"name":"東恋ヶ窪配水所","province":"東京都","city":"国分寺市","address":"東京都国分寺市東恋ヶ窪2-5-8","lat":35.7065051,"lon":139.476399},{"name":"国分寺北町給水所","province":"東京都","city":"国分寺市","address":"東京都国分寺市北町4-1-5","lat":35.721054,"lon":139.45038},{"name":"＊?本多公民館","province":"東京都","city":"国分寺市","address":"国分寺市本多1-7-1","lat":35.705284,"lon":139.48249},{"name":"＊?並木公民館","province":"東京都","city":"国分寺市","address":"国分寺市並木町2-12-3","lat":35.715834,"lon":139.45322},{"name":"＊?恋ケ窪公民館","province":"東京都","city":"国分寺市","address":"国分寺市西恋ヶ窪4-12-8","lat":35.707761,"lon":139.464256},{"name":"＊?もとまち公民館","province":"東京都","city":"国分寺市","address":"国分寺市東元町2-3-13","lat":35.692093,"lon":139.48307},{"name":"＊?光公民館","province":"東京都","city":"国分寺市","address":"国分寺市光町3-13-19","lat":35.70781,"lon":139.443193},{"name":"東恋ヶ窪配水所","province":"東京都","city":"国分寺市","address":"東京都国分寺市東恋ヶ窪2-5-8","lat":35.7065051,"lon":139.476399},{"name":"国分寺北町給水所","province":"東京都","city":"国分寺市","address":"東京都国分寺市北町4-1-5","lat":35.721054,"lon":139.45038},{"name":"＊?本多公民館","province":"東京都","city":"国分寺市","address":"国分寺市本多1-7-1","lat":35.705284,"lon":139.48249},{"name":"＊?並木公民館","province":"東京都","city":"国分寺市","address":"国分寺市並木町2-12-3","lat":35.715834,"lon":139.45322},{"name":"＊?恋ケ窪公民館","province":"東京都","city":"国分寺市","address":"国分寺市西恋ヶ窪4-12-8","lat":35.707761,"lon":139.464256},{"name":"＊?もとまち公民館","province":"東京都","city":"国分寺市","address":"国分寺市東元町2-3-13","lat":35.692093,"lon":139.48307},{"name":"＊?光公民館","province":"東京都","city":"国分寺市","address":"国分寺市光町3-13-19","lat":35.70781,"lon":139.443193},{"name":"東恋ヶ窪配水所","province":"東京都","city":"国分寺市","address":"東京都国分寺市東恋ヶ窪2-5-8","lat":35.7065051,"lon":139.476399},{"name":"国分寺北町給水所","province":"東京都","city":"国分寺市","address":"東京都国分寺市北町4-1-5","lat":35.721054,"lon":139.45038},{"name":"＊?本多公民館","province":"東京都","city":"国分寺市","address":"国分寺市本多1-7-1","lat":35.705284,"lon":139.48249},{"name":"＊?並木公民館","province":"東京都","city":"国分寺市","address":"国分寺市並木町2-12-3","lat":35.715834,"lon":139.45322},{"name":"＊?恋ケ窪公民館","province":"東京都","city":"国分寺市","address":"国分寺市西恋ヶ窪4-12-8","lat":35.707761,"lon":139.464256},{"name":"＊?もとまち公民館","province":"東京都","city":"国分寺市","address":"国分寺市東元町2-3-13","lat":35.692093,"lon":139.48307},{"name":"＊?光公民館","province":"東京都","city":"国分寺市","address":"国分寺市光町3-13-19","lat":35.70781,"lon":139.443193},{"name":"東恋ヶ窪配水所","province":"東京都","city":"国分寺市","address":"東京都国分寺市東恋ヶ窪2-5-8","lat":35.7065051,"lon":139.476399},{"name":"国分寺北町給水所","province":"東京都","city":"国分寺市","address":"東京都国分寺市北町4-1-5","lat":35.721054,"lon":139.45038},{"name":"＊?本多公民館","province":"東京都","city":"国分寺市","address":"国分寺市本多1-7-1","lat":35.705284,"lon":139.48249},{"name":"＊?並木公民館","province":"東京都","city":"国分寺市","address":"国分寺市並木町2-12-3","lat":35.715834,"lon":139.45322},{"name":"＊?恋ケ窪公民館","province":"東京都","city":"国分寺市","address":"国分寺市西恋ヶ窪4-12-8","lat":35.707761,"lon":139.464256},{"name":"＊?もとまち公民館","province":"東京都","city":"国分寺市","address":"国分寺市東元町2-3-13","lat":35.692093,"lon":139.48307},{"name":"＊?光公民館","province":"東京都","city":"国分寺市","address":"国分寺市光町3-13-19","lat":35.70781,"lon":139.443193},{"name":"東恋ヶ窪配水所","province":"東京都","city":"国分寺市","address":"東京都国分寺市東恋ヶ窪2-5-8","lat":35.7065051,"lon":139.476399},{"name":"国分寺北町給水所","province":"東京都","city":"国分寺市","address":"東京都国分寺市北町4-1-5","lat":35.721054,"lon":139.45038},{"name":"＊?本多公民館","province":"東京都","city":"国分寺市","address":"国分寺市本多1-7-1","lat":35.705284,"lon":139.48249},{"name":"＊?並木公民館","province":"東京都","city":"国分寺市","address":"国分寺市並木町2-12-3","lat":35.715834,"lon":139.45322},{"name":"＊?恋ケ窪公民館","province":"東京都","city":"国分寺市","address":"国分寺市西恋ヶ窪4-12-8","lat":35.707761,"lon":139.464256},{"name":"＊?もとまち公民館","province":"東京都","city":"国分寺市","address":"国分寺市東元町2-3-13","lat":35.692093,"lon":139.48307},{"name":"＊?光公民館","province":"東京都","city":"国分寺市","address":"国分寺市光町3-13-19","lat":35.70781,"lon":139.443193},{"name":"東恋ヶ窪配水所","province":"東京都","city":"国分寺市","address":"東京都国分寺市東恋ヶ窪2-5-8","lat":35.7065051,"lon":139.476399},{"name":"国分寺北町給水所","province":"東京都","city":"国分寺市","address":"東京都国分寺市北町4-1-5","lat":35.721054,"lon":139.45038},{"name":"＊?本多公民館","province":"東京都","city":"国分寺市","address":"国分寺市本多1-7-1","lat":35.705284,"lon":139.48249},{"name":"＊?並木公民館","province":"東京都","city":"国分寺市","address":"国分寺市並木町2-12-3","lat":35.715834,"lon":139.45322},{"name":"＊?恋ケ窪公民館","province":"東京都","city":"国分寺市","address":"国分寺市西恋ヶ窪4-12-8","lat":35.707761,"lon":139.464256},{"name":"＊?もとまち公民館","province":"東京都","city":"国分寺市","address":"国分寺市東元町2-3-13","lat":35.692093,"lon":139.48307},{"name":"＊?光公民館","province":"東京都","city":"国分寺市","address":"国分寺市光町3-13-19","lat":35.70781,"lon":139.443193},{"name":"東恋ヶ窪配水所","province":"東京都","city":"国分寺市","address":"東京都国分寺市東恋ヶ窪2-5-8","lat":35.7065051,"lon":139.476399},{"name":"国分寺北町給水所","province":"東京都","city":"国分寺市","address":"東京都国分寺市北町4-1-5","lat":35.721054,"lon":139.45038},{"name":"＊?本多公民館","province":"東京都","city":"国分寺市","address":"国分寺市本多1-7-1","lat":35.705284,"lon":139.48249},{"name":"＊?並木公民館","province":"東京都","city":"国分寺市","address":"国分寺市並木町2-12-3","lat":35.715834,"lon":139.45322},{"name":"＊?恋ケ窪公民館","province":"東京都","city":"国分寺市","address":"国分寺市西恋ヶ窪4-12-8","lat":35.707761,"lon":139.464256},{"name":"＊?もとまち公民館","province":"東京都","city":"国分寺市","address":"国分寺市東元町2-3-13","lat":35.692093,"lon":139.48307},{"name":"＊?光公民館","province":"東京都","city":"国分寺市","address":"国分寺市光町3-13-19","lat":35.70781,"lon":139.443193},{"name":"東恋ヶ窪配水所","province":"東京都","city":"国分寺市","address":"東京都国分寺市東恋ヶ窪2-5-8","lat":35.7065051,"lon":139.476399},{"name":"国分寺北町給水所","province":"東京都","city":"国分寺市","address":"東京都国分寺市北町4-1-5","lat":35.721054,"lon":139.45038},{"name":"＊?本多公民館","province":"東京都","city":"国分寺市","address":"国分寺市本多1-7-1","lat":35.705284,"lon":139.48249},{"name":"＊?並木公民館","province":"東京都","city":"国分寺市","address":"国分寺市並木町2-12-3","lat":35.715834,"lon":139.45322},{"name":"＊?恋ケ窪公民館","province":"東京都","city":"国分寺市","address":"国分寺市西恋ヶ窪4-12-8","lat":35.707761,"lon":139.464256},{"name":"＊?もとまち公民館","province":"東京都","city":"国分寺市","address":"国分寺市東元町2-3-13","lat":35.692093,"lon":139.48307},{"name":"＊?光公民館","province":"東京都","city":"国分寺市","address":"国分寺市光町3-13-19","lat":35.70781,"lon":139.443193},{"name":"東恋ヶ窪配水所","province":"東京都","city":"国分寺市","address":"東京都国分寺市東恋ヶ窪2-5-8","lat":35.7065051,"lon":139.476399},{"name":"国分寺北町給水所","province":"東京都","city":"国分寺市","address":"東京都国分寺市北町4-1-5","lat":35.721054,"lon":139.45038},{"name":"＊?本多公民館","province":"東京都","city":"国分寺市","address":"国分寺市本多1-7-1","lat":35.705284,"lon":139.48249},{"name":"＊?並木公民館","province":"東京都","city":"国分寺市","address":"国分寺市並木町2-12-3","lat":35.715834,"lon":139.45322},{"name":"＊?恋ケ窪公民館","province":"東京都","city":"国分寺市","address":"国分寺市西恋ヶ窪4-12-8","lat":35.707761,"lon":139.464256},{"name":"＊?もとまち公民館","province":"東京都","city":"国分寺市","address":"国分寺市東元町2-3-13","lat":35.692093,"lon":139.48307},{"name":"＊?光公民館","province":"東京都","city":"国分寺市","address":"国分寺市光町3-13-19","lat":35.70781,"lon":139.443193},{"name":"東恋ヶ窪配水所","province":"東京都","city":"国分寺市","address":"東京都国分寺市東恋ヶ窪2-5-8","lat":35.7065051,"lon":139.476399},{"name":"国分寺北町給水所","province":"東京都","city":"国分寺市","address":"東京都国分寺市北町4-1-5","lat":35.721054,"lon":139.45038},{"name":"＊?本多公民館","province":"東京都","city":"国分寺市","address":"国分寺市本多1-7-1","lat":35.705284,"lon":139.48249},{"name":"＊?並木公民館","province":"東京都","city":"国分寺市","address":"国分寺市並木町2-12-3","lat":35.715834,"lon":139.45322},{"name":"＊?恋ケ窪公民館","province":"東京都","city":"国分寺市","address":"国分寺市西恋ヶ窪4-12-8","lat":35.707761,"lon":139.464256},{"name":"＊?もとまち公民館","province":"東京都","city":"国分寺市","address":"国分寺市東元町2-3-13","lat":35.692093,"lon":139.48307},{"name":"＊?光公民館","province":"東京都","city":"国分寺市","address":"国分寺市光町3-13-19","lat":35.70781,"lon":139.443193},{"name":"東恋ヶ窪配水所","province":"東京都","city":"国分寺市","address":"東京都国分寺市東恋ヶ窪2-5-8","lat":35.7065051,"lon":139.476399},{"name":"国分寺北町給水所","province":"東京都","city":"国分寺市","address":"東京都国分寺市北町4-1-5","lat":35.721054,"lon":139.45038},{"name":"＊?本多公民館","province":"東京都","city":"国分寺市","address":"国分寺市本多1-7-1","lat":35.705284,"lon":139.48249},{"name":"＊?並木公民館","province":"東京都","city":"国分寺市","address":"国分寺市並木町2-12-3","lat":35.715834,"lon":139.45322},{"name":"＊?恋ケ窪公民館","province":"東京都","city":"国分寺市","address":"国分寺市西恋ヶ窪4-12-8","lat":35.707761,"lon":139.464256},{"name":"＊?もとまち公民館","province":"東京都","city":"国分寺市","address":"国分寺市東元町2-3-13","lat":35.692093,"lon":139.48307},{"name":"＊?光公民館","province":"東京都","city":"国分寺市","address":"国分寺市光町3-13-19","lat":35.70781,"lon":139.443193},{"name":"東恋ヶ窪配水所","province":"東京都","city":"国分寺市","address":"東京都国分寺市東恋ヶ窪2-5-8","lat":35.7065051,"lon":139.476399},{"name":"国分寺北町給水所","province":"東京都","city":"国分寺市","address":"東京都国分寺市北町4-1-5","lat":35.721054,"lon":139.45038},{"name":"＊?本多公民館","province":"東京都","city":"国分寺市","address":"国分寺市本多1-7-1","lat":35.705284,"lon":139.48249},{"name":"＊?並木公民館","province":"東京都","city":"国分寺市","address":"国分寺市並木町2-12-3","lat":35.715834,"lon":139.45322},{"name":"＊?恋ケ窪公民館","province":"東京都","city":"国分寺市","address":"国分寺市西恋ヶ窪4-12-8","lat":35.707761,"lon":139.464256},{"name":"＊?もとまち公民館","province":"東京都","city":"国分寺市","address":"国分寺市東元町2-3-13","lat":35.692093,"lon":139.48307},{"name":"＊?光公民館","province":"東京都","city":"国分寺市","address":"国分寺市光町3-13-19","lat":35.70781,"lon":139.443193},{"name":"東恋ヶ窪配水所","province":"東京都","city":"国分寺市","address":"東京都国分寺市東恋ヶ窪2-5-8","lat":35.7065051,"lon":139.476399},{"name":"国分寺北町給水所","province":"東京都","city":"国分寺市","address":"東京都国分寺市北町4-1-5","lat":35.721054,"lon":139.45038},{"name":"＊?本多公民館","province":"東京都","city":"国分寺市","address":"国分寺市本多1-7-1","lat":35.705284,"lon":139.48249},{"name":"＊?並木公民館","province":"東京都","city":"国分寺市","address":"国分寺市並木町2-12-3","lat":35.715834,"lon":139.45322},{"name":"＊?恋ケ窪公民館","province":"東京都","city":"国分寺市","address":"国分寺市西恋ヶ窪4-12-8","lat":35.707761,"lon":139.464256},{"name":"＊?もとまち公民館","province":"東京都","city":"国分寺市","address":"国分寺市東元町2-3-13","lat":35.692093,"lon":139.48307},{"name":"＊?光公民館","province":"東京都","city":"国分寺市","address":"国分寺市光町3-13-19","lat":35.70781,"lon":139.443193},{"name":"東恋ヶ窪配水所","province":"東京都","city":"国分寺市","address":"東京都国分寺市東恋ヶ窪2-5-8","lat":35.7065051,"lon":139.476399},{"name":"国分寺北町給水所","province":"東京都","city":"国分寺市","address":"東京都国分寺市北町4-1-5","lat":35.721054,"lon":139.45038},{"name":"＊?本多公民館","province":"東京都","city":"国分寺市","address":"国分寺市本多1-7-1","lat":35.705284,"lon":139.48249},{"name":"＊?並木公民館","province":"東京都","city":"国分寺市","address":"国分寺市並木町2-12-3","lat":35.715834,"lon":139.45322},{"name":"＊?恋ケ窪公民館","province":"東京都","city":"国分寺市","address":"国分寺市西恋ヶ窪4-12-8","lat":35.707761,"lon":139.464256},{"name":"＊?もとまち公民館","province":"東京都","city":"国分寺市","address":"国分寺市東元町2-3-13","lat":35.692093,"lon":139.48307},{"name":"＊?光公民館","province":"東京都","city":"国分寺市","address":"国分寺市光町3-13-19","lat":35.70781,"lon":139.443193},{"name":"東恋ヶ窪配水所","province":"東京都","city":"国分寺市","address":"東京都国分寺市東恋ヶ窪2-5-8","lat":35.7065051,"lon":139.476399},{"name":"国分寺北町給水所","province":"東京都","city":"国分寺市","address":"東京都国分寺市北町4-1-5","lat":35.721054,"lon":139.45038},{"name":"＊?本多公民館","province":"東京都","city":"国分寺市","address":"国分寺市本多1-7-1","lat":35.705284,"lon":139.48249},{"name":"＊?並木公民館","province":"東京都","city":"国分寺市","address":"国分寺市並木町2-12-3","lat":35.715834,"lon":139.45322},{"name":"＊?恋ケ窪公民館","province":"東京都","city":"国分寺市","address":"国分寺市西恋ヶ窪4-12-8","lat":35.707761,"lon":139.464256},{"name":"＊?もとまち公民館","province":"東京都","city":"国分寺市","address":"国分寺市東元町2-3-13","lat":35.692093,"lon":139.48307},{"name":"＊?光公民館","province":"東京都","city":"国分寺市","address":"国分寺市光町3-13-19","lat":35.70781,"lon":139.443193},{"name":"東恋ヶ窪配水所","province":"東京都","city":"国分寺市","address":"東京都国分寺市東恋ヶ窪2-5-8","lat":35.7065051,"lon":139.476399},{"name":"国分寺北町給水所","province":"東京都","city":"国分寺市","address":"東京都国分寺市北町4-1-5","lat":35.721054,"lon":139.45038},{"name":"＊?本多公民館","province":"東京都","city":"国分寺市","address":"国分寺市本多1-7-1","lat":35.705284,"lon":139.48249},{"name":"＊?並木公民館","province":"東京都","city":"国分寺市","address":"国分寺市並木町2-12-3","lat":35.715834,"lon":139.45322},{"name":"＊?恋ケ窪公民館","province":"東京都","city":"国分寺市","address":"国分寺市西恋ヶ窪4-12-8","lat":35.707761,"lon":139.464256},{"name":"＊?もとまち公民館","province":"東京都","city":"国分寺市","address":"国分寺市東元町2-3-13","lat":35.692093,"lon":139.48307},{"name":"＊?光公民館","province":"東京都","city":"国分寺市","address":"国分寺市光町3-13-19","lat":35.70781,"lon":139.443193},{"name":"東恋ヶ窪配水所","province":"東京都","city":"国分寺市","address":"東京都国分寺市東恋ヶ窪2-5-8","lat":35.7065051,"lon":139.476399},{"name":"国分寺北町給水所","province":"東京都","city":"国分寺市","address":"東京都国分寺市北町4-1-5","lat":35.721054,"lon":139.45038},{"name":"＊?本多公民館","province":"東京都","city":"国分寺市","address":"国分寺市本多1-7-1","lat":35.705284,"lon":139.48249},{"name":"＊?並木公民館","province":"東京都","city":"国分寺市","address":"国分寺市並木町2-12-3","lat":35.715834,"lon":139.45322},{"name":"＊?恋ケ窪公民館","province":"東京都","city":"国分寺市","address":"国分寺市西恋ヶ窪4-12-8","lat":35.707761,"lon":139.464256},{"name":"＊?もとまち公民館","province":"東京都","city":"国分寺市","address":"国分寺市東元町2-3-13","lat":35.692093,"lon":139.48307},{"name":"＊?光公民館","province":"東京都","city":"国分寺市","address":"国分寺市光町3-13-19","lat":35.70781,"lon":139.443193},{"name":"東恋ヶ窪配水所","province":"東京都","city":"国分寺市","address":"東京都国分寺市東恋ヶ窪2-5-8","lat":35.7065051,"lon":139.476399},{"name":"国分寺北町給水所","province":"東京都","city":"国分寺市","address":"東京都国分寺市北町4-1-5","lat":35.721054,"lon":139.45038},{"name":"＊?本多公民館","province":"東京都","city":"国分寺市","address":"国分寺市本多1-7-1","lat":35.705284,"lon":139.48249},{"name":"＊?並木公民館","province":"東京都","city":"国分寺市","address":"国分寺市並木町2-12-3","lat":35.715834,"lon":139.45322},{"name":"＊?恋ケ窪公民館","province":"東京都","city":"国分寺市","address":"国分寺市西恋ヶ窪4-12-8","lat":35.707761,"lon":139.464256},{"name":"＊?もとまち公民館","province":"東京都","city":"国分寺市","address":"国分寺市東元町2-3-13","lat":35.692093,"lon":139.48307},{"name":"＊?光公民館","province":"東京都","city":"国分寺市","address":"国分寺市光町3-13-19","lat":35.70781,"lon":139.443193},{"name":"東恋ヶ窪配水所","province":"東京都","city":"国分寺市","address":"東京都国分寺市東恋ヶ窪2-5-8","lat":35.7065051,"lon":139.476399},{"name":"国分寺北町給水所","province":"東京都","city":"国分寺市","address":"東京都国分寺市北町4-1-5","lat":35.721054,"lon":139.45038},{"name":"＊?本多公民館","province":"東京都","city":"国分寺市","address":"国分寺市本多1-7-1","lat":35.705284,"lon":139.48249},{"name":"＊?並木公民館","province":"東京都","city":"国分寺市","address":"国分寺市並木町2-12-3","lat":35.715834,"lon":139.45322},{"name":"＊?恋ケ窪公民館","province":"東京都","city":"国分寺市","address":"国分寺市西恋ヶ窪4-12-8","lat":35.707761,"lon":139.464256},{"name":"＊?もとまち公民館","province":"東京都","city":"国分寺市","address":"国分寺市東元町2-3-13","lat":35.692093,"lon":139.48307},{"name":"＊?光公民館","province":"東京都","city":"国分寺市","address":"国分寺市光町3-13-19","lat":35.70781,"lon":139.443193},{"name":"東恋ヶ窪配水所","province":"東京都","city":"国分寺市","address":"東京都国分寺市東恋ヶ窪2-5-8","lat":35.7065051,"lon":139.476399},{"name":"国分寺北町給水所","province":"東京都","city":"国分寺市","address":"東京都国分寺市北町4-1-5","lat":35.721054,"lon":139.45038},{"name":"＊?本多公民館","province":"東京都","city":"国分寺市","address":"国分寺市本多1-7-1","lat":35.705284,"lon":139.48249},{"name":"＊?並木公民館","province":"東京都","city":"国分寺市","address":"国分寺市並木町2-12-3","lat":35.715834,"lon":139.45322},{"name":"＊?恋ケ窪公民館","province":"東京都","city":"国分寺市","address":"国分寺市西恋ヶ窪4-12-8","lat":35.707761,"lon":139.464256},{"name":"＊?もとまち公民館","province":"東京都","city":"国分寺市","address":"国分寺市東元町2-3-13","lat":35.692093,"lon":139.48307},{"name":"＊?光公民館","province":"東京都","city":"国分寺市","address":"国分寺市光町3-13-19","lat":35.70781,"lon":139.443193},{"name":"東恋ヶ窪配水所","province":"東京都","city":"国分寺市","address":"東京都国分寺市東恋ヶ窪2-5-8","lat":35.7065051,"lon":139.476399},{"name":"国分寺北町給水所","province":"東京都","city":"国分寺市","address":"東京都国分寺市北町4-1-5","lat":35.721054,"lon":139.45038},{"name":"＊?本多公民館","province":"東京都","city":"国分寺市","address":"国分寺市本多1-7-1","lat":35.705284,"lon":139.48249},{"name":"＊?並木公民館","province":"東京都","city":"国分寺市","address":"国分寺市並木町2-12-3","lat":35.715834,"lon":139.45322},{"name":"＊?恋ケ窪公民館","province":"東京都","city":"国分寺市","address":"国分寺市西恋ヶ窪4-12-8","lat":35.707761,"lon":139.464256},{"name":"＊?もとまち公民館","province":"東京都","city":"国分寺市","address":"国分寺市東元町2-3-13","lat":35.692093,"lon":139.48307},{"name":"＊?光公民館","province":"東京都","city":"国分寺市","address":"国分寺市光町3-13-19","lat":35.70781,"lon":139.443193},{"name":"東恋ヶ窪配水所","province":"東京都","city":"国分寺市","address":"東京都国分寺市東恋ヶ窪2-5-8","lat":35.7065051,"lon":139.476399},{"name":"国分寺北町給水所","province":"東京都","city":"国分寺市","address":"東京都国分寺市北町4-1-5","lat":35.721054,"lon":139.45038},{"name":"＊?本多公民館","province":"東京都","city":"国分寺市","address":"国分寺市本多1-7-1","lat":35.705284,"lon":139.48249},{"name":"＊?並木公民館","province":"東京都","city":"国分寺市","address":"国分寺市並木町2-12-3","lat":35.715834,"lon":139.45322},{"name":"＊?恋ケ窪公民館","province":"東京都","city":"国分寺市","address":"国分寺市西恋ヶ窪4-12-8","lat":35.707761,"lon":139.464256},{"name":"＊?もとまち公民館","province":"東京都","city":"国分寺市","address":"国分寺市東元町2-3-13","lat":35.692093,"lon":139.48307},{"name":"＊?光公民館","province":"東京都","city":"国分寺市","address":"国分寺市光町3-13-19","lat":35.70781,"lon":139.443193},{"name":"東恋ヶ窪配水所","province":"東京都","city":"国分寺市","address":"東京都国分寺市東恋ヶ窪2-5-8","lat":35.7065051,"lon":139.476399},{"name":"国分寺北町給水所","province":"東京都","city":"国分寺市","address":"東京都国分寺市北町4-1-5","lat":35.721054,"lon":139.45038},{"name":"＊?本多公民館","province":"東京都","city":"国分寺市","address":"国分寺市本多1-7-1","lat":35.705284,"lon":139.48249},{"name":"＊?並木公民館","province":"東京都","city":"国分寺市","address":"国分寺市並木町2-12-3","lat":35.715834,"lon":139.45322},{"name":"＊?恋ケ窪公民館","province":"東京都","city":"国分寺市","address":"国分寺市西恋ヶ窪4-12-8","lat":35.707761,"lon":139.464256},{"name":"＊?もとまち公民館","province":"東京都","city":"国分寺市","address":"国分寺市東元町2-3-13","lat":35.692093,"lon":139.48307},{"name":"＊?光公民館","province":"東京都","city":"国分寺市","address":"国分寺市光町3-13-19","lat":35.70781,"lon":139.443193},{"name":"東恋ヶ窪配水所","province":"東京都","city":"国分寺市","address":"東京都国分寺市東恋ヶ窪2-5-8","lat":35.7065051,"lon":139.476399},{"name":"国分寺北町給水所","province":"東京都","city":"国分寺市","address":"東京都国分寺市北町4-1-5","lat":35.721054,"lon":139.45038},{"name":"＊?本多公民館","province":"東京都","city":"国分寺市","address":"国分寺市本多1-7-1","lat":35.705284,"lon":139.48249},{"name":"＊?並木公民館","province":"東京都","city":"国分寺市","address":"国分寺市並木町2-12-3","lat":35.715834,"lon":139.45322},{"name":"＊?恋ケ窪公民館","province":"東京都","city":"国分寺市","address":"国分寺市西恋ヶ窪4-12-8","lat":35.707761,"lon":139.464256},{"name":"＊?もとまち公民館","province":"東京都","city":"国分寺市","address":"国分寺市東元町2-3-13","lat":35.692093,"lon":139.48307},{"name":"＊?光公民館","province":"東京都","city":"国分寺市","address":"国分寺市光町3-13-19","lat":35.70781,"lon":139.443193},{"name":"東恋ヶ窪配水所","province":"東京都","city":"国分寺市","address":"東京都国分寺市東恋ヶ窪2-5-8","lat":35.7065051,"lon":139.476399},{"name":"国分寺北町給水所","province":"東京都","city":"国分寺市","address":"東京都国分寺市北町4-1-5","lat":35.721054,"lon":139.45038},{"name":"＊?本多公民館","province":"東京都","city":"国分寺市","address":"国分寺市本多1-7-1","lat":35.705284,"lon":139.48249},{"name":"＊?並木公民館","province":"東京都","city":"国分寺市","address":"国分寺市並木町2-12-3","lat":35.715834,"lon":139.45322},{"name":"＊?恋ケ窪公民館","province":"東京都","city":"国分寺市","address":"国分寺市西恋ヶ窪4-12-8","lat":35.707761,"lon":139.464256},{"name":"＊?もとまち公民館","province":"東京都","city":"国分寺市","address":"国分寺市東元町2-3-13","lat":35.692093,"lon":139.48307},{"name":"＊?光公民館","province":"東京都","city":"国分寺市","address":"国分寺市光町3-13-19","lat":35.70781,"lon":139.443193},{"name":"東恋ヶ窪配水所","province":"東京都","city":"国分寺市","address":"東京都国分寺市東恋ヶ窪2-5-8","lat":35.7065051,"lon":139.476399},{"name":"国分寺北町給水所","province":"東京都","city":"国分寺市","address":"東京都国分寺市北町4-1-5","lat":35.721054,"lon":139.45038},{"name":"＊?本多公民館","province":"東京都","city":"国分寺市","address":"国分寺市本多1-7-1","lat":35.705284,"lon":139.48249},{"name":"＊?並木公民館","province":"東京都","city":"国分寺市","address":"国分寺市並木町2-12-3","lat":35.715834,"lon":139.45322},{"name":"＊?恋ケ窪公民館","province":"東京都","city":"国分寺市","address":"国分寺市西恋ヶ窪4-12-8","lat":35.707761,"lon":139.464256},{"name":"＊?もとまち公民館","province":"東京都","city":"国分寺市","address":"国分寺市東元町2-3-13","lat":35.692093,"lon":139.48307},{"name":"＊?光公民館","province":"東京都","city":"国分寺市","address":"国分寺市光町3-13-19","lat":35.70781,"lon":139.443193},{"name":"東恋ヶ窪配水所","province":"東京都","city":"国分寺市","address":"東京都国分寺市東恋ヶ窪2-5-8","lat":35.7065051,"lon":139.476399},{"name":"国分寺北町給水所","province":"東京都","city":"国分寺市","address":"東京都国分寺市北町4-1-5","lat":35.721054,"lon":139.45038},{"name":"＊?本多公民館","province":"東京都","city":"国分寺市","address":"国分寺市本多1-7-1","lat":35.705284,"lon":139.48249},{"name":"＊?並木公民館","province":"東京都","city":"国分寺市","address":"国分寺市並木町2-12-3","lat":35.715834,"lon":139.45322},{"name":"＊?恋ケ窪公民館","province":"東京都","city":"国分寺市","address":"国分寺市西恋ヶ窪4-12-8","lat":35.707761,"lon":139.464256},{"name":"＊?もとまち公民館","province":"東京都","city":"国分寺市","address":"国分寺市東元町2-3-13","lat":35.692093,"lon":139.48307},{"name":"＊?光公民館","province":"東京都","city":"国分寺市","address":"国分寺市光町3-13-19","lat":35.70781,"lon":139.443193},{"name":"東恋ヶ窪配水所","province":"東京都","city":"国分寺市","address":"東京都国分寺市東恋ヶ窪2-5-8","lat":35.7065051,"lon":139.476399},{"name":"国分寺北町給水所","province":"東京都","city":"国分寺市","address":"東京都国分寺市北町4-1-5","lat":35.721054,"lon":139.45038},{"name":"＊?本多公民館","province":"東京都","city":"国分寺市","address":"国分寺市本多1-7-1","lat":35.705284,"lon":139.48249},{"name":"＊?並木公民館","province":"東京都","city":"国分寺市","address":"国分寺市並木町2-12-3","lat":35.715834,"lon":139.45322},{"name":"＊?恋ケ窪公民館","province":"東京都","city":"国分寺市","address":"国分寺市西恋ヶ窪4-12-8","lat":35.707761,"lon":139.464256},{"name":"＊?もとまち公民館","province":"東京都","city":"国分寺市","address":"国分寺市東元町2-3-13","lat":35.692093,"lon":139.48307},{"name":"＊?光公民館","province":"東京都","city":"国分寺市","address":"国分寺市光町3-13-19","lat":35.70781,"lon":139.443193},{"name":"東恋ヶ窪配水所","province":"東京都","city":"国分寺市","address":"東京都国分寺市東恋ヶ窪2-5-8","lat":35.7065051,"lon":139.476399},{"name":"国分寺北町給水所","province":"東京都","city":"国分寺市","address":"東京都国分寺市北町4-1-5","lat":35.721054,"lon":139.45038},{"name":"＊?本多公民館","province":"東京都","city":"国分寺市","address":"国分寺市本多1-7-1","lat":35.705284,"lon":139.48249},{"name":"＊?並木公民館","province":"東京都","city":"国分寺市","address":"国分寺市並木町2-12-3","lat":35.715834,"lon":139.45322},{"name":"＊?恋ケ窪公民館","province":"東京都","city":"国分寺市","address":"国分寺市西恋ヶ窪4-12-8","lat":35.707761,"lon":139.464256},{"name":"＊?もとまち公民館","province":"東京都","city":"国分寺市","address":"国分寺市東元町2-3-13","lat":35.692093,"lon":139.48307},{"name":"＊?光公民館","province":"東京都","city":"国分寺市","address":"国分寺市光町3-13-19","lat":35.70781,"lon":139.443193},{"name":"東恋ヶ窪配水所","province":"東京都","city":"国分寺市","address":"東京都国分寺市東恋ヶ窪2-5-8","lat":35.7065051,"lon":139.476399},{"name":"国分寺北町給水所","province":"東京都","city":"国分寺市","address":"東京都国分寺市北町4-1-5","lat":35.721054,"lon":139.45038},{"name":"＊?本多公民館","province":"東京都","city":"国分寺市","address":"国分寺市本多1-7-1","lat":35.705284,"lon":139.48249},{"name":"＊?並木公民館","province":"東京都","city":"国分寺市","address":"国分寺市並木町2-12-3","lat":35.715834,"lon":139.45322},{"name":"＊?恋ケ窪公民館","province":"東京都","city":"国分寺市","address":"国分寺市西恋ヶ窪4-12-8","lat":35.707761,"lon":139.464256},{"name":"＊?もとまち公民館","province":"東京都","city":"国分寺市","address":"国分寺市東元町2-3-13","lat":35.692093,"lon":139.48307},{"name":"＊?光公民館","province":"東京都","city":"国分寺市","address":"国分寺市光町3-13-19","lat":35.70781,"lon":139.443193},{"name":"東恋ヶ窪配水所","province":"東京都","city":"国分寺市","address":"東京都国分寺市東恋ヶ窪2-5-8","lat":35.7065051,"lon":139.476399},{"name":"国分寺北町給水所","province":"東京都","city":"国分寺市","address":"東京都国分寺市北町4-1-5","lat":35.721054,"lon":139.45038},{"name":"＊?本多公民館","province":"東京都","city":"国分寺市","address":"国分寺市本多1-7-1","lat":35.705284,"lon":139.48249},{"name":"＊?並木公民館","province":"東京都","city":"国分寺市","address":"国分寺市並木町2-12-3","lat":35.715834,"lon":139.45322},{"name":"＊?恋ケ窪公民館","province":"東京都","city":"国分寺市","address":"国分寺市西恋ヶ窪4-12-8","lat":35.707761,"lon":139.464256},{"name":"＊?もとまち公民館","province":"東京都","city":"国分寺市","address":"国分寺市東元町2-3-13","lat":35.692093,"lon":139.48307},{"name":"＊?光公民館","province":"東京都","city":"国分寺市","address":"国分寺市光町3-13-19","lat":35.70781,"lon":139.443193},{"name":"東恋ヶ窪配水所","province":"東京都","city":"国分寺市","address":"東京都国分寺市東恋ヶ窪2-5-8","lat":35.7065051,"lon":139.476399},{"name":"国分寺北町給水所","province":"東京都","city":"国分寺市","address":"東京都国分寺市北町4-1-5","lat":35.721054,"lon":139.45038},{"name":"＊?本多公民館","province":"東京都","city":"国分寺市","address":"国分寺市本多1-7-1","lat":35.705284,"lon":139.48249},{"name":"＊?並木公民館","province":"東京都","city":"国分寺市","address":"国分寺市並木町2-12-3","lat":35.715834,"lon":139.45322},{"name":"＊?恋ケ窪公民館","province":"東京都","city":"国分寺市","address":"国分寺市西恋ヶ窪4-12-8","lat":35.707761,"lon":139.464256},{"name":"＊?もとまち公民館","province":"東京都","city":"国分寺市","address":"国分寺市東元町2-3-13","lat":35.692093,"lon":139.48307},{"name":"＊?光公民館","province":"東京都","city":"国分寺市","address":"国分寺市光町3-13-19","lat":35.70781,"lon":139.443193},{"name":"東恋ヶ窪配水所","province":"東京都","city":"国分寺市","address":"東京都国分寺市東恋ヶ窪2-5-8","lat":35.7065051,"lon":139.476399},{"name":"国分寺北町給水所","province":"東京都","city":"国分寺市","address":"東京都国分寺市北町4-1-5","lat":35.721054,"lon":139.45038},{"name":"＊?本多公民館","province":"東京都","city":"国分寺市","address":"国分寺市本多1-7-1","lat":35.705284,"lon":139.48249},{"name":"＊?並木公民館","province":"東京都","city":"国分寺市","address":"国分寺市並木町2-12-3","lat":35.715834,"lon":139.45322},{"name":"＊?恋ケ窪公民館","province":"東京都","city":"国分寺市","address":"国分寺市西恋ヶ窪4-12-8","lat":35.707761,"lon":139.464256},{"name":"＊?もとまち公民館","province":"東京都","city":"国分寺市","address":"国分寺市東元町2-3-13","lat":35.692093,"lon":139.48307},{"name":"＊?光公民館","province":"東京都","city":"国分寺市","address":"国分寺市光町3-13-19","lat":35.70781,"lon":139.443193},{"name":"東恋ヶ窪配水所","province":"東京都","city":"国分寺市","address":"東京都国分寺市東恋ヶ窪2-5-8","lat":35.7065051,"lon":139.476399},{"name":"国分寺北町給水所","province":"東京都","city":"国分寺市","address":"東京都国分寺市北町4-1-5","lat":35.721054,"lon":139.45038},{"name":"＊?本多公民館","province":"東京都","city":"国分寺市","address":"国分寺市本多1-7-1","lat":35.705284,"lon":139.48249},{"name":"＊?並木公民館","province":"東京都","city":"国分寺市","address":"国分寺市並木町2-12-3","lat":35.715834,"lon":139.45322},{"name":"＊?恋ケ窪公民館","province":"東京都","city":"国分寺市","address":"国分寺市西恋ヶ窪4-12-8","lat":35.707761,"lon":139.464256},{"name":"＊?もとまち公民館","province":"東京都","city":"国分寺市","address":"国分寺市東元町2-3-13","lat":35.692093,"lon":139.48307},{"name":"＊?光公民館","province":"東京都","city":"国分寺市","address":"国分寺市光町3-13-19","lat":35.70781,"lon":139.443193},{"name":"東恋ヶ窪配水所","province":"東京都","city":"国分寺市","address":"東京都国分寺市東恋ヶ窪2-5-8","lat":35.7065051,"lon":139.476399},{"name":"国分寺北町給水所","province":"東京都","city":"国分寺市","address":"東京都国分寺市北町4-1-5","lat":35.721054,"lon":139.45038},{"name":"＊?本多公民館","province":"東京都","city":"国分寺市","address":"国分寺市本多1-7-1","lat":35.705284,"lon":139.48249},{"name":"＊?並木公民館","province":"東京都","city":"国分寺市","address":"国分寺市並木町2-12-3","lat":35.715834,"lon":139.45322},{"name":"＊?恋ケ窪公民館","province":"東京都","city":"国分寺市","address":"国分寺市西恋ヶ窪4-12-8","lat":35.707761,"lon":139.464256},{"name":"＊?もとまち公民館","province":"東京都","city":"国分寺市","address":"国分寺市東元町2-3-13","lat":35.692093,"lon":139.48307},{"name":"＊?光公民館","province":"東京都","city":"国分寺市","address":"国分寺市光町3-13-19","lat":35.70781,"lon":139.443193},{"name":"東恋ヶ窪配水所","province":"東京都","city":"国分寺市","address":"東京都国分寺市東恋ヶ窪2-5-8","lat":35.7065051,"lon":139.476399},{"name":"国分寺北町給水所","province":"東京都","city":"国分寺市","address":"東京都国分寺市北町4-1-5","lat":35.721054,"lon":139.45038},{"name":"＊?本多公民館","province":"東京都","city":"国分寺市","address":"国分寺市本多1-7-1","lat":35.705284,"lon":139.48249},{"name":"＊?並木公民館","province":"東京都","city":"国分寺市","address":"国分寺市並木町2-12-3","lat":35.715834,"lon":139.45322},{"name":"＊?恋ケ窪公民館","province":"東京都","city":"国分寺市","address":"国分寺市西恋ヶ窪4-12-8","lat":35.707761,"lon":139.464256},{"name":"＊?もとまち公民館","province":"東京都","city":"国分寺市","address":"国分寺市東元町2-3-13","lat":35.692093,"lon":139.48307},{"name":"＊?光公民館","province":"東京都","city":"国分寺市","address":"国分寺市光町3-13-19","lat":35.70781,"lon":139.443193},{"name":"東恋ヶ窪配水所","province":"東京都","city":"国分寺市","address":"東京都国分寺市東恋ヶ窪2-5-8","lat":35.7065051,"lon":139.476399},{"name":"国分寺北町給水所","province":"東京都","city":"国分寺市","address":"東京都国分寺市北町4-1-5","lat":35.721054,"lon":139.45038},{"name":"＊?本多公民館","province":"東京都","city":"国分寺市","address":"国分寺市本多1-7-1","lat":35.705284,"lon":139.48249},{"name":"＊?並木公民館","province":"東京都","city":"国分寺市","address":"国分寺市並木町2-12-3","lat":35.715834,"lon":139.45322},{"name":"＊?恋ケ窪公民館","province":"東京都","city":"国分寺市","address":"国分寺市西恋ヶ窪4-12-8","lat":35.707761,"lon":139.464256},{"name":"＊?もとまち公民館","province":"東京都","city":"国分寺市","address":"国分寺市東元町2-3-13","lat":35.692093,"lon":139.48307},{"name":"＊?光公民館","province":"東京都","city":"国分寺市","address":"国分寺市光町3-13-19","lat":35.70781,"lon":139.443193},{"name":"東恋ヶ窪配水所","province":"東京都","city":"国分寺市","address":"東京都国分寺市東恋ヶ窪2-5-8","lat":35.7065051,"lon":139.476399},{"name":"国分寺北町給水所","province":"東京都","city":"国分寺市","address":"東京都国分寺市北町4-1-5","lat":35.721054,"lon":139.45038},{"name":"＊?本多公民館","province":"東京都","city":"国分寺市","address":"国分寺市本多1-7-1","lat":35.705284,"lon":139.48249},{"name":"＊?並木公民館","province":"東京都","city":"国分寺市","address":"国分寺市並木町2-12-3","lat":35.715834,"lon":139.45322},{"name":"＊?恋ケ窪公民館","province":"東京都","city":"国分寺市","address":"国分寺市西恋ヶ窪4-12-8","lat":35.707761,"lon":139.464256},{"name":"＊?もとまち公民館","province":"東京都","city":"国分寺市","address":"国分寺市東元町2-3-13","lat":35.692093,"lon":139.48307},{"name":"＊?光公民館","province":"東京都","city":"国分寺市","address":"国分寺市光町3-13-19","lat":35.70781,"lon":139.443193}]}