{"keyword":"店","data":[{"name":"さくら国分寺ハウス","province":"東京都","city":"国分寺市","address":"国分寺市東元町3-30-7","lat":35.696806,"lon":139.476904},{"name":"国分寺病院","province":"東京都","city":"国分寺市","address":"国分寺市東恋ケ窪4-2-2","lat":35.706505,"lon":139.469438},{"name":"国分寺市社会福祉協議会","province":"東京都","city":"国分寺市","address":"国分寺市戸倉4-14国分寺市立福祉センター1階","lat":35.708513,"lon":139.455311},{"name":"さくら国分寺ハウス","province":"東京都","city":"国分寺市","address":"国分寺市東元町3-30-7","lat":35.69675,"lon":139.47731},{"name":"青雲セレモニー","province":"東京都","city":"国分寺市","address":"東京都国分寺市光町3丁目27-41","lat":35.7068234,"lon":139.44014607},{"name":"有限会社谺企画","province":"東京都","city":"国分寺市","address":"東京都国分寺市北町2丁目24-2","lat":35.71707249,"lon":139.45122526},{"name":"葬儀の心和堂","province":"東京都","city":"国分寺市","address":"東京都国分寺市富士本1丁目21-3","lat":35.7027131,"lon":139.45126188},{"name":"株式会社みよし","province":"東京都","city":"国分寺市","address":"東京都国分寺市東元町4丁目1-37","lat":35.69072905,"lon":139.48027371},{"name":"マラナ・タ　ハウス","province":"東京都","city":"国分寺市","address":"東京都国分寺市","lat":35.71034027,"lon":139.46318833},{"name":"国分寺市社会福祉協議会","province":"東京都","city":"国分寺市","address":"国分寺市戸倉4-14国分寺市立福祉センター内","lat":35.70816,"lon":139.45554},{"name":"社会福祉法人万葉の里国分寺市障害者センター","province":"東京都","city":"国分寺市","address":"東京都国分寺市泉町2丁目3-8","lat":35.69639202,"lon":139.46876059},{"name":"社会福祉法人ななえの里就労継続支援Ｂ型ともしび工房","province":"東京都","city":"国分寺市","address":"東京都国分寺市西恋ヶ窪4丁目10-2","lat":35.70629633,"lon":139.4651022},{"name":"一般社団法人一粒福祉会デイオアシスまほろば","province":"東京都","city":"国分寺市","address":"東京都国分寺市富士本2丁目18-13","lat":35.70528218,"lon":139.44851482},{"name":"マラナ・タハウス","province":"東京都","city":"国分寺市","address":"東京都国分寺市","lat":35.71034027,"lon":139.46318833},{"name":"さくら国分寺ハウス","province":"東京都","city":"国分寺市","address":"国分寺市東元町3-30-7","lat":35.69677,"lon":139.476974},{"name":"さくら国分寺ハウス","province":"東京都","city":"国分寺市","address":"国分寺市東元町3-30-7","lat":35.696806,"lon":139.476904},{"name":"国分寺病院","province":"東京都","city":"国分寺市","address":"国分寺市東恋ケ窪4-2-2","lat":35.706505,"lon":139.469438},{"name":"国分寺市社会福祉協議会","province":"東京都","city":"国分寺市","address":"国分寺市戸倉4-14国分寺市立福祉センター1階","lat":35.708513,"lon":139.455311},{"name":"さくら国分寺ハウス","province":"東京都","city":"国分寺市","address":"国分寺市東元町3-30-7","lat":35.69675,"lon":139.47731},{"name":"青雲セレモニー","province":"東京都","city":"国分寺市","address":"東京都国分寺市光町3丁目27-41","lat":35.7068234,"lon":139.44014607},{"name":"有限会社谺企画","province":"東京都","city":"国分寺市","address":"東京都国分寺市北町2丁目24-2","lat":35.71707249,"lon":139.45122526},{"name":"葬儀の心和堂","province":"東京都","city":"国分寺市","address":"東京都国分寺市富士本1丁目21-3","lat":35.7027131,"lon":139.45126188},{"name":"株式会社みよし","province":"東京都","city":"国分寺市","address":"東京都国分寺市東元町4丁目1-37","lat":35.69072905,"lon":139.48027371},{"name":"マラナ・タ　ハウス","province":"東京都","city":"国分寺市","address":"東京都国分寺市","lat":35.71034027,"lon":139.46318833},{"name":"国分寺市社会福祉協議会","province":"東京都","city":"国分寺市","address":"国分寺市戸倉4-14国分寺市立福祉センター内","lat":35.70816,"lon":139.45554},{"name":"社会福祉法人万葉の里国分寺市障害者センター","province":"東京都","city":"国分寺市","address":"東京都国分寺市泉町2丁目3-8","lat":35.69639202,"lon":139.46876059},{"name":"社会福祉法人ななえの里就労継続支援Ｂ型ともしび工房","province":"東京都","city":"国分寺市","address":"東京都国分寺市西恋ヶ窪4丁目10-2","lat":35.70629633,"lon":139.4651022},{"name":"一般社団法人一粒福祉会デイオアシスまほろば","province":"東京都","city":"国分寺市","address":"東京都国分寺市富士本2丁目18-13","lat":35.70528218,"lon":139.44851482},{"name":"マラナ・タハウス","province":"東京都","city":"国分寺市","address":"東京都国分寺市","lat":35.71034027,"lon":139.46318833},{"name":"さくら国分寺ハウス","province":"東京都","city":"国分寺市","address":"国分寺市東元町3-30-7","lat":35.69677,"lon":139.476974},{"name":"さくら国分寺ハウス","province":"東京都","city":"国分寺市","address":"国分寺市東元町3-30-7","lat":35.696806,"lon":139.476904},{"name":"国分寺病院","province":"東京都","city":"国分寺市","address":"国分寺市東恋ケ窪4-2-2","lat":35.706505,"lon":139.469438},{"name":"国分寺市社会福祉協議会","province":"東京都","city":"国分寺市","address":"国分寺市戸倉4-14国分寺市立福祉センター1階","lat":35.708513,"lon":139.455311},{"name":"さくら国分寺ハウス","province":"東京都","city":"国分寺市","address":"国分寺市東元町3-30-7","lat":35.69675,"lon":139.47731},{"name":"青雲セレモニー","province":"東京都","city":"国分寺市","address":"東京都国分寺市光町3丁目27-41","lat":35.7068234,"lon":139.44014607},{"name":"有限会社谺企画","province":"東京都","city":"国分寺市","address":"東京都国分寺市北町2丁目24-2","lat":35.71707249,"lon":139.45122526},{"name":"葬儀の心和堂","province":"東京都","city":"国分寺市","address":"東京都国分寺市富士本1丁目21-3","lat":35.7027131,"lon":139.45126188},{"name":"株式会社みよし","province":"東京都","city":"国分寺市","address":"東京都国分寺市東元町4丁目1-37","lat":35.69072905,"lon":139.48027371},{"name":"マラナ・タ　ハウス","province":"東京都","city":"国分寺市","address":"東京都国分寺市","lat":35.71034027,"lon":139.46318833},{"name":"国分寺市社会福祉協議会","province":"東京都","city":"国分寺市","address":"国分寺市戸倉4-14国分寺市立福祉センター内","lat":35.70816,"lon":139.45554},{"name":"社会福祉法人万葉の里国分寺市障害者センター","province":"東京都","city":"国分寺市","address":"東京都国分寺市泉町2丁目3-8","lat":35.69639202,"lon":139.46876059},{"name":"社会福祉法人ななえの里就労継続支援Ｂ型ともしび工房","province":"東京都","city":"国分寺市","address":"東京都国分寺市西恋ヶ窪4丁目10-2","lat":35.70629633,"lon":139.4651022},{"name":"一般社団法人一粒福祉会デイオアシスまほろば","province":"東京都","city":"国分寺市","address":"東京都国分寺市富士本2丁目18-13","lat":35.70528218,"lon":139.44851482},{"name":"マラナ・タハウス","province":"東京都","city":"国分寺市","address":"東京都国分寺市","lat":35.71034027,"lon":139.46318833},{"name":"さくら国分寺ハウス","province":"東京都","city":"国分寺市","address":"国分寺市東元町3-30-7","lat":35.69677,"lon":139.476974},{"name":"さくら国分寺ハウス","province":"東京都","city":"国分寺市","address":"国分寺市東元町3-30-7","lat":35.696806,"lon":139.476904},{"name":"国分寺病院","province":"東京都","city":"国分寺市","address":"国分寺市東恋ケ窪4-2-2","lat":35.706505,"lon":139.469438},{"name":"国分寺市社会福祉協議会","province":"東京都","city":"国分寺市","address":"国分寺市戸倉4-14国分寺市立福祉センター1階","lat":35.708513,"lon":139.455311},{"name":"さくら国分寺ハウス","province":"東京都","city":"国分寺市","address":"国分寺市東元町3-30-7","lat":35.69675,"lon":139.47731},{"name":"青雲セレモニー","province":"東京都","city":"国分寺市","address":"東京都国分寺市光町3丁目27-41","lat":35.7068234,"lon":139.44014607},{"name":"有限会社谺企画","province":"東京都","city":"国分寺市","address":"東京都国分寺市北町2丁目24-2","lat":35.71707249,"lon":139.45122526},{"name":"葬儀の心和堂","province":"東京都","city":"国分寺市","address":"東京都国分寺市富士本1丁目21-3","lat":35.7027131,"lon":139.45126188},{"name":"株式会社みよし","province":"東京都","city":"国分寺市","address":"東京都国分寺市東元町4丁目1-37","lat":35.69072905,"lon":139.48027371},{"name":"マラナ・タ　ハウス","province":"東京都","city":"国分寺市","address":"東京都国分寺市","lat":35.71034027,"lon":139.46318833},{"name":"国分寺市社会福祉協議会","province":"東京都","city":"国分寺市","address":"国分寺市戸倉4-14国分寺市立福祉センター内","lat":35.70816,"lon":139.45554},{"name":"社会福祉法人万葉の里国分寺市障害者センター","province":"東京都","city":"国分寺市","address":"東京都国分寺市泉町2丁目3-8","lat":35.69639202,"lon":139.46876059},{"name":"社会福祉法人ななえの里就労継続支援Ｂ型ともしび工房","province":"東京都","city":"国分寺市","address":"東京都国分寺市西恋ヶ窪4丁目10-2","lat":35.70629633,"lon":139.4651022},{"name":"一般社団法人一粒福祉会デイオアシスまほろば","province":"東京都","city":"国分寺市","address":"東京都国分寺市富士本2丁目18-13","lat":35.70528218,"lon":139.44851482},{"name":"マラナ・タハウス","province":"東京都","city":"国分寺市","address":"東京都国分寺市","lat":35.71034027,"lon":139.46318833},{"name":"さくら国分寺ハウス","province":"東京都","city":"国分寺市","address":"国分寺市東元町3-30-7","lat":35.69677,"lon":139.476974},{"name":"さくら国分寺ハウス","province":"東京都","city":"国分寺市","address":"国分寺市東元町3-30-7","lat":35.696806,"lon":139.476904},{"name":"国分寺病院","province":"東京都","city":"国分寺市","address":"国分寺市東恋ケ窪4-2-2","lat":35.706505,"lon":139.469438},{"name":"国分寺市社会福祉協議会","province":"東京都","city":"国分寺市","address":"国分寺市戸倉4-14国分寺市立福祉センター1階","lat":35.708513,"lon":139.455311},{"name":"さくら国分寺ハウス","province":"東京都","city":"国分寺市","address":"国分寺市東元町3-30-7","lat":35.69675,"lon":139.47731},{"name":"青雲セレモニー","province":"東京都","city":"国分寺市","address":"東京都国分寺市光町3丁目27-41","lat":35.7068234,"lon":139.44014607},{"name":"有限会社谺企画","province":"東京都","city":"国分寺市","address":"東京都国分寺市北町2丁目24-2","lat":35.71707249,"lon":139.45122526},{"name":"葬儀の心和堂","province":"東京都","city":"国分寺市","address":"東京都国分寺市富士本1丁目21-3","lat":35.7027131,"lon":139.45126188},{"name":"株式会社みよし","province":"東京都","city":"国分寺市","address":"東京都国分寺市東元町4丁目1-37","lat":35.69072905,"lon":139.48027371},{"name":"マラナ・タ　ハウス","province":"東京都","city":"国分寺市","address":"東京都国分寺市","lat":35.71034027,"lon":139.46318833},{"name":"国分寺市社会福祉協議会","province":"東京都","city":"国分寺市","address":"国分寺市戸倉4-14国分寺市立福祉センター内","lat":35.70816,"lon":139.45554},{"name":"社会福祉法人万葉の里国分寺市障害者センター","province":"東京都","city":"国分寺市","address":"東京都国分寺市泉町2丁目3-8","lat":35.69639202,"lon":139.46876059},{"name":"社会福祉法人ななえの里就労継続支援Ｂ型ともしび工房","province":"東京都","city":"国分寺市","address":"東京都国分寺市西恋ヶ窪4丁目10-2","lat":35.70629633,"lon":139.4651022},{"name":"一般社団法人一粒福祉会デイオアシスまほろば","province":"東京都","city":"国分寺市","address":"東京都国分寺市富士本2丁目18-13","lat":35.70528218,"lon":139.44851482},{"name":"マラナ・タハウス","province":"東京都","city":"国分寺市","address":"東京都国分寺市","lat":35.71034027,"lon":139.46318833},{"name":"さくら国分寺ハウス","province":"東京都","city":"国分寺市","address":"国分寺市東元町3-30-7","lat":35.69677,"lon":139.476974},{"name":"さくら国分寺ハウス","province":"東京都","city":"国分寺市","address":"国分寺市東元町3-30-7","lat":35.696806,"lon":139.476904},{"name":"国分寺病院","province":"東京都","city":"国分寺市","address":"国分寺市東恋ケ窪4-2-2","lat":35.706505,"lon":139.469438},{"name":"国分寺市社会福祉協議会","province":"東京都","city":"国分寺市","address":"国分寺市戸倉4-14国分寺市立福祉センター1階","lat":35.708513,"lon":139.455311},{"name":"さくら国分寺ハウス","province":"東京都","city":"国分寺市","address":"国分寺市東元町3-30-7","lat":35.69675,"lon":139.47731},{"name":"マラナ・タ　ハウス","province":"東京都","city":"国分寺市","address":"東京都国分寺市","lat":35.71034027,"lon":139.46318833},{"name":"国分寺市社会福祉協議会","province":"東京都","city":"国分寺市","address":"国分寺市戸倉4-14国分寺市立福祉センター内","lat":35.70816,"lon":139.45554},{"name":"社会福祉法人万葉の里国分寺市障害者センター","province":"東京都","city":"国分寺市","address":"東京都国分寺市泉町2丁目3-8","lat":35.69639202,"lon":139.46876059},{"name":"社会福祉法人ななえの里就労継続支援Ｂ型ともしび工房","province":"東京都","city":"国分寺市","address":"東京都国分寺市西恋ヶ窪4丁目10-2","lat":35.70629633,"lon":139.4651022},{"name":"一般社団法人一粒福祉会デイオアシスまほろば","province":"東京都","city":"国分寺市","address":"東京都国分寺市富士本2丁目18-13","lat":35.70528218,"lon":139.44851482},{"name":"マラナ・タハウス","province":"東京都","city":"国分寺市","address":"東京都国分寺市","lat":35.71034027,"lon":139.46318833},{"name":"さくら国分寺ハウス","province":"東京都","city":"国分寺市","address":"国分寺市東元町3-30-7","lat":35.69677,"lon":139.476974},{"name":"さくら国分寺ハウス","province":"東京都","city":"国分寺市","address":"国分寺市東元町3-30-7","lat":35.696806,"lon":139.476904},{"name":"国分寺病院","province":"東京都","city":"国分寺市","address":"国分寺市東恋ケ窪4-2-2","lat":35.706505,"lon":139.469438},{"name":"国分寺市社会福祉協議会","province":"東京都","city":"国分寺市","address":"国分寺市戸倉4-14国分寺市立福祉センター1階","lat":35.708513,"lon":139.455311},{"name":"さくら国分寺ハウス","province":"東京都","city":"国分寺市","address":"国分寺市東元町3-30-7","lat":35.69675,"lon":139.47731},{"name":"マラナ・タ　ハウス","province":"東京都","city":"国分寺市","address":"東京都国分寺市","lat":35.71034027,"lon":139.46318833},{"name":"国分寺市社会福祉協議会","province":"東京都","city":"国分寺市","address":"国分寺市戸倉4-14国分寺市立福祉センター内","lat":35.70816,"lon":139.45554},{"name":"社会福祉法人万葉の里国分寺市障害者センター","province":"東京都","city":"国分寺市","address":"東京都国分寺市泉町2丁目3-8","lat":35.69639202,"lon":139.46876059},{"name":"社会福祉法人ななえの里就労継続支援Ｂ型ともしび工房","province":"東京都","city":"国分寺市","address":"東京都国分寺市西恋ヶ窪4丁目10-2","lat":35.70629633,"lon":139.4651022},{"name":"一般社団法人一粒福祉会デイオアシスまほろば","province":"東京都","city":"国分寺市","address":"東京都国分寺市富士本2丁目18-13","lat":35.70528218,"lon":139.44851482},{"name":"マラナ・タハウス","province":"東京都","city":"国分寺市","address":"東京都国分寺市","lat":35.71034027,"lon":139.46318833},{"name":"さくら国分寺ハウス","province":"東京都","city":"国分寺市","address":"国分寺市東元町3-30-7","lat":35.69677,"lon":139.476974},{"name":"さくら国分寺ハウス","province":"東京都","city":"国分寺市","address":"国分寺市東元町3-30-7","lat":35.696806,"lon":139.476904},{"name":"国分寺病院","province":"東京都","city":"国分寺市","address":"国分寺市東恋ケ窪4-2-2","lat":35.706505,"lon":139.469438},{"name":"国分寺市社会福祉協議会","province":"東京都","city":"国分寺市","address":"国分寺市戸倉4-14国分寺市立福祉センター1階","lat":35.708513,"lon":139.455311},{"name":"さくら国分寺ハウス","province":"東京都","city":"国分寺市","address":"国分寺市東元町3-30-7","lat":35.69675,"lon":139.47731},{"name":"マラナ・タ　ハウス","province":"東京都","city":"国分寺市","address":"東京都国分寺市","lat":35.71034027,"lon":139.46318833},{"name":"国分寺市社会福祉協議会","province":"東京都","city":"国分寺市","address":"国分寺市戸倉4-14国分寺市立福祉センター内","lat":35.70816,"lon":139.45554},{"name":"社会福祉法人万葉の里国分寺市障害者センター","province":"東京都","city":"国分寺市","address":"東京都国分寺市泉町2丁目3-8","lat":35.69639202,"lon":139.46876059},{"name":"社会福祉法人ななえの里就労継続支援Ｂ型ともしび工房","province":"東京都","city":"国分寺市","address":"東京都国分寺市西恋ヶ窪4丁目10-2","lat":35.70629633,"lon":139.4651022},{"name":"一般社団法人一粒福祉会デイオアシスまほろば","province":"東京都","city":"国分寺市","address":"東京都国分寺市富士本2丁目18-13","lat":35.70528218,"lon":139.44851482},{"name":"マラナ・タハウス","province":"東京都","city":"国分寺市","address":"東京都国分寺市","lat":35.71034027,"lon":139.46318833},{"name":"さくら国分寺ハウス","province":"東京都","city":"国分寺市","address":"国分寺市東元町3-30-7","lat":35.69677,"lon":139.476974},{"name":"さくら国分寺ハウス","province":"東京都","city":"国分寺市","address":"国分寺市東元町3-30-7","lat":35.696806,"lon":139.476904},{"name":"国分寺病院","province":"東京都","city":"国分寺市","address":"国分寺市東恋ケ窪4-2-2","lat":35.706505,"lon":139.469438},{"name":"国分寺市社会福祉協議会","province":"東京都","city":"国分寺市","address":"国分寺市戸倉4-14国分寺市立福祉センター1階","lat":35.708513,"lon":139.455311},{"name":"さくら国分寺ハウス","province":"東京都","city":"国分寺市","address":"国分寺市東元町3-30-7","lat":35.69675,"lon":139.47731},{"name":"マラナ・タ　ハウス","province":"東京都","city":"国分寺市","address":"東京都国分寺市","lat":35.71034027,"lon":139.46318833},{"name":"国分寺市社会福祉協議会","province":"東京都","city":"国分寺市","address":"国分寺市戸倉4-14国分寺市立福祉センター内","lat":35.70816,"lon":139.45554},{"name":"社会福祉法人万葉の里国分寺市障害者センター","province":"東京都","city":"国分寺市","address":"東京都国分寺市泉町2丁目3-8","lat":35.69639202,"lon":139.46876059},{"name":"社会福祉法人ななえの里就労継続支援Ｂ型ともしび工房","province":"東京都","city":"国分寺市","address":"東京都国分寺市西恋ヶ窪4丁目10-2","lat":35.70629633,"lon":139.4651022},{"name":"一般社団法人一粒福祉会デイオアシスまほろば","province":"東京都","city":"国分寺市","address":"東京都国分寺市富士本2丁目18-13","lat":35.70528218,"lon":139.44851482},{"name":"マラナ・タハウス","province":"東京都","city":"国分寺市","address":"東京都国分寺市","lat":35.71034027,"lon":139.46318833},{"name":"さくら国分寺ハウス","province":"東京都","city":"国分寺市","address":"国分寺市東元町3-30-7","lat":35.69677,"lon":139.476974},{"name":"さくら国分寺ハウス","province":"東京都","city":"国分寺市","address":"国分寺市東元町3-30-7","lat":35.696806,"lon":139.476904},{"name":"国分寺病院","province":"東京都","city":"国分寺市","address":"国分寺市東恋ケ窪4-2-2","lat":35.706505,"lon":139.469438},{"name":"国分寺市社会福祉協議会","province":"東京都","city":"国分寺市","address":"国分寺市戸倉4-14国分寺市立福祉センター1階","lat":35.708513,"lon":139.455311},{"name":"さくら国分寺ハウス","province":"東京都","city":"国分寺市","address":"国分寺市東元町3-30-7","lat":35.69675,"lon":139.47731},{"name":"マラナ・タ　ハウス","province":"東京都","city":"国分寺市","address":"東京都国分寺市","lat":35.71034027,"lon":139.46318833},{"name":"国分寺市社会福祉協議会","province":"東京都","city":"国分寺市","address":"国分寺市戸倉4-14国分寺市立福祉センター内","lat":35.70816,"lon":139.45554},{"name":"社会福祉法人万葉の里国分寺市障害者センター","province":"東京都","city":"国分寺市","address":"東京都国分寺市泉町2丁目3-8","lat":35.69639202,"lon":139.46876059},{"name":"社会福祉法人ななえの里就労継続支援Ｂ型ともしび工房","province":"東京都","city":"国分寺市","address":"東京都国分寺市西恋ヶ窪4丁目10-2","lat":35.70629633,"lon":139.4651022},{"name":"一般社団法人一粒福祉会デイオアシスまほろば","province":"東京都","city":"国分寺市","address":"東京都国分寺市富士本2丁目18-13","lat":35.70528218,"lon":139.44851482},{"name":"マラナ・タハウス","province":"東京都","city":"国分寺市","address":"東京都国分寺市","lat":35.71034027,"lon":139.46318833},{"name":"さくら国分寺ハウス","province":"東京都","city":"国分寺市","address":"国分寺市東元町3-30-7","lat":35.69677,"lon":139.476974},{"name":"さくら国分寺ハウス","province":"東京都","city":"国分寺市","address":"国分寺市東元町3-30-7","lat":35.696806,"lon":139.476904},{"name":"国分寺病院","province":"東京都","city":"国分寺市","address":"国分寺市東恋ケ窪4-2-2","lat":35.706505,"lon":139.469438},{"name":"国分寺市社会福祉協議会","province":"東京都","city":"国分寺市","address":"国分寺市戸倉4-14国分寺市立福祉センター1階","lat":35.708513,"lon":139.455311},{"name":"さくら国分寺ハウス","province":"東京都","city":"国分寺市","address":"国分寺市東元町3-30-7","lat":35.69675,"lon":139.47731},{"name":"マラナ・タ　ハウス","province":"東京都","city":"国分寺市","address":"東京都国分寺市","lat":35.71034027,"lon":139.46318833},{"name":"国分寺市社会福祉協議会","province":"東京都","city":"国分寺市","address":"国分寺市戸倉4-14国分寺市立福祉センター内","lat":35.70816,"lon":139.45554},{"name":"社会福祉法人万葉の里国分寺市障害者センター","province":"東京都","city":"国分寺市","address":"東京都国分寺市泉町2丁目3-8","lat":35.69639202,"lon":139.46876059},{"name":"社会福祉法人ななえの里就労継続支援Ｂ型ともしび工房","province":"東京都","city":"国分寺市","address":"東京都国分寺市西恋ヶ窪4丁目10-2","lat":35.70629633,"lon":139.4651022},{"name":"一般社団法人一粒福祉会デイオアシスまほろば","province":"東京都","city":"国分寺市","address":"東京都国分寺市富士本2丁目18-13","lat":35.70528218,"lon":139.44851482},{"name":"マラナ・タハウス","province":"東京都","city":"国分寺市","address":"東京都国分寺市","lat":35.71034027,"lon":139.46318833},{"name":"さくら国分寺ハウス","province":"東京都","city":"国分寺市","address":"国分寺市東元町3-30-7","lat":35.69677,"lon":139.476974},{"name":"さくら国分寺ハウス","province":"東京都","city":"国分寺市","address":"国分寺市東元町3-30-7","lat":35.696806,"lon":139.476904},{"name":"国分寺病院","province":"東京都","city":"国分寺市","address":"国分寺市東恋ケ窪4-2-2","lat":35.706505,"lon":139.469438},{"name":"国分寺市社会福祉協議会","province":"東京都","city":"国分寺市","address":"国分寺市戸倉4-14国分寺市立福祉センター1階","lat":35.708513,"lon":139.455311},{"name":"さくら国分寺ハウス","province":"東京都","city":"国分寺市","address":"国分寺市東元町3-30-7","lat":35.69675,"lon":139.47731},{"name":"マラナ・タ　ハウス","province":"東京都","city":"国分寺市","address":"東京都国分寺市","lat":35.71034027,"lon":139.46318833},{"name":"国分寺市社会福祉協議会","province":"東京都","city":"国分寺市","address":"国分寺市戸倉4-14国分寺市立福祉センター内","lat":35.70816,"lon":139.45554},{"name":"社会福祉法人万葉の里国分寺市障害者センター","province":"東京都","city":"国分寺市","address":"東京都国分寺市泉町2丁目3-8","lat":35.69639202,"lon":139.46876059},{"name":"社会福祉法人ななえの里就労継続支援Ｂ型ともしび工房","province":"東京都","city":"国分寺市","address":"東京都国分寺市西恋ヶ窪4丁目10-2","lat":35.70629633,"lon":139.4651022},{"name":"一般社団法人一粒福祉会デイオアシスまほろば","province":"東京都","city":"国分寺市","address":"東京都国分寺市富士本2丁目18-13","lat":35.70528218,"lon":139.44851482},{"name":"マラナ・タハウス","province":"東京都","city":"国分寺市","address":"東京都国分寺市","lat":35.71034027,"lon":139.46318833},{"name":"さくら国分寺ハウス","province":"東京都","city":"国分寺市","address":"国分寺市東元町3-30-7","lat":35.69677,"lon":139.476974},{"name":"さくら国分寺ハウス","province":"東京都","city":"国分寺市","address":"国分寺市東元町3-30-7","lat":35.696806,"lon":139.476904},{"name":"国分寺病院","province":"東京都","city":"国分寺市","address":"国分寺市東恋ケ窪4-2-2","lat":35.706505,"lon":139.469438},{"name":"国分寺市社会福祉協議会","province":"東京都","city":"国分寺市","address":"国分寺市戸倉4-14国分寺市立福祉センター1階","lat":35.708513,"lon":139.455311},{"name":"さくら国分寺ハウス","province":"東京都","city":"国分寺市","address":"国分寺市東元町3-30-7","lat":35.69675,"lon":139.47731},{"name":"マラナ・タ　ハウス","province":"東京都","city":"国分寺市","address":"東京都国分寺市","lat":35.71034027,"lon":139.46318833},{"name":"国分寺市社会福祉協議会","province":"東京都","city":"国分寺市","address":"国分寺市戸倉4-14国分寺市立福祉センター内","lat":35.70816,"lon":139.45554},{"name":"社会福祉法人万葉の里国分寺市障害者センター","province":"東京都","city":"国分寺市","address":"東京都国分寺市泉町2丁目3-8","lat":35.69639202,"lon":139.46876059},{"name":"社会福祉法人ななえの里就労継続支援Ｂ型ともしび工房","province":"東京都","city":"国分寺市","address":"東京都国分寺市西恋ヶ窪4丁目10-2","lat":35.70629633,"lon":139.4651022},{"name":"一般社団法人一粒福祉会デイオアシスまほろば","province":"東京都","city":"国分寺市","address":"東京都国分寺市富士本2丁目18-13","lat":35.70528218,"lon":139.44851482},{"name":"マラナ・タハウス","province":"東京都","city":"国分寺市","address":"東京都国分寺市","lat":35.71034027,"lon":139.46318833},{"name":"さくら国分寺ハウス","province":"東京都","city":"国分寺市","address":"国分寺市東元町3-30-7","lat":35.69677,"lon":139.476974},{"name":"さくら国分寺ハウス","province":"東京都","city":"国分寺市","address":"国分寺市東元町3-30-7","lat":35.696806,"lon":139.476904},{"name":"国分寺病院","province":"東京都","city":"国分寺市","address":"国分寺市東恋ケ窪4-2-2","lat":35.706505,"lon":139.469438},{"name":"国分寺市社会福祉協議会","province":"東京都","city":"国分寺市","address":"国分寺市戸倉4-14国分寺市立福祉センター1階","lat":35.708513,"lon":139.455311},{"name":"さくら国分寺ハウス","province":"東京都","city":"国分寺市","address":"国分寺市東元町3-30-7","lat":35.69675,"lon":139.47731},{"name":"マラナ・タ　ハウス","province":"東京都","city":"国分寺市","address":"東京都国分寺市","lat":35.71034027,"lon":139.46318833},{"name":"国分寺市社会福祉協議会","province":"東京都","city":"国分寺市","address":"国分寺市戸倉4-14国分寺市立福祉センター内","lat":35.70816,"lon":139.45554},{"name":"社会福祉法人万葉の里国分寺市障害者センター","province":"東京都","city":"国分寺市","address":"東京都国分寺市泉町2丁目3-8","lat":35.69639202,"lon":139.46876059},{"name":"社会福祉法人ななえの里就労継続支援Ｂ型ともしび工房","province":"東京都","city":"国分寺市","address":"東京都国分寺市西恋ヶ窪4丁目10-2","lat":35.70629633,"lon":139.4651022},{"name":"一般社団法人一粒福祉会デイオアシスまほろば","province":"東京都","city":"国分寺市","address":"東京都国分寺市富士本2丁目18-13","lat":35.70528218,"lon":139.44851482},{"name":"マラナ・タハウス","province":"東京都","city":"国分寺市","address":"東京都国分寺市","lat":35.71034027,"lon":139.46318833},{"name":"さくら国分寺ハウス","province":"東京都","city":"国分寺市","address":"国分寺市東元町3-30-7","lat":35.69677,"lon":139.476974},{"name":"さくら国分寺ハウス","province":"東京都","city":"国分寺市","address":"国分寺市東元町3-30-7","lat":35.696806,"lon":139.476904},{"name":"国分寺病院","province":"東京都","city":"国分寺市","address":"国分寺市東恋ケ窪4-2-2","lat":35.706505,"lon":139.469438},{"name":"国分寺市社会福祉協議会","province":"東京都","city":"国分寺市","address":"国分寺市戸倉4-14国分寺市立福祉センター1階","lat":35.708513,"lon":139.455311},{"name":"さくら国分寺ハウス","province":"東京都","city":"国分寺市","address":"国分寺市東元町3-30-7","lat":35.69675,"lon":139.47731},{"name":"マラナ・タ　ハウス","province":"東京都","city":"国分寺市","address":"東京都国分寺市","lat":35.71034027,"lon":139.46318833},{"name":"国分寺市社会福祉協議会","province":"東京都","city":"国分寺市","address":"国分寺市戸倉4-14国分寺市立福祉センター内","lat":35.70816,"lon":139.45554},{"name":"社会福祉法人万葉の里国分寺市障害者センター","province":"東京都","city":"国分寺市","address":"東京都国分寺市泉町2丁目3-8","lat":35.69639202,"lon":139.46876059},{"name":"社会福祉法人ななえの里就労継続支援Ｂ型ともしび工房","province":"東京都","city":"国分寺市","address":"東京都国分寺市西恋ヶ窪4丁目10-2","lat":35.70629633,"lon":139.4651022},{"name":"一般社団法人一粒福祉会デイオアシスまほろば","province":"東京都","city":"国分寺市","address":"東京都国分寺市富士本2丁目18-13","lat":35.70528218,"lon":139.44851482},{"name":"マラナ・タハウス","province":"東京都","city":"国分寺市","address":"東京都国分寺市","lat":35.71034027,"lon":139.46318833},{"name":"さくら国分寺ハウス","province":"東京都","city":"国分寺市","address":"国分寺市東元町3-30-7","lat":35.69677,"lon":139.476974},{"name":"さくら国分寺ハウス","province":"東京都","city":"国分寺市","address":"国分寺市東元町3-30-7","lat":35.696806,"lon":139.476904},{"name":"国分寺病院","province":"東京都","city":"国分寺市","address":"国分寺市東恋ケ窪4-2-2","lat":35.706505,"lon":139.469438},{"name":"国分寺市社会福祉協議会","province":"東京都","city":"国分寺市","address":"国分寺市戸倉4-14国分寺市立福祉センター1階","lat":35.708513,"lon":139.455311},{"name":"さくら国分寺ハウス","province":"東京都","city":"国分寺市","address":"国分寺市東元町3-30-7","lat":35.69675,"lon":139.47731},{"name":"マラナ・タ　ハウス","province":"東京都","city":"国分寺市","address":"東京都国分寺市","lat":35.71034027,"lon":139.46318833},{"name":"国分寺市社会福祉協議会","province":"東京都","city":"国分寺市","address":"国分寺市戸倉4-14国分寺市立福祉センター内","lat":35.70816,"lon":139.45554},{"name":"社会福祉法人万葉の里国分寺市障害者センター","province":"東京都","city":"国分寺市","address":"東京都国分寺市泉町2丁目3-8","lat":35.69639202,"lon":139.46876059},{"name":"社会福祉法人ななえの里就労継続支援Ｂ型ともしび工房","province":"東京都","city":"国分寺市","address":"東京都国分寺市西恋ヶ窪4丁目10-2","lat":35.70629633,"lon":139.4651022},{"name":"一般社団法人一粒福祉会デイオアシスまほろば","province":"東京都","city":"国分寺市","address":"東京都国分寺市富士本2丁目18-13","lat":35.70528218,"lon":139.44851482},{"name":"マラナ・タハウス","province":"東京都","city":"国分寺市","address":"東京都国分寺市","lat":35.71034027,"lon":139.46318833},{"name":"さくら国分寺ハウス","province":"東京都","city":"国分寺市","address":"国分寺市東元町3-30-7","lat":35.69677,"lon":139.476974},{"name":"さくら国分寺ハウス","province":"東京都","city":"国分寺市","address":"国分寺市東元町3-30-7","lat":35.696806,"lon":139.476904},{"name":"国分寺病院","province":"東京都","city":"国分寺市","address":"国分寺市東恋ケ窪4-2-2","lat":35.706505,"lon":139.469438},{"name":"国分寺市社会福祉協議会","province":"東京都","city":"国分寺市","address":"国分寺市戸倉4-14国分寺市立福祉センター1階","lat":35.708513,"lon":139.455311},{"name":"さくら国分寺ハウス","province":"東京都","city":"国分寺市","address":"国分寺市東元町3-30-7","lat":35.69675,"lon":139.47731},{"name":"マラナ・タ　ハウス","province":"東京都","city":"国分寺市","address":"東京都国分寺市","lat":35.71034027,"lon":139.46318833},{"name":"国分寺市社会福祉協議会","province":"東京都","city":"国分寺市","address":"国分寺市戸倉4-14国分寺市立福祉センター内","lat":35.70816,"lon":139.45554},{"name":"社会福祉法人万葉の里国分寺市障害者センター","province":"東京都","city":"国分寺市","address":"東京都国分寺市泉町2丁目3-8","lat":35.69639202,"lon":139.46876059},{"name":"社会福祉法人ななえの里就労継続支援Ｂ型ともしび工房","province":"東京都","city":"国分寺市","address":"東京都国分寺市西恋ヶ窪4丁目10-2","lat":35.70629633,"lon":139.4651022},{"name":"一般社団法人一粒福祉会デイオアシスまほろば","province":"東京都","city":"国分寺市","address":"東京都国分寺市富士本2丁目18-13","lat":35.70528218,"lon":139.44851482},{"name":"マラナ・タハウス","province":"東京都","city":"国分寺市","address":"東京都国分寺市","lat":35.71034027,"lon":139.46318833},{"name":"さくら国分寺ハウス","province":"東京都","city":"国分寺市","address":"国分寺市東元町3-30-7","lat":35.69677,"lon":139.476974},{"name":"さくら国分寺ハウス","province":"東京都","city":"国分寺市","address":"国分寺市東元町3-30-7","lat":35.696806,"lon":139.476904},{"name":"国分寺病院","province":"東京都","city":"国分寺市","address":"国分寺市東恋ケ窪4-2-2","lat":35.706505,"lon":139.469438},{"name":"国分寺市社会福祉協議会","province":"東京都","city":"国分寺市","address":"国分寺市戸倉4-14国分寺市立福祉センター1階","lat":35.708513,"lon":139.455311},{"name":"さくら国分寺ハウス","province":"東京都","city":"国分寺市","address":"国分寺市東元町3-30-7","lat":35.69675,"lon":139.47731},{"name":"マラナ・タ　ハウス","province":"東京都","city":"国分寺市","address":"東京都国分寺市","lat":35.71034027,"lon":139.46318833},{"name":"国分寺市社会福祉協議会","province":"東京都","city":"国分寺市","address":"国分寺市戸倉4-14国分寺市立福祉センター内","lat":35.70816,"lon":139.45554},{"name":"社会福祉法人万葉の里国分寺市障害者センター","province":"東京都","city":"国分寺市","address":"東京都国分寺市泉町2丁目3-8","lat":35.69639202,"lon":139.46876059},{"name":"社会福祉法人ななえの里就労継続支援Ｂ型ともしび工房","province":"東京都","city":"国分寺市","address":"東京都国分寺市西恋ヶ窪4丁目10-2","lat":35.70629633,"lon":139.4651022},{"name":"一般社団法人一粒福祉会デイオアシスまほろば","province":"東京都","city":"国分寺市","address":"東京都国分寺市富士本2丁目18-13","lat":35.70528218,"lon":139.44851482},{"name":"マラナ・タハウス","province":"東京都","city":"国分寺市","address":"東京都国分寺市","lat":35.71034027,"lon":139.46318833},{"name":"さくら国分寺ハウス","province":"東京都","city":"国分寺市","address":"国分寺市東元町3-30-7","lat":35.69677,"lon":139.476974},{"name":"さくら国分寺ハウス","province":"東京都","city":"国分寺市","address":"国分寺市東元町3-30-7","lat":35.696806,"lon":139.476904},{"name":"国分寺病院","province":"東京都","city":"国分寺市","address":"国分寺市東恋ケ窪4-2-2","lat":35.706505,"lon":139.469438},{"name":"国分寺市社会福祉協議会","province":"東京都","city":"国分寺市","address":"国分寺市戸倉4-14国分寺市立福祉センター1階","lat":35.708513,"lon":139.455311},{"name":"さくら国分寺ハウス","province":"東京都","city":"国分寺市","address":"国分寺市東元町3-30-7","lat":35.69675,"lon":139.47731},{"name":"マラナ・タ　ハウス","province":"東京都","city":"国分寺市","address":"東京都国分寺市","lat":35.71034027,"lon":139.46318833},{"name":"国分寺市社会福祉協議会","province":"東京都","city":"国分寺市","address":"国分寺市戸倉4-14国分寺市立福祉センター内","lat":35.70816,"lon":139.45554},{"name":"社会福祉法人万葉の里国分寺市障害者センター","province":"東京都","city":"国分寺市","address":"東京都国分寺市泉町2丁目3-8","lat":35.69639202,"lon":139.46876059},{"name":"社会福祉法人ななえの里就労継続支援Ｂ型ともしび工房","province":"東京都","city":"国分寺市","address":"東京都国分寺市西恋ヶ窪4丁目10-2","lat":35.70629633,"lon":139.4651022},{"name":"一般社団法人一粒福祉会デイオアシスまほろば","province":"東京都","city":"国分寺市","address":"東京都国分寺市富士本2丁目18-13","lat":35.70528218,"lon":139.44851482},{"name":"マラナ・タハウス","province":"東京都","city":"国分寺市","address":"東京都国分寺市","lat":35.71034027,"lon":139.46318833},{"name":"さくら国分寺ハウス","province":"東京都","city":"国分寺市","address":"国分寺市東元町3-30-7","lat":35.69677,"lon":139.476974},{"name":"さくら国分寺ハウス","province":"東京都","city":"国分寺市","address":"国分寺市東元町3-30-7","lat":35.696806,"lon":139.476904},{"name":"国分寺病院","province":"東京都","city":"国分寺市","address":"国分寺市東恋ケ窪4-2-2","lat":35.706505,"lon":139.469438},{"name":"国分寺市社会福祉協議会","province":"東京都","city":"国分寺市","address":"国分寺市戸倉4-14国分寺市立福祉センター1階","lat":35.708513,"lon":139.455311},{"name":"さくら国分寺ハウス","province":"東京都","city":"国分寺市","address":"国分寺市東元町3-30-7","lat":35.69675,"lon":139.47731},{"name":"マラナ・タ　ハウス","province":"東京都","city":"国分寺市","address":"東京都国分寺市","lat":35.71034027,"lon":139.46318833},{"name":"国分寺市社会福祉協議会","province":"東京都","city":"国分寺市","address":"国分寺市戸倉4-14国分寺市立福祉センター内","lat":35.70816,"lon":139.45554},{"name":"社会福祉法人万葉の里国分寺市障害者センター","province":"東京都","city":"国分寺市","address":"東京都国分寺市泉町2丁目3-8","lat":35.69639202,"lon":139.46876059},{"name":"社会福祉法人ななえの里就労継続支援Ｂ型ともしび工房","province":"東京都","city":"国分寺市","address":"東京都国分寺市西恋ヶ窪4丁目10-2","lat":35.70629633,"lon":139.4651022},{"name":"一般社団法人一粒福祉会デイオアシスまほろば","province":"東京都","city":"国分寺市","address":"東京都国分寺市富士本2丁目18-13","lat":35.70528218,"lon":139.44851482},{"name":"マラナ・タハウス","province":"東京都","city":"国分寺市","address":"東京都国分寺市","lat":35.71034027,"lon":139.46318833},{"name":"さくら国分寺ハウス","province":"東京都","city":"国分寺市","address":"国分寺市東元町3-30-7","lat":35.69677,"lon":139.476974},{"name":"さくら国分寺ハウス","province":"東京都","city":"国分寺市","address":"国分寺市東元町3-30-7","lat":35.696806,"lon":139.476904},{"name":"国分寺病院","province":"東京都","city":"国分寺市","address":"国分寺市東恋ケ窪4-2-2","lat":35.706505,"lon":139.469438},{"name":"国分寺市社会福祉協議会","province":"東京都","city":"国分寺市","address":"国分寺市戸倉4-14国分寺市立福祉センター1階","lat":35.708513,"lon":139.455311},{"name":"さくら国分寺ハウス","province":"東京都","city":"国分寺市","address":"国分寺市東元町3-30-7","lat":35.69675,"lon":139.47731},{"name":"マラナ・タ　ハウス","province":"東京都","city":"国分寺市","address":"東京都国分寺市","lat":35.71034027,"lon":139.46318833},{"name":"国分寺市社会福祉協議会","province":"東京都","city":"国分寺市","address":"国分寺市戸倉4-14国分寺市立福祉センター内","lat":35.70816,"lon":139.45554},{"name":"社会福祉法人万葉の里国分寺市障害者センター","province":"東京都","city":"国分寺市","address":"東京都国分寺市泉町2丁目3-8","lat":35.69639202,"lon":139.46876059},{"name":"社会福祉法人ななえの里就労継続支援Ｂ型ともしび工房","province":"東京都","city":"国分寺市","address":"東京都国分寺市西恋ヶ窪4丁目10-2","lat":35.70629633,"lon":139.4651022},{"name":"一般社団法人一粒福祉会デイオアシスまほろば","province":"東京都","city":"国分寺市","address":"東京都国分寺市富士本2丁目18-13","lat":35.70528218,"lon":139.44851482},{"name":"マラナ・タハウス","province":"東京都","city":"国分寺市","address":"東京都国分寺市","lat":35.71034027,"lon":139.46318833},{"name":"さくら国分寺ハウス","province":"東京都","city":"国分寺市","address":"国分寺市東元町3-30-7","lat":35.69677,"lon":139.476974},{"name":"さくら国分寺ハウス","province":"東京都","city":"国分寺市","address":"国分寺市東元町3-30-7","lat":35.696806,"lon":139.476904},{"name":"国分寺病院","province":"東京都","city":"国分寺市","address":"国分寺市東恋ケ窪4-2-2","lat":35.706505,"lon":139.469438},{"name":"国分寺市社会福祉協議会","province":"東京都","city":"国分寺市","address":"国分寺市戸倉4-14国分寺市立福祉センター1階","lat":35.708513,"lon":139.455311},{"name":"さくら国分寺ハウス","province":"東京都","city":"国分寺市","address":"国分寺市東元町3-30-7","lat":35.69675,"lon":139.47731},{"name":"マラナ・タ　ハウス","province":"東京都","city":"国分寺市","address":"東京都国分寺市","lat":35.71034027,"lon":139.46318833},{"name":"国分寺市社会福祉協議会","province":"東京都","city":"国分寺市","address":"国分寺市戸倉4-14国分寺市立福祉センター内","lat":35.70816,"lon":139.45554},{"name":"社会福祉法人万葉の里国分寺市障害者センター","province":"東京都","city":"国分寺市","address":"東京都国分寺市泉町2丁目3-8","lat":35.69639202,"lon":139.46876059},{"name":"社会福祉法人ななえの里就労継続支援Ｂ型ともしび工房","province":"東京都","city":"国分寺市","address":"東京都国分寺市西恋ヶ窪4丁目10-2","lat":35.70629633,"lon":139.4651022},{"name":"一般社団法人一粒福祉会デイオアシスまほろば","province":"東京都","city":"国分寺市","address":"東京都国分寺市富士本2丁目18-13","lat":35.70528218,"lon":139.44851482},{"name":"マラナ・タハウス","province":"東京都","city":"国分寺市","address":"東京都国分寺市","lat":35.71034027,"lon":139.46318833},{"name":"さくら国分寺ハウス","province":"東京都","city":"国分寺市","address":"国分寺市東元町3-30-7","lat":35.69677,"lon":139.476974},{"name":"さくら国分寺ハウス","province":"東京都","city":"国分寺市","address":"国分寺市東元町3-30-7","lat":35.696806,"lon":139.476904},{"name":"国分寺病院","province":"東京都","city":"国分寺市","address":"国分寺市東恋ケ窪4-2-2","lat":35.706505,"lon":139.469438},{"name":"国分寺市社会福祉協議会","province":"東京都","city":"国分寺市","address":"国分寺市戸倉4-14国分寺市立福祉センター1階","lat":35.708513,"lon":139.455311},{"name":"さくら国分寺ハウス","province":"東京都","city":"国分寺市","address":"国分寺市東元町3-30-7","lat":35.69675,"lon":139.47731},{"name":"マラナ・タ　ハウス","province":"東京都","city":"国分寺市","address":"東京都国分寺市","lat":35.71034027,"lon":139.46318833},{"name":"国分寺市社会福祉協議会","province":"東京都","city":"国分寺市","address":"国分寺市戸倉4-14国分寺市立福祉センター内","lat":35.70816,"lon":139.45554},{"name":"社会福祉法人万葉の里国分寺市障害者センター","province":"東京都","city":"国分寺市","address":"東京都国分寺市泉町2丁目3-8","lat":35.69639202,"lon":139.46876059},{"name":"社会福祉法人ななえの里就労継続支援Ｂ型ともしび工房","province":"東京都","city":"国分寺市","address":"東京都国分寺市西恋ヶ窪4丁目10-2","lat":35.70629633,"lon":139.4651022},{"name":"一般社団法人一粒福祉会デイオアシスまほろば","province":"東京都","city":"国分寺市","address":"東京都国分寺市富士本2丁目18-13","lat":35.70528218,"lon":139.44851482},{"name":"マラナ・タハウス","province":"東京都","city":"国分寺市","address":"東京都国分寺市","lat":35.71034027,"lon":139.46318833},{"name":"さくら国分寺ハウス","province":"東京都","city":"国分寺市","address":"国分寺市東元町3-30-7","lat":35.69677,"lon":139.476974},{"name":"さくら国分寺ハウス","province":"東京都","city":"国分寺市","address":"国分寺市東元町3-30-7","lat":35.696806,"lon":139.476904},{"name":"国分寺病院","province":"東京都","city":"国分寺市","address":"国分寺市東恋ケ窪4-2-2","lat":35.706505,"lon":139.469438},{"name":"国分寺市社会福祉協議会","province":"東京都","city":"国分寺市","address":"国分寺市戸倉4-14国分寺市立福祉センター1階","lat":35.708513,"lon":139.455311},{"name":"さくら国分寺ハウス","province":"東京都","city":"国分寺市","address":"国分寺市東元町3-30-7","lat":35.69675,"lon":139.47731},{"name":"マラナ・タ　ハウス","province":"東京都","city":"国分寺市","address":"東京都国分寺市","lat":35.71034027,"lon":139.46318833},{"name":"国分寺市社会福祉協議会","province":"東京都","city":"国分寺市","address":"国分寺市戸倉4-14国分寺市立福祉センター内","lat":35.70816,"lon":139.45554},{"name":"社会福祉法人万葉の里国分寺市障害者センター","province":"東京都","city":"国分寺市","address":"東京都国分寺市泉町2丁目3-8","lat":35.69639202,"lon":139.46876059},{"name":"社会福祉法人ななえの里就労継続支援Ｂ型ともしび工房","province":"東京都","city":"国分寺市","address":"東京都国分寺市西恋ヶ窪4丁目10-2","lat":35.70629633,"lon":139.4651022},{"name":"一般社団法人一粒福祉会デイオアシスまほろば","province":"東京都","city":"国分寺市","address":"東京都国分寺市富士本2丁目18-13","lat":35.70528218,"lon":139.44851482},{"name":"マラナ・タハウス","province":"東京都","city":"国分寺市","address":"東京都国分寺市","lat":35.71034027,"lon":139.46318833},{"name":"さくら国分寺ハウス","province":"東京都","city":"国分寺市","address":"国分寺市東元町3-30-7","lat":35.69677,"lon":139.476974},{"name":"さくら国分寺ハウス","province":"東京都","city":"国分寺市","address":"国分寺市東元町3-30-7","lat":35.696806,"lon":139.476904},{"name":"国分寺病院","province":"東京都","city":"国分寺市","address":"国分寺市東恋ケ窪4-2-2","lat":35.706505,"lon":139.469438},{"name":"国分寺市社会福祉協議会","province":"東京都","city":"国分寺市","address":"国分寺市戸倉4-14国分寺市立福祉センター1階","lat":35.708513,"lon":139.455311},{"name":"さくら国分寺ハウス","province":"東京都","city":"国分寺市","address":"国分寺市東元町3-30-7","lat":35.69675,"lon":139.47731},{"name":"マラナ・タ　ハウス","province":"東京都","city":"国分寺市","address":"東京都国分寺市","lat":35.71034027,"lon":139.46318833},{"name":"国分寺市社会福祉協議会","province":"東京都","city":"国分寺市","address":"国分寺市戸倉4-14国分寺市立福祉センター内","lat":35.70816,"lon":139.45554},{"name":"社会福祉法人万葉の里国分寺市障害者センター","province":"東京都","city":"国分寺市","address":"東京都国分寺市泉町2丁目3-8","lat":35.69639202,"lon":139.46876059},{"name":"社会福祉法人ななえの里就労継続支援Ｂ型ともしび工房","province":"東京都","city":"国分寺市","address":"東京都国分寺市西恋ヶ窪4丁目10-2","lat":35.70629633,"lon":139.4651022},{"name":"一般社団法人一粒福祉会デイオアシスまほろば","province":"東京都","city":"国分寺市","address":"東京都国分寺市富士本2丁目18-13","lat":35.70528218,"lon":139.44851482},{"name":"マラナ・タハウス","province":"東京都","city":"国分寺市","address":"東京都国分寺市","lat":35.71034027,"lon":139.46318833},{"name":"さくら国分寺ハウス","province":"東京都","city":"国分寺市","address":"国分寺市東元町3-30-7","lat":35.69677,"lon":139.476974},{"name":"さくら国分寺ハウス","province":"東京都","city":"国分寺市","address":"国分寺市東元町3-30-7","lat":35.696806,"lon":139.476904},{"name":"国分寺病院","province":"東京都","city":"国分寺市","address":"国分寺市東恋ケ窪4-2-2","lat":35.706505,"lon":139.469438},{"name":"国分寺市社会福祉協議会","province":"東京都","city":"国分寺市","address":"国分寺市戸倉4-14国分寺市立福祉センター1階","lat":35.708513,"lon":139.455311},{"name":"さくら国分寺ハウス","province":"東京都","city":"国分寺市","address":"国分寺市東元町3-30-7","lat":35.69675,"lon":139.47731},{"name":"マラナ・タ　ハウス","province":"東京都","city":"国分寺市","address":"東京都国分寺市","lat":35.71034027,"lon":139.46318833},{"name":"国分寺市社会福祉協議会","province":"東京都","city":"国分寺市","address":"国分寺市戸倉4-14国分寺市立福祉センター内","lat":35.70816,"lon":139.45554},{"name":"社会福祉法人万葉の里国分寺市障害者センター","province":"東京都","city":"国分寺市","address":"東京都国分寺市泉町2丁目3-8","lat":35.69639202,"lon":139.46876059},{"name":"社会福祉法人ななえの里就労継続支援Ｂ型ともしび工房","province":"東京都","city":"国分寺市","address":"東京都国分寺市西恋ヶ窪4丁目10-2","lat":35.70629633,"lon":139.4651022},{"name":"一般社団法人一粒福祉会デイオアシスまほろば","province":"東京都","city":"国分寺市","address":"東京都国分寺市富士本2丁目18-13","lat":35.70528218,"lon":139.44851482},{"name":"マラナ・タハウス","province":"東京都","city":"国分寺市","address":"東京都国分寺市","lat":35.71034027,"lon":139.46318833},{"name":"さくら国分寺ハウス","province":"東京都","city":"国分寺市","address":"国分寺市東元町3-30-7","lat":35.69677,"lon":139.476974},{"name":"さくら国分寺ハウス","province":"東京都","city":"国分寺市","address":"国分寺市東元町3-30-7","lat":35.696806,"lon":139.476904},{"name":"国分寺病院","province":"東京都","city":"国分寺市","address":"国分寺市東恋ケ窪4-2-2","lat":35.706505,"lon":139.469438},{"name":"国分寺市社会福祉協議会","province":"東京都","city":"国分寺市","address":"国分寺市戸倉4-14国分寺市立福祉センター1階","lat":35.708513,"lon":139.455311},{"name":"さくら国分寺ハウス","province":"東京都","city":"国分寺市","address":"国分寺市東元町3-30-7","lat":35.69675,"lon":139.47731},{"name":"マラナ・タ　ハウス","province":"東京都","city":"国分寺市","address":"東京都国分寺市","lat":35.71034027,"lon":139.46318833},{"name":"国分寺市社会福祉協議会","province":"東京都","city":"国分寺市","address":"国分寺市戸倉4-14国分寺市立福祉センター内","lat":35.70816,"lon":139.45554},{"name":"社会福祉法人万葉の里国分寺市障害者センター","province":"東京都","city":"国分寺市","address":"東京都国分寺市泉町2丁目3-8","lat":35.69639202,"lon":139.46876059},{"name":"社会福祉法人ななえの里就労継続支援Ｂ型ともしび工房","province":"東京都","city":"国分寺市","address":"東京都国分寺市西恋ヶ窪4丁目10-2","lat":35.70629633,"lon":139.4651022},{"name":"一般社団法人一粒福祉会デイオアシスまほろば","province":"東京都","city":"国分寺市","address":"東京都国分寺市富士本2丁目18-13","lat":35.70528218,"lon":139.44851482},{"name":"マラナ・タハウス","province":"東京都","city":"国分寺市","address":"東京都国分寺市","lat":35.71034027,"lon":139.46318833},{"name":"さくら国分寺ハウス","province":"東京都","city":"国分寺市","address":"国分寺市東元町3-30-7","lat":35.69677,"lon":139.476974},{"name":"さくら国分寺ハウス","province":"東京都","city":"国分寺市","address":"国分寺市東元町3-30-7","lat":35.696806,"lon":139.476904},{"name":"国分寺病院","province":"東京都","city":"国分寺市","address":"国分寺市東恋ケ窪4-2-2","lat":35.706505,"lon":139.469438},{"name":"国分寺市社会福祉協議会","province":"東京都","city":"国分寺市","address":"国分寺市戸倉4-14国分寺市立福祉センター1階","lat":35.708513,"lon":139.455311},{"name":"さくら国分寺ハウス","province":"東京都","city":"国分寺市","address":"国分寺市東元町3-30-7","lat":35.69675,"lon":139.47731},{"name":"マラナ・タ　ハウス","province":"東京都","city":"国分寺市","address":"東京都国分寺市","lat":35.71034027,"lon":139.46318833},{"name":"国分寺市社会福祉協議会","province":"東京都","city":"国分寺市","address":"国分寺市戸倉4-14国分寺市立福祉センター内","lat":35.70816,"lon":139.45554},{"name":"社会福祉法人万葉の里国分寺市障害者センター","province":"東京都","city":"国分寺市","address":"東京都国分寺市泉町2丁目3-8","lat":35.69639202,"lon":139.46876059},{"name":"社会福祉法人ななえの里就労継続支援Ｂ型ともしび工房","province":"東京都","city":"国分寺市","address":"東京都国分寺市西恋ヶ窪4丁目10-2","lat":35.70629633,"lon":139.4651022},{"name":"一般社団法人一粒福祉会デイオアシスまほろば","province":"東京都","city":"国分寺市","address":"東京都国分寺市富士本2丁目18-13","lat":35.70528218,"lon":139.44851482},{"name":"マラナ・タハウス","province":"東京都","city":"国分寺市","address":"東京都国分寺市","lat":35.71034027,"lon":139.46318833},{"name":"さくら国分寺ハウス","province":"東京都","city":"国分寺市","address":"国分寺市東元町3-30-7","lat":35.69677,"lon":139.476974},{"name":"さくら国分寺ハウス","province":"東京都","city":"国分寺市","address":"国分寺市東元町3-30-7","lat":35.696806,"lon":139.476904},{"name":"国分寺病院","province":"東京都","city":"国分寺市","address":"国分寺市東恋ケ窪4-2-2","lat":35.706505,"lon":139.469438},{"name":"国分寺市社会福祉協議会","province":"東京都","city":"国分寺市","address":"国分寺市戸倉4-14国分寺市立福祉センター1階","lat":35.708513,"lon":139.455311},{"name":"さくら国分寺ハウス","province":"東京都","city":"国分寺市","address":"国分寺市東元町3-30-7","lat":35.69675,"lon":139.47731},{"name":"マラナ・タ　ハウス","province":"東京都","city":"国分寺市","address":"東京都国分寺市","lat":35.71034027,"lon":139.46318833},{"name":"国分寺市社会福祉協議会","province":"東京都","city":"国分寺市","address":"国分寺市戸倉4-14国分寺市立福祉センター内","lat":35.70816,"lon":139.45554},{"name":"マラナ・タハウス","province":"東京都","city":"国分寺市","address":"東京都国分寺市","lat":35.71034027,"lon":139.46318833},{"name":"さくら国分寺ハウス","province":"東京都","city":"国分寺市","address":"国分寺市東元町3-30-7","lat":35.69677,"lon":139.476974},{"name":"さくら国分寺ハウス","province":"東京都","city":"国分寺市","address":"国分寺市東元町3-30-7","lat":35.696806,"lon":139.476904},{"name":"国分寺病院","province":"東京都","city":"国分寺市","address":"国分寺市東恋ケ窪4-2-2","lat":35.706505,"lon":139.469438},{"name":"国分寺市社会福祉協議会","province":"東京都","city":"国分寺市","address":"国分寺市戸倉4-14国分寺市立福祉センター1階","lat":35.708513,"lon":139.455311},{"name":"さくら国分寺ハウス","province":"東京都","city":"国分寺市","address":"国分寺市東元町3-30-7","lat":35.69675,"lon":139.47731},{"name":"マラナ・タ　ハウス","province":"東京都","city":"国分寺市","address":"東京都国分寺市","lat":35.71034027,"lon":139.46318833},{"name":"国分寺市社会福祉協議会","province":"東京都","city":"国分寺市","address":"国分寺市戸倉4-14国分寺市立福祉センター内","lat":35.70816,"lon":139.45554},{"name":"マラナ・タハウス","province":"東京都","city":"国分寺市","address":"東京都国分寺市","lat":35.71034027,"lon":139.46318833},{"name":"さくら国分寺ハウス","province":"東京都","city":"国分寺市","address":"国分寺市東元町3-30-7","lat":35.69677,"lon":139.476974},{"name":"さくら国分寺ハウス","province":"東京都","city":"国分寺市","address":"国分寺市東元町3-30-7","lat":35.696806,"lon":139.476904},{"name":"国分寺病院","province":"東京都","city":"国分寺市","address":"国分寺市東恋ケ窪4-2-2","lat":35.706505,"lon":139.469438},{"name":"国分寺市社会福祉協議会","province":"東京都","city":"国分寺市","address":"国分寺市戸倉4-14国分寺市立福祉センター1階","lat":35.708513,"lon":139.455311},{"name":"さくら国分寺ハウス","province":"東京都","city":"国分寺市","address":"国分寺市東元町3-30-7","lat":35.69675,"lon":139.47731},{"name":"マラナ・タ　ハウス","province":"東京都","city":"国分寺市","address":"東京都国分寺市","lat":35.71034027,"lon":139.46318833},{"name":"国分寺市社会福祉協議会","province":"東京都","city":"国分寺市","address":"国分寺市戸倉4-14国分寺市立福祉センター内","lat":35.70816,"lon":139.45554},{"name":"マラナ・タハウス","province":"東京都","city":"国分寺市","address":"東京都国分寺市","lat":35.71034027,"lon":139.46318833},{"name":"さくら国分寺ハウス","province":"東京都","city":"国分寺市","address":"国分寺市東元町3-30-7","lat":35.69677,"lon":139.476974},{"name":"さくら国分寺ハウス","province":"東京都","city":"国分寺市","address":"国分寺市東元町3-30-7","lat":35.696806,"lon":139.476904},{"name":"国分寺病院","province":"東京都","city":"国分寺市","address":"国分寺市東恋ケ窪4-2-2","lat":35.706505,"lon":139.469438},{"name":"国分寺市社会福祉協議会","province":"東京都","city":"国分寺市","address":"国分寺市戸倉4-14国分寺市立福祉センター1階","lat":35.708513,"lon":139.455311},{"name":"さくら国分寺ハウス","province":"東京都","city":"国分寺市","address":"国分寺市東元町3-30-7","lat":35.69675,"lon":139.47731},{"name":"マラナ・タ　ハウス","province":"東京都","city":"国分寺市","address":"東京都国分寺市","lat":35.71034027,"lon":139.46318833},{"name":"国分寺市社会福祉協議会","province":"東京都","city":"国分寺市","address":"国分寺市戸倉4-14国分寺市立福祉センター内","lat":35.70816,"lon":139.45554},{"name":"マラナ・タハウス","province":"東京都","city":"国分寺市","address":"東京都国分寺市","lat":35.71034027,"lon":139.46318833},{"name":"さくら国分寺ハウス","province":"東京都","city":"国分寺市","address":"国分寺市東元町3-30-7","lat":35.69677,"lon":139.476974},{"name":"さくら国分寺ハウス","province":"東京都","city":"国分寺市","address":"国分寺市東元町3-30-7","lat":35.696806,"lon":139.476904},{"name":"国分寺病院","province":"東京都","city":"国分寺市","address":"国分寺市東恋ケ窪4-2-2","lat":35.706505,"lon":139.469438},{"name":"国分寺市社会福祉協議会","province":"東京都","city":"国分寺市","address":"国分寺市戸倉4-14国分寺市立福祉センター1階","lat":35.708513,"lon":139.455311},{"name":"さくら国分寺ハウス","province":"東京都","city":"国分寺市","address":"国分寺市東元町3-30-7","lat":35.69675,"lon":139.47731},{"name":"マラナ・タ　ハウス","province":"東京都","city":"国分寺市","address":"東京都国分寺市","lat":35.71034027,"lon":139.46318833},{"name":"国分寺市社会福祉協議会","province":"東京都","city":"国分寺市","address":"国分寺市戸倉4-14国分寺市立福祉センター内","lat":35.70816,"lon":139.45554},{"name":"マラナ・タハウス","province":"東京都","city":"国分寺市","address":"東京都国分寺市","lat":35.71034027,"lon":139.46318833},{"name":"さくら国分寺ハウス","province":"東京都","city":"国分寺市","address":"国分寺市東元町3-30-7","lat":35.69677,"lon":139.476974},{"name":"さくら国分寺ハウス","province":"東京都","city":"国分寺市","address":"国分寺市東元町3-30-7","lat":35.696806,"lon":139.476904},{"name":"国分寺病院","province":"東京都","city":"国分寺市","address":"国分寺市東恋ケ窪4-2-2","lat":35.706505,"lon":139.469438},{"name":"国分寺市社会福祉協議会","province":"東京都","city":"国分寺市","address":"国分寺市戸倉4-14国分寺市立福祉センター1階","lat":35.708513,"lon":139.455311},{"name":"さくら国分寺ハウス","province":"東京都","city":"国分寺市","address":"国分寺市東元町3-30-7","lat":35.69675,"lon":139.47731},{"name":"マラナ・タ　ハウス","province":"東京都","city":"国分寺市","address":"東京都国分寺市","lat":35.71034027,"lon":139.46318833},{"name":"国分寺市社会福祉協議会","province":"東京都","city":"国分寺市","address":"国分寺市戸倉4-14国分寺市立福祉センター内","lat":35.70816,"lon":139.45554},{"name":"マラナ・タハウス","province":"東京都","city":"国分寺市","address":"東京都国分寺市","lat":35.71034027,"lon":139.46318833},{"name":"さくら国分寺ハウス","province":"東京都","city":"国分寺市","address":"国分寺市東元町3-30-7","lat":35.69677,"lon":139.476974},{"name":"さくら国分寺ハウス","province":"東京都","city":"国分寺市","address":"国分寺市東元町3-30-7","lat":35.696806,"lon":139.476904},{"name":"国分寺病院","province":"東京都","city":"国分寺市","address":"国分寺市東恋ケ窪4-2-2","lat":35.706505,"lon":139.469438},{"name":"国分寺市社会福祉協議会","province":"東京都","city":"国分寺市","address":"国分寺市戸倉4-14国分寺市立福祉センター1階","lat":35.708513,"lon":139.455311},{"name":"さくら国分寺ハウス","province":"東京都","city":"国分寺市","address":"国分寺市東元町3-30-7","lat":35.69675,"lon":139.47731},{"name":"マラナ・タ　ハウス","province":"東京都","city":"国分寺市","address":"東京都国分寺市","lat":35.71034027,"lon":139.46318833},{"name":"国分寺市社会福祉協議会","province":"東京都","city":"国分寺市","address":"国分寺市戸倉4-14国分寺市立福祉センター内","lat":35.70816,"lon":139.45554},{"name":"マラナ・タハウス","province":"東京都","city":"国分寺市","address":"東京都国分寺市","lat":35.71034027,"lon":139.46318833},{"name":"さくら国分寺ハウス","province":"東京都","city":"国分寺市","address":"国分寺市東元町3-30-7","lat":35.69677,"lon":139.476974},{"name":"さくら国分寺ハウス","province":"東京都","city":"国分寺市","address":"国分寺市東元町3-30-7","lat":35.696806,"lon":139.476904},{"name":"国分寺病院","province":"東京都","city":"国分寺市","address":"国分寺市東恋ケ窪4-2-2","lat":35.706505,"lon":139.469438},{"name":"国分寺市社会福祉協議会","province":"東京都","city":"国分寺市","address":"国分寺市戸倉4-14国分寺市立福祉センター1階","lat":35.708513,"lon":139.455311},{"name":"さくら国分寺ハウス","province":"東京都","city":"国分寺市","address":"国分寺市東元町3-30-7","lat":35.69675,"lon":139.47731},{"name":"マラナ・タ　ハウス","province":"東京都","city":"国分寺市","address":"東京都国分寺市","lat":35.71034027,"lon":139.46318833},{"name":"国分寺市社会福祉協議会","province":"東京都","city":"国分寺市","address":"国分寺市戸倉4-14国分寺市立福祉センター内","lat":35.70816,"lon":139.45554},{"name":"マラナ・タハウス","province":"東京都","city":"国分寺市","address":"東京都国分寺市","lat":35.71034027,"lon":139.46318833},{"name":"さくら国分寺ハウス","province":"東京都","city":"国分寺市","address":"国分寺市東元町3-30-7","lat":35.69677,"lon":139.476974},{"name":"さくら国分寺ハウス","province":"東京都","city":"国分寺市","address":"国分寺市東元町3-30-7","lat":35.696806,"lon":139.476904},{"name":"国分寺病院","province":"東京都","city":"国分寺市","address":"国分寺市東恋ケ窪4-2-2","lat":35.706505,"lon":139.469438},{"name":"国分寺市社会福祉協議会","province":"東京都","city":"国分寺市","address":"国分寺市戸倉4-14国分寺市立福祉センター1階","lat":35.708513,"lon":139.455311},{"name":"さくら国分寺ハウス","province":"東京都","city":"国分寺市","address":"国分寺市東元町3-30-7","lat":35.69675,"lon":139.47731},{"name":"マラナ・タ　ハウス","province":"東京都","city":"国分寺市","address":"東京都国分寺市","lat":35.71034027,"lon":139.46318833},{"name":"国分寺市社会福祉協議会","province":"東京都","city":"国分寺市","address":"国分寺市戸倉4-14国分寺市立福祉センター内","lat":35.70816,"lon":139.45554},{"name":"マラナ・タハウス","province":"東京都","city":"国分寺市","address":"東京都国分寺市","lat":35.71034027,"lon":139.46318833},{"name":"さくら国分寺ハウス","province":"東京都","city":"国分寺市","address":"国分寺市東元町3-30-7","lat":35.69677,"lon":139.476974},{"name":"さくら国分寺ハウス","province":"東京都","city":"国分寺市","address":"国分寺市東元町3-30-7","lat":35.696806,"lon":139.476904},{"name":"国分寺病院","province":"東京都","city":"国分寺市","address":"国分寺市東恋ケ窪4-2-2","lat":35.706505,"lon":139.469438},{"name":"国分寺市社会福祉協議会","province":"東京都","city":"国分寺市","address":"国分寺市戸倉4-14国分寺市立福祉センター1階","lat":35.708513,"lon":139.455311},{"name":"さくら国分寺ハウス","province":"東京都","city":"国分寺市","address":"国分寺市東元町3-30-7","lat":35.69675,"lon":139.47731},{"name":"マラナ・タ　ハウス","province":"東京都","city":"国分寺市","address":"東京都国分寺市","lat":35.71034027,"lon":139.46318833},{"name":"国分寺市社会福祉協議会","province":"東京都","city":"国分寺市","address":"国分寺市戸倉4-14国分寺市立福祉センター内","lat":35.70816,"lon":139.45554},{"name":"マラナ・タハウス","province":"東京都","city":"国分寺市","address":"東京都国分寺市","lat":35.71034027,"lon":139.46318833},{"name":"さくら国分寺ハウス","province":"東京都","city":"国分寺市","address":"国分寺市東元町3-30-7","lat":35.69677,"lon":139.476974},{"name":"さくら国分寺ハウス","province":"東京都","city":"国分寺市","address":"国分寺市東元町3-30-7","lat":35.696806,"lon":139.476904},{"name":"国分寺病院","province":"東京都","city":"国分寺市","address":"国分寺市東恋ケ窪4-2-2","lat":35.706505,"lon":139.469438},{"name":"国分寺市社会福祉協議会","province":"東京都","city":"国分寺市","address":"国分寺市戸倉4-14国分寺市立福祉センター1階","lat":35.708513,"lon":139.455311},{"name":"さくら国分寺ハウス","province":"東京都","city":"国分寺市","address":"国分寺市東元町3-30-7","lat":35.69675,"lon":139.47731},{"name":"マラナ・タ　ハウス","province":"東京都","city":"国分寺市","address":"東京都国分寺市","lat":35.71034027,"lon":139.46318833},{"name":"国分寺市社会福祉協議会","province":"東京都","city":"国分寺市","address":"国分寺市戸倉4-14国分寺市立福祉センター内","lat":35.70816,"lon":139.45554},{"name":"マラナ・タハウス","province":"東京都","city":"国分寺市","address":"東京都国分寺市","lat":35.71034027,"lon":139.46318833},{"name":"さくら国分寺ハウス","province":"東京都","city":"国分寺市","address":"国分寺市東元町3-30-7","lat":35.69677,"lon":139.476974},{"name":"さくら国分寺ハウス","province":"東京都","city":"国分寺市","address":"国分寺市東元町3-30-7","lat":35.696806,"lon":139.476904},{"name":"国分寺病院","province":"東京都","city":"国分寺市","address":"国分寺市東恋ケ窪4-2-2","lat":35.706505,"lon":139.469438},{"name":"国分寺市社会福祉協議会","province":"東京都","city":"国分寺市","address":"国分寺市戸倉4-14国分寺市立福祉センター1階","lat":35.708513,"lon":139.455311},{"name":"さくら国分寺ハウス","province":"東京都","city":"国分寺市","address":"国分寺市東元町3-30-7","lat":35.69675,"lon":139.47731},{"name":"マラナ・タ　ハウス","province":"東京都","city":"国分寺市","address":"東京都国分寺市","lat":35.71034027,"lon":139.46318833},{"name":"国分寺市社会福祉協議会","province":"東京都","city":"国分寺市","address":"国分寺市戸倉4-14国分寺市立福祉センター内","lat":35.70816,"lon":139.45554},{"name":"マラナ・タハウス","province":"東京都","city":"国分寺市","address":"東京都国分寺市","lat":35.71034027,"lon":139.46318833},{"name":"さくら国分寺ハウス","province":"東京都","city":"国分寺市","address":"国分寺市東元町3-30-7","lat":35.69677,"lon":139.476974},{"name":"さくら国分寺ハウス","province":"東京都","city":"国分寺市","address":"国分寺市東元町3-30-7","lat":35.696806,"lon":139.476904},{"name":"国分寺病院","province":"東京都","city":"国分寺市","address":"国分寺市東恋ケ窪4-2-2","lat":35.706505,"lon":139.469438},{"name":"国分寺市社会福祉協議会","province":"東京都","city":"国分寺市","address":"国分寺市戸倉4-14国分寺市立福祉センター1階","lat":35.708513,"lon":139.455311},{"name":"さくら国分寺ハウス","province":"東京都","city":"国分寺市","address":"国分寺市東元町3-30-7","lat":35.69675,"lon":139.47731},{"name":"マラナ・タ　ハウス","province":"東京都","city":"国分寺市","address":"東京都国分寺市","lat":35.71034027,"lon":139.46318833},{"name":"国分寺市社会福祉協議会","province":"東京都","city":"国分寺市","address":"国分寺市戸倉4-14国分寺市立福祉センター内","lat":35.70816,"lon":139.45554},{"name":"マラナ・タハウス","province":"東京都","city":"国分寺市","address":"東京都国分寺市","lat":35.71034027,"lon":139.46318833},{"name":"さくら国分寺ハウス","province":"東京都","city":"国分寺市","address":"国分寺市東元町3-30-7","lat":35.69677,"lon":139.476974},{"name":"さくら国分寺ハウス","province":"東京都","city":"国分寺市","address":"国分寺市東元町3-30-7","lat":35.696806,"lon":139.476904},{"name":"国分寺病院","province":"東京都","city":"国分寺市","address":"国分寺市東恋ケ窪4-2-2","lat":35.706505,"lon":139.469438},{"name":"国分寺市社会福祉協議会","province":"東京都","city":"国分寺市","address":"国分寺市戸倉4-14国分寺市立福祉センター1階","lat":35.708513,"lon":139.455311},{"name":"さくら国分寺ハウス","province":"東京都","city":"国分寺市","address":"国分寺市東元町3-30-7","lat":35.69675,"lon":139.47731},{"name":"マラナ・タ　ハウス","province":"東京都","city":"国分寺市","address":"東京都国分寺市","lat":35.71034027,"lon":139.46318833},{"name":"国分寺市社会福祉協議会","province":"東京都","city":"国分寺市","address":"国分寺市戸倉4-14国分寺市立福祉センター内","lat":35.70816,"lon":139.45554},{"name":"マラナ・タハウス","province":"東京都","city":"国分寺市","address":"東京都国分寺市","lat":35.71034027,"lon":139.46318833},{"name":"さくら国分寺ハウス","province":"東京都","city":"国分寺市","address":"国分寺市東元町3-30-7","lat":35.69677,"lon":139.476974},{"name":"さくら国分寺ハウス","province":"東京都","city":"国分寺市","address":"国分寺市東元町3-30-7","lat":35.696806,"lon":139.476904},{"name":"国分寺病院","province":"東京都","city":"国分寺市","address":"国分寺市東恋ケ窪4-2-2","lat":35.706505,"lon":139.469438},{"name":"国分寺市社会福祉協議会","province":"東京都","city":"国分寺市","address":"国分寺市戸倉4-14国分寺市立福祉センター1階","lat":35.708513,"lon":139.455311},{"name":"さくら国分寺ハウス","province":"東京都","city":"国分寺市","address":"国分寺市東元町3-30-7","lat":35.69675,"lon":139.47731},{"name":"マラナ・タ　ハウス","province":"東京都","city":"国分寺市","address":"東京都国分寺市","lat":35.71034027,"lon":139.46318833},{"name":"国分寺市社会福祉協議会","province":"東京都","city":"国分寺市","address":"国分寺市戸倉4-14国分寺市立福祉センター内","lat":35.70816,"lon":139.45554},{"name":"マラナ・タハウス","province":"東京都","city":"国分寺市","address":"東京都国分寺市","lat":35.71034027,"lon":139.46318833},{"name":"さくら国分寺ハウス","province":"東京都","city":"国分寺市","address":"国分寺市東元町3-30-7","lat":35.69677,"lon":139.476974},{"name":"さくら国分寺ハウス","province":"東京都","city":"国分寺市","address":"国分寺市東元町3-30-7","lat":35.696806,"lon":139.476904},{"name":"国分寺病院","province":"東京都","city":"国分寺市","address":"国分寺市東恋ケ窪4-2-2","lat":35.706505,"lon":139.469438},{"name":"国分寺市社会福祉協議会","province":"東京都","city":"国分寺市","address":"国分寺市戸倉4-14国分寺市立福祉センター1階","lat":35.708513,"lon":139.455311},{"name":"さくら国分寺ハウス","province":"東京都","city":"国分寺市","address":"国分寺市東元町3-30-7","lat":35.69675,"lon":139.47731},{"name":"マラナ・タ　ハウス","province":"東京都","city":"国分寺市","address":"東京都国分寺市","lat":35.71034027,"lon":139.46318833},{"name":"国分寺市社会福祉協議会","province":"東京都","city":"国分寺市","address":"国分寺市戸倉4-14国分寺市立福祉センター内","lat":35.70816,"lon":139.45554},{"name":"マラナ・タハウス","province":"東京都","city":"国分寺市","address":"東京都国分寺市","lat":35.71034027,"lon":139.46318833},{"name":"さくら国分寺ハウス","province":"東京都","city":"国分寺市","address":"国分寺市東元町3-30-7","lat":35.69677,"lon":139.476974},{"name":"さくら国分寺ハウス","province":"東京都","city":"国分寺市","address":"国分寺市東元町3-30-7","lat":35.696806,"lon":139.476904},{"name":"国分寺病院","province":"東京都","city":"国分寺市","address":"国分寺市東恋ケ窪4-2-2","lat":35.706505,"lon":139.469438},{"name":"国分寺市社会福祉協議会","province":"東京都","city":"国分寺市","address":"国分寺市戸倉4-14国分寺市立福祉センター1階","lat":35.708513,"lon":139.455311},{"name":"さくら国分寺ハウス","province":"東京都","city":"国分寺市","address":"国分寺市東元町3-30-7","lat":35.69675,"lon":139.47731},{"name":"マラナ・タ　ハウス","province":"東京都","city":"国分寺市","address":"東京都国分寺市","lat":35.71034027,"lon":139.46318833},{"name":"国分寺市社会福祉協議会","province":"東京都","city":"国分寺市","address":"国分寺市戸倉4-14国分寺市立福祉センター内","lat":35.70816,"lon":139.45554},{"name":"マラナ・タハウス","province":"東京都","city":"国分寺市","address":"東京都国分寺市","lat":35.71034027,"lon":139.46318833},{"name":"さくら国分寺ハウス","province":"東京都","city":"国分寺市","address":"国分寺市東元町3-30-7","lat":35.69677,"lon":139.476974},{"name":"さくら国分寺ハウス","province":"東京都","city":"国分寺市","address":"国分寺市東元町3-30-7","lat":35.696806,"lon":139.476904},{"name":"国分寺病院","province":"東京都","city":"国分寺市","address":"国分寺市東恋ケ窪4-2-2","lat":35.706505,"lon":139.469438},{"name":"国分寺市社会福祉協議会","province":"東京都","city":"国分寺市","address":"国分寺市戸倉4-14国分寺市立福祉センター1階","lat":35.708513,"lon":139.455311},{"name":"さくら国分寺ハウス","province":"東京都","city":"国分寺市","address":"国分寺市東元町3-30-7","lat":35.69675,"lon":139.47731},{"name":"マラナ・タ　ハウス","province":"東京都","city":"国分寺市","address":"東京都国分寺市","lat":35.71034027,"lon":139.46318833},{"name":"国分寺市社会福祉協議会","province":"東京都","city":"国分寺市","address":"国分寺市戸倉4-14国分寺市立福祉センター内","lat":35.70816,"lon":139.45554},{"name":"マラナ・タハウス","province":"東京都","city":"国分寺市","address":"東京都国分寺市","lat":35.71034027,"lon":139.46318833},{"name":"さくら国分寺ハウス","province":"東京都","city":"国分寺市","address":"国分寺市東元町3-30-7","lat":35.69677,"lon":139.476974},{"name":"さくら国分寺ハウス","province":"東京都","city":"国分寺市","address":"国分寺市東元町3-30-7","lat":35.696806,"lon":139.476904},{"name":"国分寺病院","province":"東京都","city":"国分寺市","address":"国分寺市東恋ケ窪4-2-2","lat":35.706505,"lon":139.469438},{"name":"国分寺市社会福祉協議会","province":"東京都","city":"国分寺市","address":"国分寺市戸倉4-14国分寺市立福祉センター1階","lat":35.708513,"lon":139.455311},{"name":"さくら国分寺ハウス","province":"東京都","city":"国分寺市","address":"国分寺市東元町3-30-7","lat":35.69675,"lon":139.47731},{"name":"マラナ・タ　ハウス","province":"東京都","city":"国分寺市","address":"東京都国分寺市","lat":35.71034027,"lon":139.46318833},{"name":"国分寺市社会福祉協議会","province":"東京都","city":"国分寺市","address":"国分寺市戸倉4-14国分寺市立福祉センター内","lat":35.70816,"lon":139.45554},{"name":"マラナ・タハウス","province":"東京都","city":"国分寺市","address":"東京都国分寺市","lat":35.71034027,"lon":139.46318833},{"name":"さくら国分寺ハウス","province":"東京都","city":"国分寺市","address":"国分寺市東元町3-30-7","lat":35.69677,"lon":139.476974},{"name":"さくら国分寺ハウス","province":"東京都","city":"国分寺市","address":"国分寺市東元町3-30-7","lat":35.696806,"lon":139.476904},{"name":"国分寺病院","province":"東京都","city":"国分寺市","address":"国分寺市東恋ケ窪4-2-2","lat":35.706505,"lon":139.469438},{"name":"国分寺市社会福祉協議会","province":"東京都","city":"国分寺市","address":"国分寺市戸倉4-14国分寺市立福祉センター1階","lat":35.708513,"lon":139.455311},{"name":"さくら国分寺ハウス","province":"東京都","city":"国分寺市","address":"国分寺市東元町3-30-7","lat":35.69675,"lon":139.47731},{"name":"マラナ・タ　ハウス","province":"東京都","city":"国分寺市","address":"東京都国分寺市","lat":35.71034027,"lon":139.46318833},{"name":"国分寺市社会福祉協議会","province":"東京都","city":"国分寺市","address":"国分寺市戸倉4-14国分寺市立福祉センター内","lat":35.70816,"lon":139.45554},{"name":"マラナ・タハウス","province":"東京都","city":"国分寺市","address":"東京都国分寺市","lat":35.71034027,"lon":139.46318833},{"name":"さくら国分寺ハウス","province":"東京都","city":"国分寺市","address":"国分寺市東元町3-30-7","lat":35.69677,"lon":139.476974}]}