{"keyword":"戸数","data":[{"name":"国分寺市社会福祉協議会","province":"東京都","city":"国分寺市","address":"国分寺市戸倉4-14国分寺市立福祉センター1階","lat":35.708513,"lon":139.455311},{"name":"国分寺市","province":"東京都","city":"国分寺市","address":"国分寺市戸倉1-6-1","lat":35.7110208,"lon":139.4626078},{"name":"青雲セレモニー","province":"東京都","city":"国分寺市","address":"東京都国分寺市光町3丁目27-41","lat":35.7068234,"lon":139.44014607},{"name":"有限会社谺企画","province":"東京都","city":"国分寺市","address":"東京都国分寺市北町2丁目24-2","lat":35.71707249,"lon":139.45122526},{"name":"葬儀の心和堂","province":"東京都","city":"国分寺市","address":"東京都国分寺市富士本1丁目21-3","lat":35.7027131,"lon":139.45126188},{"name":"株式会社みよし","province":"東京都","city":"国分寺市","address":"東京都国分寺市東元町4丁目1-37","lat":35.69072905,"lon":139.48027371},{"name":"国分寺市社会福祉協議会","province":"東京都","city":"国分寺市","address":"国分寺市戸倉4-14国分寺市立福祉センター内","lat":35.70816,"lon":139.45554},{"name":"国分寺市地域包括支援センター","province":"東京都","city":"国分寺市","address":"国分寺市泉町2-3-8","lat":35.696209,"lon":139.468216},{"name":"国分寺地域包括支援センターもとまち","province":"東京都","city":"国分寺市","address":"国分寺市東元町2-5-17さわやかプラザもとまち1階","lat":35.691803,"lon":139.480972},{"name":"国分寺地域包括支援センターこいがくぼ","province":"東京都","city":"国分寺市","address":"国分寺市西恋ヶ窪1-50-1にんじんホーム1階","lat":35.705936,"lon":139.467926},{"name":"国分寺地域包括支援センターほんだ","province":"東京都","city":"国分寺市","address":"国分寺市本多2-3-3商工会館3階","lat":35.70401,"lon":139.480164},{"name":"国分寺地域包括支援センターひかり","province":"東京都","city":"国分寺市","address":"国分寺市光町3-13-34国分寺ひかり診療所3階","lat":35.708466,"lon":139.444092},{"name":"国分寺地域包括支援センターひよし","province":"東京都","city":"国分寺市","address":"国分寺市日吉町4-32-6うれしのの里1階","lat":35.706627,"lon":139.458771},{"name":"国分寺地域包括支援センターなみき","province":"東京都","city":"国分寺市","address":"国分寺市並木町3-12-2至誠ホームミンナ1階","lat":35.71442,"lon":139.447311},{"name":"東恋ヶ窪浄水所","province":"東京都","city":"国分寺市","address":"東京都国分寺市東恋ヶ窪2丁目5-8","lat":35.7064827,"lon":139.47639009},{"name":"国分寺市立窪東公園","province":"東京都","city":"国分寺市","address":"東京都国分寺市東戸倉2丁目19","lat":35.71561748,"lon":139.46532404},{"name":"国分寺市選挙管理委員会","province":"東京都","city":"国分寺市","address":"国分寺市戸倉1-6-1","lat":35.71036,"lon":139.463207},{"name":"労働相談情報センター国分寺事務所","province":"東京都","city":"国分寺市","address":"東京都国分寺市南町3丁目22-10","lat":35.69871697,"lon":139.47803747},{"name":"国分寺高等学校","province":"東京都","city":"国分寺市","address":"東京都国分寺市新町3丁目2-5","lat":35.71226464,"lon":139.4477841},{"name":"国分寺市社会福祉協議会","province":"東京都","city":"国分寺市","address":"国分寺市戸倉4-14国分寺市立福祉センター1階","lat":35.708513,"lon":139.455311},{"name":"国分寺市社会福祉協議会","province":"東京都","city":"国分寺市","address":"国分寺市戸倉4-14国分寺市立福祉センター内","lat":35.70816,"lon":139.45554},{"name":"国分寺市地域包括支援センター","province":"東京都","city":"国分寺市","address":"国分寺市泉町2-3-8","lat":35.696209,"lon":139.468216},{"name":"国分寺地域包括支援センターもとまち","province":"東京都","city":"国分寺市","address":"国分寺市東元町2-5-17さわやかプラザもとまち1階","lat":35.691803,"lon":139.480972},{"name":"国分寺地域包括支援センターこいがくぼ","province":"東京都","city":"国分寺市","address":"国分寺市西恋ヶ窪1-50-1にんじんホーム1階","lat":35.705936,"lon":139.467926},{"name":"国分寺地域包括支援センターほんだ","province":"東京都","city":"国分寺市","address":"国分寺市本多2-3-3商工会館3階","lat":35.70401,"lon":139.480164},{"name":"国分寺地域包括支援センターひかり","province":"東京都","city":"国分寺市","address":"国分寺市光町3-13-34国分寺ひかり診療所3階","lat":35.708466,"lon":139.444092},{"name":"国分寺地域包括支援センターひよし","province":"東京都","city":"国分寺市","address":"国分寺市日吉町4-32-6うれしのの里1階","lat":35.706627,"lon":139.458771},{"name":"国分寺地域包括支援センターなみき","province":"東京都","city":"国分寺市","address":"国分寺市並木町3-12-2至誠ホームミンナ1階","lat":35.71442,"lon":139.447311},{"name":"東恋ヶ窪浄水所","province":"東京都","city":"国分寺市","address":"東京都国分寺市東恋ヶ窪2丁目5-8","lat":35.7064827,"lon":139.47639009},{"name":"国分寺市立窪東公園","province":"東京都","city":"国分寺市","address":"東京都国分寺市東戸倉2丁目19","lat":35.71561748,"lon":139.46532404},{"name":"労働相談情報センター国分寺事務所","province":"東京都","city":"国分寺市","address":"東京都国分寺市南町3丁目22-10","lat":35.69871697,"lon":139.47803747},{"name":"国分寺高等学校","province":"東京都","city":"国分寺市","address":"東京都国分寺市新町3丁目2-5","lat":35.71226464,"lon":139.4477841},{"name":"国分寺市地域包括支援センター","province":"東京都","city":"国分寺市","address":"国分寺市泉町2-3-8","lat":35.696209,"lon":139.468216},{"name":"国分寺地域包括支援センターもとまち","province":"東京都","city":"国分寺市","address":"国分寺市東元町2-5-17さわやかプラザもとまち1階","lat":35.691803,"lon":139.480972},{"name":"国分寺地域包括支援センターこいがくぼ","province":"東京都","city":"国分寺市","address":"国分寺市西恋ヶ窪1-50-1にんじんホーム1階","lat":35.705936,"lon":139.467926},{"name":"国分寺地域包括支援センターほんだ","province":"東京都","city":"国分寺市","address":"国分寺市本多2-3-3商工会館3階","lat":35.70401,"lon":139.480164},{"name":"国分寺地域包括支援センターひかり","province":"東京都","city":"国分寺市","address":"国分寺市光町3-13-34国分寺ひかり診療所3階","lat":35.708466,"lon":139.444092},{"name":"国分寺地域包括支援センターひよし","province":"東京都","city":"国分寺市","address":"国分寺市日吉町4-32-6うれしのの里1階","lat":35.706627,"lon":139.458771},{"name":"国分寺地域包括支援センターなみき","province":"東京都","city":"国分寺市","address":"国分寺市並木町3-12-2至誠ホームミンナ1階","lat":35.71442,"lon":139.447311},{"name":"労働相談情報センター国分寺事務所","province":"東京都","city":"国分寺市","address":"東京都国分寺市南町3丁目22-10","lat":35.69871697,"lon":139.47803747},{"name":"国分寺高等学校","province":"東京都","city":"国分寺市","address":"東京都国分寺市新町3丁目2-5","lat":35.71226464,"lon":139.4477841},{"name":"国分寺市地域包括支援センター","province":"東京都","city":"国分寺市","address":"国分寺市泉町2-3-8","lat":35.696209,"lon":139.468216},{"name":"国分寺地域包括支援センターもとまち","province":"東京都","city":"国分寺市","address":"国分寺市東元町2-5-17さわやかプラザもとまち1階","lat":35.691803,"lon":139.480972},{"name":"国分寺地域包括支援センターこいがくぼ","province":"東京都","city":"国分寺市","address":"国分寺市西恋ヶ窪1-50-1にんじんホーム1階","lat":35.705936,"lon":139.467926},{"name":"国分寺地域包括支援センターほんだ","province":"東京都","city":"国分寺市","address":"国分寺市本多2-3-3商工会館3階","lat":35.70401,"lon":139.480164},{"name":"国分寺地域包括支援センターひかり","province":"東京都","city":"国分寺市","address":"国分寺市光町3-13-34国分寺ひかり診療所3階","lat":35.708466,"lon":139.444092},{"name":"国分寺地域包括支援センターひよし","province":"東京都","city":"国分寺市","address":"国分寺市日吉町4-32-6うれしのの里1階","lat":35.706627,"lon":139.458771},{"name":"国分寺地域包括支援センターなみき","province":"東京都","city":"国分寺市","address":"国分寺市並木町3-12-2至誠ホームミンナ1階","lat":35.71442,"lon":139.447311},{"name":"労働相談情報センター国分寺事務所","province":"東京都","city":"国分寺市","address":"東京都国分寺市南町3丁目22-10","lat":35.69871697,"lon":139.47803747},{"name":"国分寺高等学校","province":"東京都","city":"国分寺市","address":"東京都国分寺市新町3丁目2-5","lat":35.71226464,"lon":139.4477841},{"name":"国分寺市地域包括支援センター","province":"東京都","city":"国分寺市","address":"国分寺市泉町2-3-8","lat":35.696209,"lon":139.468216},{"name":"国分寺地域包括支援センターもとまち","province":"東京都","city":"国分寺市","address":"国分寺市東元町2-5-17さわやかプラザもとまち1階","lat":35.691803,"lon":139.480972},{"name":"国分寺地域包括支援センターこいがくぼ","province":"東京都","city":"国分寺市","address":"国分寺市西恋ヶ窪1-50-1にんじんホーム1階","lat":35.705936,"lon":139.467926},{"name":"国分寺地域包括支援センターほんだ","province":"東京都","city":"国分寺市","address":"国分寺市本多2-3-3商工会館3階","lat":35.70401,"lon":139.480164},{"name":"国分寺地域包括支援センターひかり","province":"東京都","city":"国分寺市","address":"国分寺市光町3-13-34国分寺ひかり診療所3階","lat":35.708466,"lon":139.444092},{"name":"国分寺地域包括支援センターひよし","province":"東京都","city":"国分寺市","address":"国分寺市日吉町4-32-6うれしのの里1階","lat":35.706627,"lon":139.458771},{"name":"国分寺地域包括支援センターなみき","province":"東京都","city":"国分寺市","address":"国分寺市並木町3-12-2至誠ホームミンナ1階","lat":35.71442,"lon":139.447311},{"name":"国分寺市地域包括支援センター","province":"東京都","city":"国分寺市","address":"国分寺市泉町2-3-8","lat":35.696209,"lon":139.468216},{"name":"国分寺地域包括支援センターもとまち","province":"東京都","city":"国分寺市","address":"国分寺市東元町2-5-17さわやかプラザもとまち1階","lat":35.691803,"lon":139.480972},{"name":"国分寺地域包括支援センターこいがくぼ","province":"東京都","city":"国分寺市","address":"国分寺市西恋ヶ窪1-50-1にんじんホーム1階","lat":35.705936,"lon":139.467926},{"name":"国分寺地域包括支援センターほんだ","province":"東京都","city":"国分寺市","address":"国分寺市本多2-3-3商工会館3階","lat":35.70401,"lon":139.480164},{"name":"国分寺地域包括支援センターひかり","province":"東京都","city":"国分寺市","address":"国分寺市光町3-13-34国分寺ひかり診療所3階","lat":35.708466,"lon":139.444092},{"name":"国分寺地域包括支援センターひよし","province":"東京都","city":"国分寺市","address":"国分寺市日吉町4-32-6うれしのの里1階","lat":35.706627,"lon":139.458771},{"name":"国分寺地域包括支援センターなみき","province":"東京都","city":"国分寺市","address":"国分寺市並木町3-12-2至誠ホームミンナ1階","lat":35.71442,"lon":139.447311},{"name":"国分寺市地域包括支援センター","province":"東京都","city":"国分寺市","address":"国分寺市泉町2-3-8","lat":35.696209,"lon":139.468216},{"name":"国分寺地域包括支援センターもとまち","province":"東京都","city":"国分寺市","address":"国分寺市東元町2-5-17さわやかプラザもとまち1階","lat":35.691803,"lon":139.480972},{"name":"国分寺地域包括支援センターこいがくぼ","province":"東京都","city":"国分寺市","address":"国分寺市西恋ヶ窪1-50-1にんじんホーム1階","lat":35.705936,"lon":139.467926},{"name":"国分寺地域包括支援センターほんだ","province":"東京都","city":"国分寺市","address":"国分寺市本多2-3-3商工会館3階","lat":35.70401,"lon":139.480164},{"name":"国分寺地域包括支援センターひかり","province":"東京都","city":"国分寺市","address":"国分寺市光町3-13-34国分寺ひかり診療所3階","lat":35.708466,"lon":139.444092},{"name":"国分寺地域包括支援センターひよし","province":"東京都","city":"国分寺市","address":"国分寺市日吉町4-32-6うれしのの里1階","lat":35.706627,"lon":139.458771},{"name":"国分寺地域包括支援センターなみき","province":"東京都","city":"国分寺市","address":"国分寺市並木町3-12-2至誠ホームミンナ1階","lat":35.71442,"lon":139.447311},{"name":"国分寺市地域包括支援センター","province":"東京都","city":"国分寺市","address":"国分寺市泉町2-3-8","lat":35.696209,"lon":139.468216},{"name":"国分寺地域包括支援センターもとまち","province":"東京都","city":"国分寺市","address":"国分寺市東元町2-5-17さわやかプラザもとまち1階","lat":35.691803,"lon":139.480972},{"name":"国分寺地域包括支援センターこいがくぼ","province":"東京都","city":"国分寺市","address":"国分寺市西恋ヶ窪1-50-1にんじんホーム1階","lat":35.705936,"lon":139.467926},{"name":"国分寺地域包括支援センターほんだ","province":"東京都","city":"国分寺市","address":"国分寺市本多2-3-3商工会館3階","lat":35.70401,"lon":139.480164},{"name":"国分寺地域包括支援センターひかり","province":"東京都","city":"国分寺市","address":"国分寺市光町3-13-34国分寺ひかり診療所3階","lat":35.708466,"lon":139.444092},{"name":"国分寺地域包括支援センターひよし","province":"東京都","city":"国分寺市","address":"国分寺市日吉町4-32-6うれしのの里1階","lat":35.706627,"lon":139.458771},{"name":"国分寺地域包括支援センターなみき","province":"東京都","city":"国分寺市","address":"国分寺市並木町3-12-2至誠ホームミンナ1階","lat":35.71442,"lon":139.447311},{"name":"国分寺市地域包括支援センター","province":"東京都","city":"国分寺市","address":"国分寺市泉町2-3-8","lat":35.696209,"lon":139.468216},{"name":"国分寺地域包括支援センターもとまち","province":"東京都","city":"国分寺市","address":"国分寺市東元町2-5-17さわやかプラザもとまち1階","lat":35.691803,"lon":139.480972},{"name":"国分寺地域包括支援センターこいがくぼ","province":"東京都","city":"国分寺市","address":"国分寺市西恋ヶ窪1-50-1にんじんホーム1階","lat":35.705936,"lon":139.467926},{"name":"国分寺地域包括支援センターほんだ","province":"東京都","city":"国分寺市","address":"国分寺市本多2-3-3商工会館3階","lat":35.70401,"lon":139.480164},{"name":"国分寺地域包括支援センターひかり","province":"東京都","city":"国分寺市","address":"国分寺市光町3-13-34国分寺ひかり診療所3階","lat":35.708466,"lon":139.444092},{"name":"国分寺地域包括支援センターひよし","province":"東京都","city":"国分寺市","address":"国分寺市日吉町4-32-6うれしのの里1階","lat":35.706627,"lon":139.458771},{"name":"国分寺地域包括支援センターなみき","province":"東京都","city":"国分寺市","address":"国分寺市並木町3-12-2至誠ホームミンナ1階","lat":35.71442,"lon":139.447311},{"name":"国分寺市地域包括支援センター","province":"東京都","city":"国分寺市","address":"国分寺市泉町2-3-8","lat":35.696209,"lon":139.468216},{"name":"国分寺地域包括支援センターもとまち","province":"東京都","city":"国分寺市","address":"国分寺市東元町2-5-17さわやかプラザもとまち1階","lat":35.691803,"lon":139.480972},{"name":"国分寺地域包括支援センターこいがくぼ","province":"東京都","city":"国分寺市","address":"国分寺市西恋ヶ窪1-50-1にんじんホーム1階","lat":35.705936,"lon":139.467926},{"name":"国分寺地域包括支援センターほんだ","province":"東京都","city":"国分寺市","address":"国分寺市本多2-3-3商工会館3階","lat":35.70401,"lon":139.480164},{"name":"国分寺地域包括支援センターひかり","province":"東京都","city":"国分寺市","address":"国分寺市光町3-13-34国分寺ひかり診療所3階","lat":35.708466,"lon":139.444092},{"name":"国分寺地域包括支援センターひよし","province":"東京都","city":"国分寺市","address":"国分寺市日吉町4-32-6うれしのの里1階","lat":35.706627,"lon":139.458771},{"name":"国分寺地域包括支援センターなみき","province":"東京都","city":"国分寺市","address":"国分寺市並木町3-12-2至誠ホームミンナ1階","lat":35.71442,"lon":139.447311},{"name":"国分寺市地域包括支援センター","province":"東京都","city":"国分寺市","address":"国分寺市泉町2-3-8","lat":35.696209,"lon":139.468216},{"name":"国分寺地域包括支援センターもとまち","province":"東京都","city":"国分寺市","address":"国分寺市東元町2-5-17さわやかプラザもとまち1階","lat":35.691803,"lon":139.480972},{"name":"国分寺地域包括支援センターこいがくぼ","province":"東京都","city":"国分寺市","address":"国分寺市西恋ヶ窪1-50-1にんじんホーム1階","lat":35.705936,"lon":139.467926},{"name":"国分寺地域包括支援センターほんだ","province":"東京都","city":"国分寺市","address":"国分寺市本多2-3-3商工会館3階","lat":35.70401,"lon":139.480164},{"name":"国分寺地域包括支援センターひかり","province":"東京都","city":"国分寺市","address":"国分寺市光町3-13-34国分寺ひかり診療所3階","lat":35.708466,"lon":139.444092},{"name":"国分寺地域包括支援センターひよし","province":"東京都","city":"国分寺市","address":"国分寺市日吉町4-32-6うれしのの里1階","lat":35.706627,"lon":139.458771},{"name":"国分寺地域包括支援センターなみき","province":"東京都","city":"国分寺市","address":"国分寺市並木町3-12-2至誠ホームミンナ1階","lat":35.71442,"lon":139.447311},{"name":"国分寺市地域包括支援センター","province":"東京都","city":"国分寺市","address":"国分寺市泉町2-3-8","lat":35.696209,"lon":139.468216},{"name":"国分寺地域包括支援センターもとまち","province":"東京都","city":"国分寺市","address":"国分寺市東元町2-5-17さわやかプラザもとまち1階","lat":35.691803,"lon":139.480972},{"name":"国分寺地域包括支援センターこいがくぼ","province":"東京都","city":"国分寺市","address":"国分寺市西恋ヶ窪1-50-1にんじんホーム1階","lat":35.705936,"lon":139.467926},{"name":"国分寺地域包括支援センターほんだ","province":"東京都","city":"国分寺市","address":"国分寺市本多2-3-3商工会館3階","lat":35.70401,"lon":139.480164},{"name":"国分寺地域包括支援センターひかり","province":"東京都","city":"国分寺市","address":"国分寺市光町3-13-34国分寺ひかり診療所3階","lat":35.708466,"lon":139.444092},{"name":"国分寺地域包括支援センターひよし","province":"東京都","city":"国分寺市","address":"国分寺市日吉町4-32-6うれしのの里1階","lat":35.706627,"lon":139.458771},{"name":"国分寺地域包括支援センターなみき","province":"東京都","city":"国分寺市","address":"国分寺市並木町3-12-2至誠ホームミンナ1階","lat":35.71442,"lon":139.447311},{"name":"国分寺市地域包括支援センター","province":"東京都","city":"国分寺市","address":"国分寺市泉町2-3-8","lat":35.696209,"lon":139.468216},{"name":"国分寺地域包括支援センターもとまち","province":"東京都","city":"国分寺市","address":"国分寺市東元町2-5-17さわやかプラザもとまち1階","lat":35.691803,"lon":139.480972},{"name":"国分寺地域包括支援センターこいがくぼ","province":"東京都","city":"国分寺市","address":"国分寺市西恋ヶ窪1-50-1にんじんホーム1階","lat":35.705936,"lon":139.467926},{"name":"国分寺地域包括支援センターほんだ","province":"東京都","city":"国分寺市","address":"国分寺市本多2-3-3商工会館3階","lat":35.70401,"lon":139.480164},{"name":"国分寺地域包括支援センターひかり","province":"東京都","city":"国分寺市","address":"国分寺市光町3-13-34国分寺ひかり診療所3階","lat":35.708466,"lon":139.444092},{"name":"国分寺地域包括支援センターひよし","province":"東京都","city":"国分寺市","address":"国分寺市日吉町4-32-6うれしのの里1階","lat":35.706627,"lon":139.458771},{"name":"国分寺地域包括支援センターなみき","province":"東京都","city":"国分寺市","address":"国分寺市並木町3-12-2至誠ホームミンナ1階","lat":35.71442,"lon":139.447311},{"name":"国分寺市地域包括支援センター","province":"東京都","city":"国分寺市","address":"国分寺市泉町2-3-8","lat":35.696209,"lon":139.468216},{"name":"国分寺地域包括支援センターもとまち","province":"東京都","city":"国分寺市","address":"国分寺市東元町2-5-17さわやかプラザもとまち1階","lat":35.691803,"lon":139.480972},{"name":"国分寺地域包括支援センターこいがくぼ","province":"東京都","city":"国分寺市","address":"国分寺市西恋ヶ窪1-50-1にんじんホーム1階","lat":35.705936,"lon":139.467926},{"name":"国分寺地域包括支援センターほんだ","province":"東京都","city":"国分寺市","address":"国分寺市本多2-3-3商工会館3階","lat":35.70401,"lon":139.480164},{"name":"国分寺地域包括支援センターひかり","province":"東京都","city":"国分寺市","address":"国分寺市光町3-13-34国分寺ひかり診療所3階","lat":35.708466,"lon":139.444092},{"name":"国分寺地域包括支援センターひよし","province":"東京都","city":"国分寺市","address":"国分寺市日吉町4-32-6うれしのの里1階","lat":35.706627,"lon":139.458771},{"name":"国分寺地域包括支援センターなみき","province":"東京都","city":"国分寺市","address":"国分寺市並木町3-12-2至誠ホームミンナ1階","lat":35.71442,"lon":139.447311},{"name":"国分寺市地域包括支援センター","province":"東京都","city":"国分寺市","address":"国分寺市泉町2-3-8","lat":35.696209,"lon":139.468216},{"name":"国分寺地域包括支援センターもとまち","province":"東京都","city":"国分寺市","address":"国分寺市東元町2-5-17さわやかプラザもとまち1階","lat":35.691803,"lon":139.480972},{"name":"国分寺地域包括支援センターこいがくぼ","province":"東京都","city":"国分寺市","address":"国分寺市西恋ヶ窪1-50-1にんじんホーム1階","lat":35.705936,"lon":139.467926},{"name":"国分寺地域包括支援センターほんだ","province":"東京都","city":"国分寺市","address":"国分寺市本多2-3-3商工会館3階","lat":35.70401,"lon":139.480164},{"name":"国分寺地域包括支援センターひかり","province":"東京都","city":"国分寺市","address":"国分寺市光町3-13-34国分寺ひかり診療所3階","lat":35.708466,"lon":139.444092},{"name":"国分寺地域包括支援センターひよし","province":"東京都","city":"国分寺市","address":"国分寺市日吉町4-32-6うれしのの里1階","lat":35.706627,"lon":139.458771},{"name":"国分寺地域包括支援センターなみき","province":"東京都","city":"国分寺市","address":"国分寺市並木町3-12-2至誠ホームミンナ1階","lat":35.71442,"lon":139.447311},{"name":"国分寺市地域包括支援センター","province":"東京都","city":"国分寺市","address":"国分寺市泉町2-3-8","lat":35.696209,"lon":139.468216},{"name":"国分寺地域包括支援センターもとまち","province":"東京都","city":"国分寺市","address":"国分寺市東元町2-5-17さわやかプラザもとまち1階","lat":35.691803,"lon":139.480972},{"name":"国分寺地域包括支援センターこいがくぼ","province":"東京都","city":"国分寺市","address":"国分寺市西恋ヶ窪1-50-1にんじんホーム1階","lat":35.705936,"lon":139.467926},{"name":"国分寺地域包括支援センターほんだ","province":"東京都","city":"国分寺市","address":"国分寺市本多2-3-3商工会館3階","lat":35.70401,"lon":139.480164},{"name":"国分寺地域包括支援センターひかり","province":"東京都","city":"国分寺市","address":"国分寺市光町3-13-34国分寺ひかり診療所3階","lat":35.708466,"lon":139.444092},{"name":"国分寺地域包括支援センターひよし","province":"東京都","city":"国分寺市","address":"国分寺市日吉町4-32-6うれしのの里1階","lat":35.706627,"lon":139.458771},{"name":"国分寺地域包括支援センターなみき","province":"東京都","city":"国分寺市","address":"国分寺市並木町3-12-2至誠ホームミンナ1階","lat":35.71442,"lon":139.447311},{"name":"国分寺市地域包括支援センター","province":"東京都","city":"国分寺市","address":"国分寺市泉町2-3-8","lat":35.696209,"lon":139.468216},{"name":"国分寺地域包括支援センターもとまち","province":"東京都","city":"国分寺市","address":"国分寺市東元町2-5-17さわやかプラザもとまち1階","lat":35.691803,"lon":139.480972},{"name":"国分寺地域包括支援センターこいがくぼ","province":"東京都","city":"国分寺市","address":"国分寺市西恋ヶ窪1-50-1にんじんホーム1階","lat":35.705936,"lon":139.467926},{"name":"国分寺地域包括支援センターほんだ","province":"東京都","city":"国分寺市","address":"国分寺市本多2-3-3商工会館3階","lat":35.70401,"lon":139.480164},{"name":"国分寺地域包括支援センターひかり","province":"東京都","city":"国分寺市","address":"国分寺市光町3-13-34国分寺ひかり診療所3階","lat":35.708466,"lon":139.444092},{"name":"国分寺地域包括支援センターひよし","province":"東京都","city":"国分寺市","address":"国分寺市日吉町4-32-6うれしのの里1階","lat":35.706627,"lon":139.458771},{"name":"国分寺地域包括支援センターなみき","province":"東京都","city":"国分寺市","address":"国分寺市並木町3-12-2至誠ホームミンナ1階","lat":35.71442,"lon":139.447311},{"name":"国分寺市地域包括支援センター","province":"東京都","city":"国分寺市","address":"国分寺市泉町2-3-8","lat":35.696209,"lon":139.468216},{"name":"国分寺地域包括支援センターもとまち","province":"東京都","city":"国分寺市","address":"国分寺市東元町2-5-17さわやかプラザもとまち1階","lat":35.691803,"lon":139.480972},{"name":"国分寺地域包括支援センターこいがくぼ","province":"東京都","city":"国分寺市","address":"国分寺市西恋ヶ窪1-50-1にんじんホーム1階","lat":35.705936,"lon":139.467926},{"name":"国分寺地域包括支援センターほんだ","province":"東京都","city":"国分寺市","address":"国分寺市本多2-3-3商工会館3階","lat":35.70401,"lon":139.480164},{"name":"国分寺地域包括支援センターひかり","province":"東京都","city":"国分寺市","address":"国分寺市光町3-13-34国分寺ひかり診療所3階","lat":35.708466,"lon":139.444092},{"name":"国分寺地域包括支援センターひよし","province":"東京都","city":"国分寺市","address":"国分寺市日吉町4-32-6うれしのの里1階","lat":35.706627,"lon":139.458771},{"name":"国分寺地域包括支援センターなみき","province":"東京都","city":"国分寺市","address":"国分寺市並木町3-12-2至誠ホームミンナ1階","lat":35.71442,"lon":139.447311},{"name":"国分寺市地域包括支援センター","province":"東京都","city":"国分寺市","address":"国分寺市泉町2-3-8","lat":35.696209,"lon":139.468216},{"name":"国分寺地域包括支援センターもとまち","province":"東京都","city":"国分寺市","address":"国分寺市東元町2-5-17さわやかプラザもとまち1階","lat":35.691803,"lon":139.480972},{"name":"国分寺地域包括支援センターこいがくぼ","province":"東京都","city":"国分寺市","address":"国分寺市西恋ヶ窪1-50-1にんじんホーム1階","lat":35.705936,"lon":139.467926},{"name":"国分寺地域包括支援センターほんだ","province":"東京都","city":"国分寺市","address":"国分寺市本多2-3-3商工会館3階","lat":35.70401,"lon":139.480164},{"name":"国分寺地域包括支援センターひかり","province":"東京都","city":"国分寺市","address":"国分寺市光町3-13-34国分寺ひかり診療所3階","lat":35.708466,"lon":139.444092},{"name":"国分寺地域包括支援センターひよし","province":"東京都","city":"国分寺市","address":"国分寺市日吉町4-32-6うれしのの里1階","lat":35.706627,"lon":139.458771},{"name":"国分寺地域包括支援センターなみき","province":"東京都","city":"国分寺市","address":"国分寺市並木町3-12-2至誠ホームミンナ1階","lat":35.71442,"lon":139.447311},{"name":"国分寺市地域包括支援センター","province":"東京都","city":"国分寺市","address":"国分寺市泉町2-3-8","lat":35.696209,"lon":139.468216},{"name":"国分寺地域包括支援センターもとまち","province":"東京都","city":"国分寺市","address":"国分寺市東元町2-5-17さわやかプラザもとまち1階","lat":35.691803,"lon":139.480972},{"name":"国分寺地域包括支援センターこいがくぼ","province":"東京都","city":"国分寺市","address":"国分寺市西恋ヶ窪1-50-1にんじんホーム1階","lat":35.705936,"lon":139.467926},{"name":"国分寺地域包括支援センターほんだ","province":"東京都","city":"国分寺市","address":"国分寺市本多2-3-3商工会館3階","lat":35.70401,"lon":139.480164},{"name":"国分寺地域包括支援センターひかり","province":"東京都","city":"国分寺市","address":"国分寺市光町3-13-34国分寺ひかり診療所3階","lat":35.708466,"lon":139.444092},{"name":"国分寺地域包括支援センターひよし","province":"東京都","city":"国分寺市","address":"国分寺市日吉町4-32-6うれしのの里1階","lat":35.706627,"lon":139.458771},{"name":"国分寺地域包括支援センターなみき","province":"東京都","city":"国分寺市","address":"国分寺市並木町3-12-2至誠ホームミンナ1階","lat":35.71442,"lon":139.447311},{"name":"国分寺市地域包括支援センター","province":"東京都","city":"国分寺市","address":"国分寺市泉町2-3-8","lat":35.696209,"lon":139.468216},{"name":"国分寺地域包括支援センターもとまち","province":"東京都","city":"国分寺市","address":"国分寺市東元町2-5-17さわやかプラザもとまち1階","lat":35.691803,"lon":139.480972},{"name":"国分寺地域包括支援センターこいがくぼ","province":"東京都","city":"国分寺市","address":"国分寺市西恋ヶ窪1-50-1にんじんホーム1階","lat":35.705936,"lon":139.467926},{"name":"国分寺地域包括支援センターほんだ","province":"東京都","city":"国分寺市","address":"国分寺市本多2-3-3商工会館3階","lat":35.70401,"lon":139.480164},{"name":"国分寺地域包括支援センターひかり","province":"東京都","city":"国分寺市","address":"国分寺市光町3-13-34国分寺ひかり診療所3階","lat":35.708466,"lon":139.444092},{"name":"国分寺地域包括支援センターひよし","province":"東京都","city":"国分寺市","address":"国分寺市日吉町4-32-6うれしのの里1階","lat":35.706627,"lon":139.458771},{"name":"国分寺地域包括支援センターなみき","province":"東京都","city":"国分寺市","address":"国分寺市並木町3-12-2至誠ホームミンナ1階","lat":35.71442,"lon":139.447311}]}