{"keyword":"放課後","data":[{"name":"ＥＴ教室","province":"東京都","city":"国分寺市","address":"国分寺市東戸倉2-10-34","lat":35.711662,"lon":139.464127},{"name":"たけのこ","province":"東京都","city":"国分寺市","address":"国分寺市戸倉1-8-43千歳サンライズ107","lat":35.709513,"lon":139.461933},{"name":"「ツリーハウス」","province":"東京都","city":"国分寺市","address":"国分寺市戸倉1-23-3","lat":35.711971,"lon":139.461277},{"name":"「ツリーハウス」Ｌｉｋｏ","province":"東京都","city":"国分寺市","address":"国分寺市戸倉3-46-7","lat":35.710182,"lon":139.451128},{"name":"ハッピーテラス国分寺","province":"東京都","city":"国分寺市","address":"国分寺市南町2-17-4国分寺南町ビューハイツ101号","lat":35.69987,"lon":139.483573},{"name":"放課後等デイサービス　ルーチェ","province":"東京都","city":"国分寺市","address":"国分寺市南町3-4-19京美ビル3階","lat":35.698009,"lon":139.479276},{"name":"福祉の杜とくら地域福祉事業所すてっぷ","province":"東京都","city":"国分寺市","address":"国分寺市富士本1-25-29","lat":35.703174,"lon":139.449815},{"name":"デイサービス事業クラブかたつむり","province":"東京都","city":"国分寺市","address":"国分寺市日吉町4-29-12","lat":35.705732,"lon":139.460078},{"name":"メリーランド国分寺","province":"東京都","city":"国分寺市","address":"国分寺市西町二丁目2番3号第五東財ビル3階","lat":35.705412,"lon":139.439055}]}