{"keyword":"月間","data":[{"name":"ＥＴ教室","province":"東京都","city":"国分寺市","address":"国分寺市東戸倉2-10-34","lat":35.711662,"lon":139.464127},{"name":"たけのこ","province":"東京都","city":"国分寺市","address":"国分寺市戸倉1-8-43千歳サンライズ107","lat":35.709513,"lon":139.461933},{"name":"「ツリーハウス」","province":"東京都","city":"国分寺市","address":"国分寺市戸倉1-23-3","lat":35.711971,"lon":139.461277},{"name":"「ツリーハウス」Ｌｉｋｏ","province":"東京都","city":"国分寺市","address":"国分寺市戸倉3-46-7","lat":35.710182,"lon":139.451128},{"name":"ハッピーテラス国分寺","province":"東京都","city":"国分寺市","address":"国分寺市南町2-17-4国分寺南町ビューハイツ101号","lat":35.69987,"lon":139.483573},{"name":"放課後等デイサービス　ルーチェ","province":"東京都","city":"国分寺市","address":"国分寺市南町3-4-19京美ビル3階","lat":35.698009,"lon":139.479276},{"name":"福祉の杜とくら地域福祉事業所すてっぷ","province":"東京都","city":"国分寺市","address":"国分寺市富士本1-25-29","lat":35.703174,"lon":139.449815},{"name":"デイサービス事業クラブかたつむり","province":"東京都","city":"国分寺市","address":"国分寺市日吉町4-29-12","lat":35.705732,"lon":139.460078},{"name":"メリーランド国分寺","province":"東京都","city":"国分寺市","address":"国分寺市西町二丁目2番3号第五東財ビル3階","lat":35.705412,"lon":139.439055},{"name":"国分寺市子ども家庭支援センター","province":"東京都","city":"国分寺市","address":"国分寺市光町3-13-20","lat":35.707698,"lon":139.442757},{"name":"国分寺市子ども家庭支援センター","province":"東京都","city":"国分寺市","address":"国分寺市光町3-13-20","lat":35.708,"lon":139.44296},{"name":"稲荷神社前","province":"東京都","city":"国分寺市","address":"東京都国分寺市光町1丁目23-2","lat":35.70626243,"lon":139.44249866},{"name":"本多公民館西","province":"東京都","city":"国分寺市","address":"東京都国分寺市本多1丁目6-3","lat":35.70516631,"lon":139.48188687},{"name":"国分寺駅南口第一","province":"東京都","city":"国分寺市","address":"東京都国分寺市南町3丁目17-3","lat":35.69936417,"lon":139.48084276},{"name":"国分寺駅南口第二","province":"東京都","city":"国分寺市","address":"東京都国分寺市南町3丁目18-1","lat":35.6991975,"lon":139.47988451},{"name":"国分寺市役所前","province":"東京都","city":"国分寺市","address":"東京都国分寺市戸倉1丁目5","lat":35.71022915,"lon":139.46235786},{"name":"国分寺第二小学校前","province":"東京都","city":"国分寺市","address":"東京都国分寺市光町3丁目1-1","lat":35.70790396,"lon":139.44431232},{"name":"国分寺第四小学校入口","province":"東京都","city":"国分寺市","address":"東京都国分寺市西元町2丁目17","lat":35.69559765,"lon":139.46844954},{"name":"国分寺南町一丁目","province":"東京都","city":"国分寺市","address":"東京都国分寺市南町2丁目1-37","lat":35.69877271,"lon":139.48630621},{"name":"東恋ヶ窪浄水所","province":"東京都","city":"国分寺市","address":"東京都国分寺市東恋ヶ窪2丁目5-8","lat":35.7064827,"lon":139.47639009},{"name":"国分寺市立窪東公園","province":"東京都","city":"国分寺市","address":"東京都国分寺市東戸倉2丁目19","lat":35.71561748,"lon":139.46532404},{"name":"＊?男女平等推進センター(ひかりプラザ内)","province":"東京都","city":"国分寺市","address":"東京都国分寺市光町1-46-8","lat":35.70258,"lon":139.444651},{"name":"労働相談情報センター国分寺事務所","province":"東京都","city":"国分寺市","address":"東京都国分寺市南町3丁目22-10","lat":35.69871697,"lon":139.47803747},{"name":"国分寺高等学校","province":"東京都","city":"国分寺市","address":"東京都国分寺市新町3丁目2-5","lat":35.71226464,"lon":139.4477841},{"name":"国分寺市本庁舎","province":"東京都","city":"国分寺市","address":"東京都国分寺市戸倉1丁目6-1","lat":35.71082909,"lon":139.46270502},{"name":"ひかりスポーツセンター","province":"東京都","city":"国分寺市","address":"東京都国分寺市光町1丁目46-8","lat":35.70270738,"lon":139.44470969},{"name":"国分寺市本庁舎","province":"東京都","city":"国分寺市","address":"国分寺市戸倉1-6-1","lat":35.711021,"lon":139.462608},{"name":"国分寺消防署","province":"東京都","city":"国分寺市","address":"国分寺市本多1-7-15","lat":35.70578,"lon":139.4827},{"name":"※国分寺市本庁舎","province":"東京都","city":"国分寺市","address":"東京都国分寺市戸倉1丁目6-1","lat":35.71082909,"lon":139.46270502},{"name":"西国分寺駅","province":"東京都","city":"国分寺市","address":"東京都国分寺市西恋ヶ窪2丁目1-18","lat":35.69981377,"lon":139.46571628},{"name":"ＥＴ教室","province":"東京都","city":"国分寺市","address":"国分寺市東戸倉2-10-34","lat":35.711662,"lon":139.464127},{"name":"たけのこ","province":"東京都","city":"国分寺市","address":"国分寺市戸倉1-8-43千歳サンライズ107","lat":35.709513,"lon":139.461933},{"name":"「ツリーハウス」","province":"東京都","city":"国分寺市","address":"国分寺市戸倉1-23-3","lat":35.711971,"lon":139.461277},{"name":"「ツリーハウス」Ｌｉｋｏ","province":"東京都","city":"国分寺市","address":"国分寺市戸倉3-46-7","lat":35.710182,"lon":139.451128},{"name":"ハッピーテラス国分寺","province":"東京都","city":"国分寺市","address":"国分寺市南町2-17-4国分寺南町ビューハイツ101号","lat":35.69987,"lon":139.483573},{"name":"放課後等デイサービス　ルーチェ","province":"東京都","city":"国分寺市","address":"国分寺市南町3-4-19京美ビル3階","lat":35.698009,"lon":139.479276},{"name":"福祉の杜とくら地域福祉事業所すてっぷ","province":"東京都","city":"国分寺市","address":"国分寺市富士本1-25-29","lat":35.703174,"lon":139.449815},{"name":"デイサービス事業クラブかたつむり","province":"東京都","city":"国分寺市","address":"国分寺市日吉町4-29-12","lat":35.705732,"lon":139.460078},{"name":"メリーランド国分寺","province":"東京都","city":"国分寺市","address":"国分寺市西町二丁目2番3号第五東財ビル3階","lat":35.705412,"lon":139.439055},{"name":"国分寺市子ども家庭支援センター","province":"東京都","city":"国分寺市","address":"国分寺市光町3-13-20","lat":35.707698,"lon":139.442757},{"name":"国分寺市子ども家庭支援センター","province":"東京都","city":"国分寺市","address":"国分寺市光町3-13-20","lat":35.708,"lon":139.44296},{"name":"稲荷神社前","province":"東京都","city":"国分寺市","address":"東京都国分寺市光町1丁目23-2","lat":35.70626243,"lon":139.44249866},{"name":"本多公民館西","province":"東京都","city":"国分寺市","address":"東京都国分寺市本多1丁目6-3","lat":35.70516631,"lon":139.48188687},{"name":"国分寺駅南口第一","province":"東京都","city":"国分寺市","address":"東京都国分寺市南町3丁目17-3","lat":35.69936417,"lon":139.48084276},{"name":"国分寺駅南口第二","province":"東京都","city":"国分寺市","address":"東京都国分寺市南町3丁目18-1","lat":35.6991975,"lon":139.47988451},{"name":"国分寺市役所前","province":"東京都","city":"国分寺市","address":"東京都国分寺市戸倉1丁目5","lat":35.71022915,"lon":139.46235786},{"name":"国分寺第二小学校前","province":"東京都","city":"国分寺市","address":"東京都国分寺市光町3丁目1-1","lat":35.70790396,"lon":139.44431232},{"name":"国分寺第四小学校入口","province":"東京都","city":"国分寺市","address":"東京都国分寺市西元町2丁目17","lat":35.69559765,"lon":139.46844954},{"name":"国分寺南町一丁目","province":"東京都","city":"国分寺市","address":"東京都国分寺市南町2丁目1-37","lat":35.69877271,"lon":139.48630621},{"name":"東恋ヶ窪浄水所","province":"東京都","city":"国分寺市","address":"東京都国分寺市東恋ヶ窪2丁目5-8","lat":35.7064827,"lon":139.47639009},{"name":"国分寺市立窪東公園","province":"東京都","city":"国分寺市","address":"東京都国分寺市東戸倉2丁目19","lat":35.71561748,"lon":139.46532404},{"name":"＊?男女平等推進センター(ひかりプラザ内)","province":"東京都","city":"国分寺市","address":"東京都国分寺市光町1-46-8","lat":35.70258,"lon":139.444651},{"name":"労働相談情報センター国分寺事務所","province":"東京都","city":"国分寺市","address":"東京都国分寺市南町3丁目22-10","lat":35.69871697,"lon":139.47803747},{"name":"国分寺高等学校","province":"東京都","city":"国分寺市","address":"東京都国分寺市新町3丁目2-5","lat":35.71226464,"lon":139.4477841},{"name":"ＥＴ教室","province":"東京都","city":"国分寺市","address":"国分寺市東戸倉2-10-34","lat":35.711662,"lon":139.464127},{"name":"たけのこ","province":"東京都","city":"国分寺市","address":"国分寺市戸倉1-8-43千歳サンライズ107","lat":35.709513,"lon":139.461933},{"name":"「ツリーハウス」","province":"東京都","city":"国分寺市","address":"国分寺市戸倉1-23-3","lat":35.711971,"lon":139.461277},{"name":"「ツリーハウス」Ｌｉｋｏ","province":"東京都","city":"国分寺市","address":"国分寺市戸倉3-46-7","lat":35.710182,"lon":139.451128},{"name":"ハッピーテラス国分寺","province":"東京都","city":"国分寺市","address":"国分寺市南町2-17-4国分寺南町ビューハイツ101号","lat":35.69987,"lon":139.483573},{"name":"放課後等デイサービス　ルーチェ","province":"東京都","city":"国分寺市","address":"国分寺市南町3-4-19京美ビル3階","lat":35.698009,"lon":139.479276},{"name":"福祉の杜とくら地域福祉事業所すてっぷ","province":"東京都","city":"国分寺市","address":"国分寺市富士本1-25-29","lat":35.703174,"lon":139.449815},{"name":"デイサービス事業クラブかたつむり","province":"東京都","city":"国分寺市","address":"国分寺市日吉町4-29-12","lat":35.705732,"lon":139.460078},{"name":"メリーランド国分寺","province":"東京都","city":"国分寺市","address":"国分寺市西町二丁目2番3号第五東財ビル3階","lat":35.705412,"lon":139.439055},{"name":"国分寺市子ども家庭支援センター","province":"東京都","city":"国分寺市","address":"国分寺市光町3-13-20","lat":35.707698,"lon":139.442757},{"name":"国分寺市子ども家庭支援センター","province":"東京都","city":"国分寺市","address":"国分寺市光町3-13-20","lat":35.708,"lon":139.44296},{"name":"稲荷神社前","province":"東京都","city":"国分寺市","address":"東京都国分寺市光町1丁目23-2","lat":35.70626243,"lon":139.44249866},{"name":"本多公民館西","province":"東京都","city":"国分寺市","address":"東京都国分寺市本多1丁目6-3","lat":35.70516631,"lon":139.48188687},{"name":"国分寺駅南口第一","province":"東京都","city":"国分寺市","address":"東京都国分寺市南町3丁目17-3","lat":35.69936417,"lon":139.48084276},{"name":"国分寺駅南口第二","province":"東京都","city":"国分寺市","address":"東京都国分寺市南町3丁目18-1","lat":35.6991975,"lon":139.47988451},{"name":"国分寺市役所前","province":"東京都","city":"国分寺市","address":"東京都国分寺市戸倉1丁目5","lat":35.71022915,"lon":139.46235786},{"name":"国分寺第二小学校前","province":"東京都","city":"国分寺市","address":"東京都国分寺市光町3丁目1-1","lat":35.70790396,"lon":139.44431232},{"name":"国分寺第四小学校入口","province":"東京都","city":"国分寺市","address":"東京都国分寺市西元町2丁目17","lat":35.69559765,"lon":139.46844954},{"name":"国分寺南町一丁目","province":"東京都","city":"国分寺市","address":"東京都国分寺市南町2丁目1-37","lat":35.69877271,"lon":139.48630621},{"name":"東恋ヶ窪浄水所","province":"東京都","city":"国分寺市","address":"東京都国分寺市東恋ヶ窪2丁目5-8","lat":35.7064827,"lon":139.47639009},{"name":"国分寺市立窪東公園","province":"東京都","city":"国分寺市","address":"東京都国分寺市東戸倉2丁目19","lat":35.71561748,"lon":139.46532404},{"name":"＊?男女平等推進センター(ひかりプラザ内)","province":"東京都","city":"国分寺市","address":"東京都国分寺市光町1-46-8","lat":35.70258,"lon":139.444651},{"name":"労働相談情報センター国分寺事務所","province":"東京都","city":"国分寺市","address":"東京都国分寺市南町3丁目22-10","lat":35.69871697,"lon":139.47803747},{"name":"国分寺高等学校","province":"東京都","city":"国分寺市","address":"東京都国分寺市新町3丁目2-5","lat":35.71226464,"lon":139.4477841},{"name":"ＥＴ教室","province":"東京都","city":"国分寺市","address":"国分寺市東戸倉2-10-34","lat":35.711662,"lon":139.464127},{"name":"たけのこ","province":"東京都","city":"国分寺市","address":"国分寺市戸倉1-8-43千歳サンライズ107","lat":35.709513,"lon":139.461933},{"name":"「ツリーハウス」","province":"東京都","city":"国分寺市","address":"国分寺市戸倉1-23-3","lat":35.711971,"lon":139.461277},{"name":"「ツリーハウス」Ｌｉｋｏ","province":"東京都","city":"国分寺市","address":"国分寺市戸倉3-46-7","lat":35.710182,"lon":139.451128},{"name":"ハッピーテラス国分寺","province":"東京都","city":"国分寺市","address":"国分寺市南町2-17-4国分寺南町ビューハイツ101号","lat":35.69987,"lon":139.483573},{"name":"放課後等デイサービス　ルーチェ","province":"東京都","city":"国分寺市","address":"国分寺市南町3-4-19京美ビル3階","lat":35.698009,"lon":139.479276},{"name":"福祉の杜とくら地域福祉事業所すてっぷ","province":"東京都","city":"国分寺市","address":"国分寺市富士本1-25-29","lat":35.703174,"lon":139.449815},{"name":"デイサービス事業クラブかたつむり","province":"東京都","city":"国分寺市","address":"国分寺市日吉町4-29-12","lat":35.705732,"lon":139.460078},{"name":"メリーランド国分寺","province":"東京都","city":"国分寺市","address":"国分寺市西町二丁目2番3号第五東財ビル3階","lat":35.705412,"lon":139.439055},{"name":"国分寺市子ども家庭支援センター","province":"東京都","city":"国分寺市","address":"国分寺市光町3-13-20","lat":35.707698,"lon":139.442757},{"name":"国分寺市子ども家庭支援センター","province":"東京都","city":"国分寺市","address":"国分寺市光町3-13-20","lat":35.708,"lon":139.44296},{"name":"国分寺市立窪東公園","province":"東京都","city":"国分寺市","address":"東京都国分寺市東戸倉2丁目19","lat":35.71561748,"lon":139.46532404},{"name":"＊?男女平等推進センター(ひかりプラザ内)","province":"東京都","city":"国分寺市","address":"東京都国分寺市光町1-46-8","lat":35.70258,"lon":139.444651},{"name":"労働相談情報センター国分寺事務所","province":"東京都","city":"国分寺市","address":"東京都国分寺市南町3丁目22-10","lat":35.69871697,"lon":139.47803747},{"name":"国分寺高等学校","province":"東京都","city":"国分寺市","address":"東京都国分寺市新町3丁目2-5","lat":35.71226464,"lon":139.4477841},{"name":"ＥＴ教室","province":"東京都","city":"国分寺市","address":"国分寺市東戸倉2-10-34","lat":35.711662,"lon":139.464127},{"name":"たけのこ","province":"東京都","city":"国分寺市","address":"国分寺市戸倉1-8-43千歳サンライズ107","lat":35.709513,"lon":139.461933},{"name":"「ツリーハウス」","province":"東京都","city":"国分寺市","address":"国分寺市戸倉1-23-3","lat":35.711971,"lon":139.461277},{"name":"「ツリーハウス」Ｌｉｋｏ","province":"東京都","city":"国分寺市","address":"国分寺市戸倉3-46-7","lat":35.710182,"lon":139.451128},{"name":"ハッピーテラス国分寺","province":"東京都","city":"国分寺市","address":"国分寺市南町2-17-4国分寺南町ビューハイツ101号","lat":35.69987,"lon":139.483573},{"name":"放課後等デイサービス　ルーチェ","province":"東京都","city":"国分寺市","address":"国分寺市南町3-4-19京美ビル3階","lat":35.698009,"lon":139.479276},{"name":"福祉の杜とくら地域福祉事業所すてっぷ","province":"東京都","city":"国分寺市","address":"国分寺市富士本1-25-29","lat":35.703174,"lon":139.449815},{"name":"デイサービス事業クラブかたつむり","province":"東京都","city":"国分寺市","address":"国分寺市日吉町4-29-12","lat":35.705732,"lon":139.460078},{"name":"メリーランド国分寺","province":"東京都","city":"国分寺市","address":"国分寺市西町二丁目2番3号第五東財ビル3階","lat":35.705412,"lon":139.439055},{"name":"国分寺市子ども家庭支援センター","province":"東京都","city":"国分寺市","address":"国分寺市光町3-13-20","lat":35.707698,"lon":139.442757},{"name":"国分寺市子ども家庭支援センター","province":"東京都","city":"国分寺市","address":"国分寺市光町3-13-20","lat":35.708,"lon":139.44296},{"name":"＊?男女平等推進センター(ひかりプラザ内)","province":"東京都","city":"国分寺市","address":"東京都国分寺市光町1-46-8","lat":35.70258,"lon":139.444651},{"name":"労働相談情報センター国分寺事務所","province":"東京都","city":"国分寺市","address":"東京都国分寺市南町3丁目22-10","lat":35.69871697,"lon":139.47803747},{"name":"国分寺高等学校","province":"東京都","city":"国分寺市","address":"東京都国分寺市新町3丁目2-5","lat":35.71226464,"lon":139.4477841},{"name":"ＥＴ教室","province":"東京都","city":"国分寺市","address":"国分寺市東戸倉2-10-34","lat":35.711662,"lon":139.464127},{"name":"たけのこ","province":"東京都","city":"国分寺市","address":"国分寺市戸倉1-8-43千歳サンライズ107","lat":35.709513,"lon":139.461933},{"name":"「ツリーハウス」","province":"東京都","city":"国分寺市","address":"国分寺市戸倉1-23-3","lat":35.711971,"lon":139.461277},{"name":"「ツリーハウス」Ｌｉｋｏ","province":"東京都","city":"国分寺市","address":"国分寺市戸倉3-46-7","lat":35.710182,"lon":139.451128},{"name":"ハッピーテラス国分寺","province":"東京都","city":"国分寺市","address":"国分寺市南町2-17-4国分寺南町ビューハイツ101号","lat":35.69987,"lon":139.483573},{"name":"放課後等デイサービス　ルーチェ","province":"東京都","city":"国分寺市","address":"国分寺市南町3-4-19京美ビル3階","lat":35.698009,"lon":139.479276},{"name":"福祉の杜とくら地域福祉事業所すてっぷ","province":"東京都","city":"国分寺市","address":"国分寺市富士本1-25-29","lat":35.703174,"lon":139.449815},{"name":"デイサービス事業クラブかたつむり","province":"東京都","city":"国分寺市","address":"国分寺市日吉町4-29-12","lat":35.705732,"lon":139.460078},{"name":"メリーランド国分寺","province":"東京都","city":"国分寺市","address":"国分寺市西町二丁目2番3号第五東財ビル3階","lat":35.705412,"lon":139.439055},{"name":"国分寺市子ども家庭支援センター","province":"東京都","city":"国分寺市","address":"国分寺市光町3-13-20","lat":35.707698,"lon":139.442757},{"name":"国分寺市子ども家庭支援センター","province":"東京都","city":"国分寺市","address":"国分寺市光町3-13-20","lat":35.708,"lon":139.44296},{"name":"＊?男女平等推進センター(ひかりプラザ内)","province":"東京都","city":"国分寺市","address":"東京都国分寺市光町1-46-8","lat":35.70258,"lon":139.444651},{"name":"労働相談情報センター国分寺事務所","province":"東京都","city":"国分寺市","address":"東京都国分寺市南町3丁目22-10","lat":35.69871697,"lon":139.47803747},{"name":"国分寺高等学校","province":"東京都","city":"国分寺市","address":"東京都国分寺市新町3丁目2-5","lat":35.71226464,"lon":139.4477841},{"name":"ＥＴ教室","province":"東京都","city":"国分寺市","address":"国分寺市東戸倉2-10-34","lat":35.711662,"lon":139.464127},{"name":"たけのこ","province":"東京都","city":"国分寺市","address":"国分寺市戸倉1-8-43千歳サンライズ107","lat":35.709513,"lon":139.461933},{"name":"「ツリーハウス」","province":"東京都","city":"国分寺市","address":"国分寺市戸倉1-23-3","lat":35.711971,"lon":139.461277},{"name":"「ツリーハウス」Ｌｉｋｏ","province":"東京都","city":"国分寺市","address":"国分寺市戸倉3-46-7","lat":35.710182,"lon":139.451128},{"name":"ハッピーテラス国分寺","province":"東京都","city":"国分寺市","address":"国分寺市南町2-17-4国分寺南町ビューハイツ101号","lat":35.69987,"lon":139.483573},{"name":"放課後等デイサービス　ルーチェ","province":"東京都","city":"国分寺市","address":"国分寺市南町3-4-19京美ビル3階","lat":35.698009,"lon":139.479276},{"name":"福祉の杜とくら地域福祉事業所すてっぷ","province":"東京都","city":"国分寺市","address":"国分寺市富士本1-25-29","lat":35.703174,"lon":139.449815},{"name":"デイサービス事業クラブかたつむり","province":"東京都","city":"国分寺市","address":"国分寺市日吉町4-29-12","lat":35.705732,"lon":139.460078},{"name":"メリーランド国分寺","province":"東京都","city":"国分寺市","address":"国分寺市西町二丁目2番3号第五東財ビル3階","lat":35.705412,"lon":139.439055},{"name":"国分寺市子ども家庭支援センター","province":"東京都","city":"国分寺市","address":"国分寺市光町3-13-20","lat":35.707698,"lon":139.442757},{"name":"国分寺市子ども家庭支援センター","province":"東京都","city":"国分寺市","address":"国分寺市光町3-13-20","lat":35.708,"lon":139.44296},{"name":"＊?男女平等推進センター(ひかりプラザ内)","province":"東京都","city":"国分寺市","address":"東京都国分寺市光町1-46-8","lat":35.70258,"lon":139.444651},{"name":"労働相談情報センター国分寺事務所","province":"東京都","city":"国分寺市","address":"東京都国分寺市南町3丁目22-10","lat":35.69871697,"lon":139.47803747},{"name":"国分寺高等学校","province":"東京都","city":"国分寺市","address":"東京都国分寺市新町3丁目2-5","lat":35.71226464,"lon":139.4477841},{"name":"ＥＴ教室","province":"東京都","city":"国分寺市","address":"国分寺市東戸倉2-10-34","lat":35.711662,"lon":139.464127},{"name":"たけのこ","province":"東京都","city":"国分寺市","address":"国分寺市戸倉1-8-43千歳サンライズ107","lat":35.709513,"lon":139.461933},{"name":"「ツリーハウス」","province":"東京都","city":"国分寺市","address":"国分寺市戸倉1-23-3","lat":35.711971,"lon":139.461277},{"name":"「ツリーハウス」Ｌｉｋｏ","province":"東京都","city":"国分寺市","address":"国分寺市戸倉3-46-7","lat":35.710182,"lon":139.451128},{"name":"ハッピーテラス国分寺","province":"東京都","city":"国分寺市","address":"国分寺市南町2-17-4国分寺南町ビューハイツ101号","lat":35.69987,"lon":139.483573},{"name":"放課後等デイサービス　ルーチェ","province":"東京都","city":"国分寺市","address":"国分寺市南町3-4-19京美ビル3階","lat":35.698009,"lon":139.479276},{"name":"福祉の杜とくら地域福祉事業所すてっぷ","province":"東京都","city":"国分寺市","address":"国分寺市富士本1-25-29","lat":35.703174,"lon":139.449815},{"name":"デイサービス事業クラブかたつむり","province":"東京都","city":"国分寺市","address":"国分寺市日吉町4-29-12","lat":35.705732,"lon":139.460078},{"name":"メリーランド国分寺","province":"東京都","city":"国分寺市","address":"国分寺市西町二丁目2番3号第五東財ビル3階","lat":35.705412,"lon":139.439055},{"name":"国分寺市子ども家庭支援センター","province":"東京都","city":"国分寺市","address":"国分寺市光町3-13-20","lat":35.707698,"lon":139.442757},{"name":"国分寺市子ども家庭支援センター","province":"東京都","city":"国分寺市","address":"国分寺市光町3-13-20","lat":35.708,"lon":139.44296},{"name":"＊?男女平等推進センター(ひかりプラザ内)","province":"東京都","city":"国分寺市","address":"東京都国分寺市光町1-46-8","lat":35.70258,"lon":139.444651},{"name":"労働相談情報センター国分寺事務所","province":"東京都","city":"国分寺市","address":"東京都国分寺市南町3丁目22-10","lat":35.69871697,"lon":139.47803747},{"name":"国分寺高等学校","province":"東京都","city":"国分寺市","address":"東京都国分寺市新町3丁目2-5","lat":35.71226464,"lon":139.4477841},{"name":"ＥＴ教室","province":"東京都","city":"国分寺市","address":"国分寺市東戸倉2-10-34","lat":35.711662,"lon":139.464127},{"name":"たけのこ","province":"東京都","city":"国分寺市","address":"国分寺市戸倉1-8-43千歳サンライズ107","lat":35.709513,"lon":139.461933},{"name":"「ツリーハウス」","province":"東京都","city":"国分寺市","address":"国分寺市戸倉1-23-3","lat":35.711971,"lon":139.461277},{"name":"「ツリーハウス」Ｌｉｋｏ","province":"東京都","city":"国分寺市","address":"国分寺市戸倉3-46-7","lat":35.710182,"lon":139.451128},{"name":"ハッピーテラス国分寺","province":"東京都","city":"国分寺市","address":"国分寺市南町2-17-4国分寺南町ビューハイツ101号","lat":35.69987,"lon":139.483573},{"name":"放課後等デイサービス　ルーチェ","province":"東京都","city":"国分寺市","address":"国分寺市南町3-4-19京美ビル3階","lat":35.698009,"lon":139.479276},{"name":"福祉の杜とくら地域福祉事業所すてっぷ","province":"東京都","city":"国分寺市","address":"国分寺市富士本1-25-29","lat":35.703174,"lon":139.449815},{"name":"デイサービス事業クラブかたつむり","province":"東京都","city":"国分寺市","address":"国分寺市日吉町4-29-12","lat":35.705732,"lon":139.460078},{"name":"メリーランド国分寺","province":"東京都","city":"国分寺市","address":"国分寺市西町二丁目2番3号第五東財ビル3階","lat":35.705412,"lon":139.439055},{"name":"国分寺市子ども家庭支援センター","province":"東京都","city":"国分寺市","address":"国分寺市光町3-13-20","lat":35.707698,"lon":139.442757},{"name":"国分寺市子ども家庭支援センター","province":"東京都","city":"国分寺市","address":"国分寺市光町3-13-20","lat":35.708,"lon":139.44296},{"name":"＊?男女平等推進センター(ひかりプラザ内)","province":"東京都","city":"国分寺市","address":"東京都国分寺市光町1-46-8","lat":35.70258,"lon":139.444651},{"name":"労働相談情報センター国分寺事務所","province":"東京都","city":"国分寺市","address":"東京都国分寺市南町3丁目22-10","lat":35.69871697,"lon":139.47803747},{"name":"国分寺高等学校","province":"東京都","city":"国分寺市","address":"東京都国分寺市新町3丁目2-5","lat":35.71226464,"lon":139.4477841},{"name":"ＥＴ教室","province":"東京都","city":"国分寺市","address":"国分寺市東戸倉2-10-34","lat":35.711662,"lon":139.464127},{"name":"たけのこ","province":"東京都","city":"国分寺市","address":"国分寺市戸倉1-8-43千歳サンライズ107","lat":35.709513,"lon":139.461933},{"name":"「ツリーハウス」","province":"東京都","city":"国分寺市","address":"国分寺市戸倉1-23-3","lat":35.711971,"lon":139.461277},{"name":"「ツリーハウス」Ｌｉｋｏ","province":"東京都","city":"国分寺市","address":"国分寺市戸倉3-46-7","lat":35.710182,"lon":139.451128},{"name":"ハッピーテラス国分寺","province":"東京都","city":"国分寺市","address":"国分寺市南町2-17-4国分寺南町ビューハイツ101号","lat":35.69987,"lon":139.483573},{"name":"放課後等デイサービス　ルーチェ","province":"東京都","city":"国分寺市","address":"国分寺市南町3-4-19京美ビル3階","lat":35.698009,"lon":139.479276},{"name":"福祉の杜とくら地域福祉事業所すてっぷ","province":"東京都","city":"国分寺市","address":"国分寺市富士本1-25-29","lat":35.703174,"lon":139.449815},{"name":"デイサービス事業クラブかたつむり","province":"東京都","city":"国分寺市","address":"国分寺市日吉町4-29-12","lat":35.705732,"lon":139.460078},{"name":"メリーランド国分寺","province":"東京都","city":"国分寺市","address":"国分寺市西町二丁目2番3号第五東財ビル3階","lat":35.705412,"lon":139.439055},{"name":"国分寺市子ども家庭支援センター","province":"東京都","city":"国分寺市","address":"国分寺市光町3-13-20","lat":35.707698,"lon":139.442757},{"name":"国分寺市子ども家庭支援センター","province":"東京都","city":"国分寺市","address":"国分寺市光町3-13-20","lat":35.708,"lon":139.44296},{"name":"＊?男女平等推進センター(ひかりプラザ内)","province":"東京都","city":"国分寺市","address":"東京都国分寺市光町1-46-8","lat":35.70258,"lon":139.444651},{"name":"労働相談情報センター国分寺事務所","province":"東京都","city":"国分寺市","address":"東京都国分寺市南町3丁目22-10","lat":35.69871697,"lon":139.47803747},{"name":"国分寺高等学校","province":"東京都","city":"国分寺市","address":"東京都国分寺市新町3丁目2-5","lat":35.71226464,"lon":139.4477841},{"name":"ＥＴ教室","province":"東京都","city":"国分寺市","address":"国分寺市東戸倉2-10-34","lat":35.711662,"lon":139.464127},{"name":"たけのこ","province":"東京都","city":"国分寺市","address":"国分寺市戸倉1-8-43千歳サンライズ107","lat":35.709513,"lon":139.461933},{"name":"「ツリーハウス」","province":"東京都","city":"国分寺市","address":"国分寺市戸倉1-23-3","lat":35.711971,"lon":139.461277},{"name":"「ツリーハウス」Ｌｉｋｏ","province":"東京都","city":"国分寺市","address":"国分寺市戸倉3-46-7","lat":35.710182,"lon":139.451128},{"name":"ハッピーテラス国分寺","province":"東京都","city":"国分寺市","address":"国分寺市南町2-17-4国分寺南町ビューハイツ101号","lat":35.69987,"lon":139.483573},{"name":"放課後等デイサービス　ルーチェ","province":"東京都","city":"国分寺市","address":"国分寺市南町3-4-19京美ビル3階","lat":35.698009,"lon":139.479276},{"name":"福祉の杜とくら地域福祉事業所すてっぷ","province":"東京都","city":"国分寺市","address":"国分寺市富士本1-25-29","lat":35.703174,"lon":139.449815},{"name":"デイサービス事業クラブかたつむり","province":"東京都","city":"国分寺市","address":"国分寺市日吉町4-29-12","lat":35.705732,"lon":139.460078},{"name":"メリーランド国分寺","province":"東京都","city":"国分寺市","address":"国分寺市西町二丁目2番3号第五東財ビル3階","lat":35.705412,"lon":139.439055},{"name":"国分寺市子ども家庭支援センター","province":"東京都","city":"国分寺市","address":"国分寺市光町3-13-20","lat":35.707698,"lon":139.442757},{"name":"国分寺市子ども家庭支援センター","province":"東京都","city":"国分寺市","address":"国分寺市光町3-13-20","lat":35.708,"lon":139.44296},{"name":"＊?男女平等推進センター(ひかりプラザ内)","province":"東京都","city":"国分寺市","address":"東京都国分寺市光町1-46-8","lat":35.70258,"lon":139.444651},{"name":"労働相談情報センター国分寺事務所","province":"東京都","city":"国分寺市","address":"東京都国分寺市南町3丁目22-10","lat":35.69871697,"lon":139.47803747},{"name":"国分寺高等学校","province":"東京都","city":"国分寺市","address":"東京都国分寺市新町3丁目2-5","lat":35.71226464,"lon":139.4477841},{"name":"ＥＴ教室","province":"東京都","city":"国分寺市","address":"国分寺市東戸倉2-10-34","lat":35.711662,"lon":139.464127},{"name":"たけのこ","province":"東京都","city":"国分寺市","address":"国分寺市戸倉1-8-43千歳サンライズ107","lat":35.709513,"lon":139.461933},{"name":"「ツリーハウス」","province":"東京都","city":"国分寺市","address":"国分寺市戸倉1-23-3","lat":35.711971,"lon":139.461277},{"name":"「ツリーハウス」Ｌｉｋｏ","province":"東京都","city":"国分寺市","address":"国分寺市戸倉3-46-7","lat":35.710182,"lon":139.451128},{"name":"ハッピーテラス国分寺","province":"東京都","city":"国分寺市","address":"国分寺市南町2-17-4国分寺南町ビューハイツ101号","lat":35.69987,"lon":139.483573},{"name":"放課後等デイサービス　ルーチェ","province":"東京都","city":"国分寺市","address":"国分寺市南町3-4-19京美ビル3階","lat":35.698009,"lon":139.479276},{"name":"福祉の杜とくら地域福祉事業所すてっぷ","province":"東京都","city":"国分寺市","address":"国分寺市富士本1-25-29","lat":35.703174,"lon":139.449815},{"name":"デイサービス事業クラブかたつむり","province":"東京都","city":"国分寺市","address":"国分寺市日吉町4-29-12","lat":35.705732,"lon":139.460078},{"name":"メリーランド国分寺","province":"東京都","city":"国分寺市","address":"国分寺市西町二丁目2番3号第五東財ビル3階","lat":35.705412,"lon":139.439055},{"name":"国分寺市子ども家庭支援センター","province":"東京都","city":"国分寺市","address":"国分寺市光町3-13-20","lat":35.707698,"lon":139.442757},{"name":"国分寺市子ども家庭支援センター","province":"東京都","city":"国分寺市","address":"国分寺市光町3-13-20","lat":35.708,"lon":139.44296},{"name":"＊?男女平等推進センター(ひかりプラザ内)","province":"東京都","city":"国分寺市","address":"東京都国分寺市光町1-46-8","lat":35.70258,"lon":139.444651},{"name":"労働相談情報センター国分寺事務所","province":"東京都","city":"国分寺市","address":"東京都国分寺市南町3丁目22-10","lat":35.69871697,"lon":139.47803747},{"name":"国分寺高等学校","province":"東京都","city":"国分寺市","address":"東京都国分寺市新町3丁目2-5","lat":35.71226464,"lon":139.4477841},{"name":"ＥＴ教室","province":"東京都","city":"国分寺市","address":"国分寺市東戸倉2-10-34","lat":35.711662,"lon":139.464127},{"name":"たけのこ","province":"東京都","city":"国分寺市","address":"国分寺市戸倉1-8-43千歳サンライズ107","lat":35.709513,"lon":139.461933},{"name":"「ツリーハウス」","province":"東京都","city":"国分寺市","address":"国分寺市戸倉1-23-3","lat":35.711971,"lon":139.461277},{"name":"「ツリーハウス」Ｌｉｋｏ","province":"東京都","city":"国分寺市","address":"国分寺市戸倉3-46-7","lat":35.710182,"lon":139.451128},{"name":"ハッピーテラス国分寺","province":"東京都","city":"国分寺市","address":"国分寺市南町2-17-4国分寺南町ビューハイツ101号","lat":35.69987,"lon":139.483573},{"name":"放課後等デイサービス　ルーチェ","province":"東京都","city":"国分寺市","address":"国分寺市南町3-4-19京美ビル3階","lat":35.698009,"lon":139.479276},{"name":"福祉の杜とくら地域福祉事業所すてっぷ","province":"東京都","city":"国分寺市","address":"国分寺市富士本1-25-29","lat":35.703174,"lon":139.449815},{"name":"デイサービス事業クラブかたつむり","province":"東京都","city":"国分寺市","address":"国分寺市日吉町4-29-12","lat":35.705732,"lon":139.460078},{"name":"メリーランド国分寺","province":"東京都","city":"国分寺市","address":"国分寺市西町二丁目2番3号第五東財ビル3階","lat":35.705412,"lon":139.439055},{"name":"国分寺市子ども家庭支援センター","province":"東京都","city":"国分寺市","address":"国分寺市光町3-13-20","lat":35.707698,"lon":139.442757},{"name":"国分寺市子ども家庭支援センター","province":"東京都","city":"国分寺市","address":"国分寺市光町3-13-20","lat":35.708,"lon":139.44296},{"name":"＊?男女平等推進センター(ひかりプラザ内)","province":"東京都","city":"国分寺市","address":"東京都国分寺市光町1-46-8","lat":35.70258,"lon":139.444651},{"name":"労働相談情報センター国分寺事務所","province":"東京都","city":"国分寺市","address":"東京都国分寺市南町3丁目22-10","lat":35.69871697,"lon":139.47803747},{"name":"国分寺高等学校","province":"東京都","city":"国分寺市","address":"東京都国分寺市新町3丁目2-5","lat":35.71226464,"lon":139.4477841},{"name":"ＥＴ教室","province":"東京都","city":"国分寺市","address":"国分寺市東戸倉2-10-34","lat":35.711662,"lon":139.464127},{"name":"たけのこ","province":"東京都","city":"国分寺市","address":"国分寺市戸倉1-8-43千歳サンライズ107","lat":35.709513,"lon":139.461933},{"name":"「ツリーハウス」","province":"東京都","city":"国分寺市","address":"国分寺市戸倉1-23-3","lat":35.711971,"lon":139.461277},{"name":"「ツリーハウス」Ｌｉｋｏ","province":"東京都","city":"国分寺市","address":"国分寺市戸倉3-46-7","lat":35.710182,"lon":139.451128},{"name":"ハッピーテラス国分寺","province":"東京都","city":"国分寺市","address":"国分寺市南町2-17-4国分寺南町ビューハイツ101号","lat":35.69987,"lon":139.483573},{"name":"放課後等デイサービス　ルーチェ","province":"東京都","city":"国分寺市","address":"国分寺市南町3-4-19京美ビル3階","lat":35.698009,"lon":139.479276},{"name":"福祉の杜とくら地域福祉事業所すてっぷ","province":"東京都","city":"国分寺市","address":"国分寺市富士本1-25-29","lat":35.703174,"lon":139.449815},{"name":"デイサービス事業クラブかたつむり","province":"東京都","city":"国分寺市","address":"国分寺市日吉町4-29-12","lat":35.705732,"lon":139.460078},{"name":"メリーランド国分寺","province":"東京都","city":"国分寺市","address":"国分寺市西町二丁目2番3号第五東財ビル3階","lat":35.705412,"lon":139.439055},{"name":"国分寺市子ども家庭支援センター","province":"東京都","city":"国分寺市","address":"国分寺市光町3-13-20","lat":35.707698,"lon":139.442757},{"name":"国分寺市子ども家庭支援センター","province":"東京都","city":"国分寺市","address":"国分寺市光町3-13-20","lat":35.708,"lon":139.44296},{"name":"＊?男女平等推進センター(ひかりプラザ内)","province":"東京都","city":"国分寺市","address":"東京都国分寺市光町1-46-8","lat":35.70258,"lon":139.444651},{"name":"労働相談情報センター国分寺事務所","province":"東京都","city":"国分寺市","address":"東京都国分寺市南町3丁目22-10","lat":35.69871697,"lon":139.47803747},{"name":"国分寺高等学校","province":"東京都","city":"国分寺市","address":"東京都国分寺市新町3丁目2-5","lat":35.71226464,"lon":139.4477841},{"name":"ＥＴ教室","province":"東京都","city":"国分寺市","address":"国分寺市東戸倉2-10-34","lat":35.711662,"lon":139.464127},{"name":"たけのこ","province":"東京都","city":"国分寺市","address":"国分寺市戸倉1-8-43千歳サンライズ107","lat":35.709513,"lon":139.461933},{"name":"「ツリーハウス」","province":"東京都","city":"国分寺市","address":"国分寺市戸倉1-23-3","lat":35.711971,"lon":139.461277},{"name":"「ツリーハウス」Ｌｉｋｏ","province":"東京都","city":"国分寺市","address":"国分寺市戸倉3-46-7","lat":35.710182,"lon":139.451128},{"name":"ハッピーテラス国分寺","province":"東京都","city":"国分寺市","address":"国分寺市南町2-17-4国分寺南町ビューハイツ101号","lat":35.69987,"lon":139.483573},{"name":"放課後等デイサービス　ルーチェ","province":"東京都","city":"国分寺市","address":"国分寺市南町3-4-19京美ビル3階","lat":35.698009,"lon":139.479276},{"name":"福祉の杜とくら地域福祉事業所すてっぷ","province":"東京都","city":"国分寺市","address":"国分寺市富士本1-25-29","lat":35.703174,"lon":139.449815},{"name":"デイサービス事業クラブかたつむり","province":"東京都","city":"国分寺市","address":"国分寺市日吉町4-29-12","lat":35.705732,"lon":139.460078},{"name":"メリーランド国分寺","province":"東京都","city":"国分寺市","address":"国分寺市西町二丁目2番3号第五東財ビル3階","lat":35.705412,"lon":139.439055},{"name":"国分寺市子ども家庭支援センター","province":"東京都","city":"国分寺市","address":"国分寺市光町3-13-20","lat":35.707698,"lon":139.442757},{"name":"国分寺市子ども家庭支援センター","province":"東京都","city":"国分寺市","address":"国分寺市光町3-13-20","lat":35.708,"lon":139.44296},{"name":"＊?男女平等推進センター(ひかりプラザ内)","province":"東京都","city":"国分寺市","address":"東京都国分寺市光町1-46-8","lat":35.70258,"lon":139.444651},{"name":"労働相談情報センター国分寺事務所","province":"東京都","city":"国分寺市","address":"東京都国分寺市南町3丁目22-10","lat":35.69871697,"lon":139.47803747},{"name":"国分寺高等学校","province":"東京都","city":"国分寺市","address":"東京都国分寺市新町3丁目2-5","lat":35.71226464,"lon":139.4477841},{"name":"ＥＴ教室","province":"東京都","city":"国分寺市","address":"国分寺市東戸倉2-10-34","lat":35.711662,"lon":139.464127},{"name":"たけのこ","province":"東京都","city":"国分寺市","address":"国分寺市戸倉1-8-43千歳サンライズ107","lat":35.709513,"lon":139.461933},{"name":"「ツリーハウス」","province":"東京都","city":"国分寺市","address":"国分寺市戸倉1-23-3","lat":35.711971,"lon":139.461277},{"name":"「ツリーハウス」Ｌｉｋｏ","province":"東京都","city":"国分寺市","address":"国分寺市戸倉3-46-7","lat":35.710182,"lon":139.451128},{"name":"ハッピーテラス国分寺","province":"東京都","city":"国分寺市","address":"国分寺市南町2-17-4国分寺南町ビューハイツ101号","lat":35.69987,"lon":139.483573},{"name":"放課後等デイサービス　ルーチェ","province":"東京都","city":"国分寺市","address":"国分寺市南町3-4-19京美ビル3階","lat":35.698009,"lon":139.479276},{"name":"福祉の杜とくら地域福祉事業所すてっぷ","province":"東京都","city":"国分寺市","address":"国分寺市富士本1-25-29","lat":35.703174,"lon":139.449815},{"name":"デイサービス事業クラブかたつむり","province":"東京都","city":"国分寺市","address":"国分寺市日吉町4-29-12","lat":35.705732,"lon":139.460078},{"name":"メリーランド国分寺","province":"東京都","city":"国分寺市","address":"国分寺市西町二丁目2番3号第五東財ビル3階","lat":35.705412,"lon":139.439055},{"name":"国分寺市子ども家庭支援センター","province":"東京都","city":"国分寺市","address":"国分寺市光町3-13-20","lat":35.707698,"lon":139.442757},{"name":"国分寺市子ども家庭支援センター","province":"東京都","city":"国分寺市","address":"国分寺市光町3-13-20","lat":35.708,"lon":139.44296},{"name":"＊?男女平等推進センター(ひかりプラザ内)","province":"東京都","city":"国分寺市","address":"東京都国分寺市光町1-46-8","lat":35.70258,"lon":139.444651},{"name":"労働相談情報センター国分寺事務所","province":"東京都","city":"国分寺市","address":"東京都国分寺市南町3丁目22-10","lat":35.69871697,"lon":139.47803747},{"name":"国分寺高等学校","province":"東京都","city":"国分寺市","address":"東京都国分寺市新町3丁目2-5","lat":35.71226464,"lon":139.4477841},{"name":"ＥＴ教室","province":"東京都","city":"国分寺市","address":"国分寺市東戸倉2-10-34","lat":35.711662,"lon":139.464127},{"name":"たけのこ","province":"東京都","city":"国分寺市","address":"国分寺市戸倉1-8-43千歳サンライズ107","lat":35.709513,"lon":139.461933},{"name":"「ツリーハウス」","province":"東京都","city":"国分寺市","address":"国分寺市戸倉1-23-3","lat":35.711971,"lon":139.461277},{"name":"「ツリーハウス」Ｌｉｋｏ","province":"東京都","city":"国分寺市","address":"国分寺市戸倉3-46-7","lat":35.710182,"lon":139.451128},{"name":"ハッピーテラス国分寺","province":"東京都","city":"国分寺市","address":"国分寺市南町2-17-4国分寺南町ビューハイツ101号","lat":35.69987,"lon":139.483573},{"name":"放課後等デイサービス　ルーチェ","province":"東京都","city":"国分寺市","address":"国分寺市南町3-4-19京美ビル3階","lat":35.698009,"lon":139.479276},{"name":"福祉の杜とくら地域福祉事業所すてっぷ","province":"東京都","city":"国分寺市","address":"国分寺市富士本1-25-29","lat":35.703174,"lon":139.449815},{"name":"デイサービス事業クラブかたつむり","province":"東京都","city":"国分寺市","address":"国分寺市日吉町4-29-12","lat":35.705732,"lon":139.460078},{"name":"メリーランド国分寺","province":"東京都","city":"国分寺市","address":"国分寺市西町二丁目2番3号第五東財ビル3階","lat":35.705412,"lon":139.439055},{"name":"国分寺市子ども家庭支援センター","province":"東京都","city":"国分寺市","address":"国分寺市光町3-13-20","lat":35.707698,"lon":139.442757},{"name":"国分寺市子ども家庭支援センター","province":"東京都","city":"国分寺市","address":"国分寺市光町3-13-20","lat":35.708,"lon":139.44296},{"name":"＊?男女平等推進センター(ひかりプラザ内)","province":"東京都","city":"国分寺市","address":"東京都国分寺市光町1-46-8","lat":35.70258,"lon":139.444651},{"name":"労働相談情報センター国分寺事務所","province":"東京都","city":"国分寺市","address":"東京都国分寺市南町3丁目22-10","lat":35.69871697,"lon":139.47803747},{"name":"国分寺高等学校","province":"東京都","city":"国分寺市","address":"東京都国分寺市新町3丁目2-5","lat":35.71226464,"lon":139.4477841},{"name":"ＥＴ教室","province":"東京都","city":"国分寺市","address":"国分寺市東戸倉2-10-34","lat":35.711662,"lon":139.464127},{"name":"たけのこ","province":"東京都","city":"国分寺市","address":"国分寺市戸倉1-8-43千歳サンライズ107","lat":35.709513,"lon":139.461933},{"name":"「ツリーハウス」","province":"東京都","city":"国分寺市","address":"国分寺市戸倉1-23-3","lat":35.711971,"lon":139.461277},{"name":"「ツリーハウス」Ｌｉｋｏ","province":"東京都","city":"国分寺市","address":"国分寺市戸倉3-46-7","lat":35.710182,"lon":139.451128},{"name":"ハッピーテラス国分寺","province":"東京都","city":"国分寺市","address":"国分寺市南町2-17-4国分寺南町ビューハイツ101号","lat":35.69987,"lon":139.483573},{"name":"放課後等デイサービス　ルーチェ","province":"東京都","city":"国分寺市","address":"国分寺市南町3-4-19京美ビル3階","lat":35.698009,"lon":139.479276},{"name":"福祉の杜とくら地域福祉事業所すてっぷ","province":"東京都","city":"国分寺市","address":"国分寺市富士本1-25-29","lat":35.703174,"lon":139.449815},{"name":"デイサービス事業クラブかたつむり","province":"東京都","city":"国分寺市","address":"国分寺市日吉町4-29-12","lat":35.705732,"lon":139.460078},{"name":"メリーランド国分寺","province":"東京都","city":"国分寺市","address":"国分寺市西町二丁目2番3号第五東財ビル3階","lat":35.705412,"lon":139.439055},{"name":"国分寺市子ども家庭支援センター","province":"東京都","city":"国分寺市","address":"国分寺市光町3-13-20","lat":35.707698,"lon":139.442757},{"name":"国分寺市子ども家庭支援センター","province":"東京都","city":"国分寺市","address":"国分寺市光町3-13-20","lat":35.708,"lon":139.44296},{"name":"＊?男女平等推進センター(ひかりプラザ内)","province":"東京都","city":"国分寺市","address":"東京都国分寺市光町1-46-8","lat":35.70258,"lon":139.444651},{"name":"労働相談情報センター国分寺事務所","province":"東京都","city":"国分寺市","address":"東京都国分寺市南町3丁目22-10","lat":35.69871697,"lon":139.47803747},{"name":"国分寺高等学校","province":"東京都","city":"国分寺市","address":"東京都国分寺市新町3丁目2-5","lat":35.71226464,"lon":139.4477841},{"name":"ＥＴ教室","province":"東京都","city":"国分寺市","address":"国分寺市東戸倉2-10-34","lat":35.711662,"lon":139.464127},{"name":"たけのこ","province":"東京都","city":"国分寺市","address":"国分寺市戸倉1-8-43千歳サンライズ107","lat":35.709513,"lon":139.461933},{"name":"「ツリーハウス」","province":"東京都","city":"国分寺市","address":"国分寺市戸倉1-23-3","lat":35.711971,"lon":139.461277},{"name":"「ツリーハウス」Ｌｉｋｏ","province":"東京都","city":"国分寺市","address":"国分寺市戸倉3-46-7","lat":35.710182,"lon":139.451128},{"name":"ハッピーテラス国分寺","province":"東京都","city":"国分寺市","address":"国分寺市南町2-17-4国分寺南町ビューハイツ101号","lat":35.69987,"lon":139.483573},{"name":"放課後等デイサービス　ルーチェ","province":"東京都","city":"国分寺市","address":"国分寺市南町3-4-19京美ビル3階","lat":35.698009,"lon":139.479276},{"name":"福祉の杜とくら地域福祉事業所すてっぷ","province":"東京都","city":"国分寺市","address":"国分寺市富士本1-25-29","lat":35.703174,"lon":139.449815},{"name":"デイサービス事業クラブかたつむり","province":"東京都","city":"国分寺市","address":"国分寺市日吉町4-29-12","lat":35.705732,"lon":139.460078},{"name":"メリーランド国分寺","province":"東京都","city":"国分寺市","address":"国分寺市西町二丁目2番3号第五東財ビル3階","lat":35.705412,"lon":139.439055},{"name":"国分寺市子ども家庭支援センター","province":"東京都","city":"国分寺市","address":"国分寺市光町3-13-20","lat":35.707698,"lon":139.442757},{"name":"国分寺市子ども家庭支援センター","province":"東京都","city":"国分寺市","address":"国分寺市光町3-13-20","lat":35.708,"lon":139.44296},{"name":"＊?男女平等推進センター(ひかりプラザ内)","province":"東京都","city":"国分寺市","address":"東京都国分寺市光町1-46-8","lat":35.70258,"lon":139.444651},{"name":"ＥＴ教室","province":"東京都","city":"国分寺市","address":"国分寺市東戸倉2-10-34","lat":35.711662,"lon":139.464127},{"name":"たけのこ","province":"東京都","city":"国分寺市","address":"国分寺市戸倉1-8-43千歳サンライズ107","lat":35.709513,"lon":139.461933},{"name":"「ツリーハウス」","province":"東京都","city":"国分寺市","address":"国分寺市戸倉1-23-3","lat":35.711971,"lon":139.461277},{"name":"「ツリーハウス」Ｌｉｋｏ","province":"東京都","city":"国分寺市","address":"国分寺市戸倉3-46-7","lat":35.710182,"lon":139.451128},{"name":"ハッピーテラス国分寺","province":"東京都","city":"国分寺市","address":"国分寺市南町2-17-4国分寺南町ビューハイツ101号","lat":35.69987,"lon":139.483573},{"name":"放課後等デイサービス　ルーチェ","province":"東京都","city":"国分寺市","address":"国分寺市南町3-4-19京美ビル3階","lat":35.698009,"lon":139.479276},{"name":"福祉の杜とくら地域福祉事業所すてっぷ","province":"東京都","city":"国分寺市","address":"国分寺市富士本1-25-29","lat":35.703174,"lon":139.449815},{"name":"デイサービス事業クラブかたつむり","province":"東京都","city":"国分寺市","address":"国分寺市日吉町4-29-12","lat":35.705732,"lon":139.460078},{"name":"メリーランド国分寺","province":"東京都","city":"国分寺市","address":"国分寺市西町二丁目2番3号第五東財ビル3階","lat":35.705412,"lon":139.439055},{"name":"国分寺市子ども家庭支援センター","province":"東京都","city":"国分寺市","address":"国分寺市光町3-13-20","lat":35.707698,"lon":139.442757},{"name":"国分寺市子ども家庭支援センター","province":"東京都","city":"国分寺市","address":"国分寺市光町3-13-20","lat":35.708,"lon":139.44296},{"name":"＊?男女平等推進センター(ひかりプラザ内)","province":"東京都","city":"国分寺市","address":"東京都国分寺市光町1-46-8","lat":35.70258,"lon":139.444651},{"name":"ＥＴ教室","province":"東京都","city":"国分寺市","address":"国分寺市東戸倉2-10-34","lat":35.711662,"lon":139.464127},{"name":"たけのこ","province":"東京都","city":"国分寺市","address":"国分寺市戸倉1-8-43千歳サンライズ107","lat":35.709513,"lon":139.461933},{"name":"「ツリーハウス」","province":"東京都","city":"国分寺市","address":"国分寺市戸倉1-23-3","lat":35.711971,"lon":139.461277},{"name":"「ツリーハウス」Ｌｉｋｏ","province":"東京都","city":"国分寺市","address":"国分寺市戸倉3-46-7","lat":35.710182,"lon":139.451128},{"name":"ハッピーテラス国分寺","province":"東京都","city":"国分寺市","address":"国分寺市南町2-17-4国分寺南町ビューハイツ101号","lat":35.69987,"lon":139.483573},{"name":"放課後等デイサービス　ルーチェ","province":"東京都","city":"国分寺市","address":"国分寺市南町3-4-19京美ビル3階","lat":35.698009,"lon":139.479276},{"name":"福祉の杜とくら地域福祉事業所すてっぷ","province":"東京都","city":"国分寺市","address":"国分寺市富士本1-25-29","lat":35.703174,"lon":139.449815},{"name":"デイサービス事業クラブかたつむり","province":"東京都","city":"国分寺市","address":"国分寺市日吉町4-29-12","lat":35.705732,"lon":139.460078},{"name":"メリーランド国分寺","province":"東京都","city":"国分寺市","address":"国分寺市西町二丁目2番3号第五東財ビル3階","lat":35.705412,"lon":139.439055},{"name":"国分寺市子ども家庭支援センター","province":"東京都","city":"国分寺市","address":"国分寺市光町3-13-20","lat":35.707698,"lon":139.442757},{"name":"国分寺市子ども家庭支援センター","province":"東京都","city":"国分寺市","address":"国分寺市光町3-13-20","lat":35.708,"lon":139.44296},{"name":"＊?男女平等推進センター(ひかりプラザ内)","province":"東京都","city":"国分寺市","address":"東京都国分寺市光町1-46-8","lat":35.70258,"lon":139.444651},{"name":"ＥＴ教室","province":"東京都","city":"国分寺市","address":"国分寺市東戸倉2-10-34","lat":35.711662,"lon":139.464127},{"name":"たけのこ","province":"東京都","city":"国分寺市","address":"国分寺市戸倉1-8-43千歳サンライズ107","lat":35.709513,"lon":139.461933},{"name":"「ツリーハウス」","province":"東京都","city":"国分寺市","address":"国分寺市戸倉1-23-3","lat":35.711971,"lon":139.461277},{"name":"「ツリーハウス」Ｌｉｋｏ","province":"東京都","city":"国分寺市","address":"国分寺市戸倉3-46-7","lat":35.710182,"lon":139.451128},{"name":"ハッピーテラス国分寺","province":"東京都","city":"国分寺市","address":"国分寺市南町2-17-4国分寺南町ビューハイツ101号","lat":35.69987,"lon":139.483573},{"name":"放課後等デイサービス　ルーチェ","province":"東京都","city":"国分寺市","address":"国分寺市南町3-4-19京美ビル3階","lat":35.698009,"lon":139.479276},{"name":"福祉の杜とくら地域福祉事業所すてっぷ","province":"東京都","city":"国分寺市","address":"国分寺市富士本1-25-29","lat":35.703174,"lon":139.449815},{"name":"デイサービス事業クラブかたつむり","province":"東京都","city":"国分寺市","address":"国分寺市日吉町4-29-12","lat":35.705732,"lon":139.460078},{"name":"メリーランド国分寺","province":"東京都","city":"国分寺市","address":"国分寺市西町二丁目2番3号第五東財ビル3階","lat":35.705412,"lon":139.439055},{"name":"国分寺市子ども家庭支援センター","province":"東京都","city":"国分寺市","address":"国分寺市光町3-13-20","lat":35.707698,"lon":139.442757},{"name":"国分寺市子ども家庭支援センター","province":"東京都","city":"国分寺市","address":"国分寺市光町3-13-20","lat":35.708,"lon":139.44296},{"name":"＊?男女平等推進センター(ひかりプラザ内)","province":"東京都","city":"国分寺市","address":"東京都国分寺市光町1-46-8","lat":35.70258,"lon":139.444651},{"name":"ＥＴ教室","province":"東京都","city":"国分寺市","address":"国分寺市東戸倉2-10-34","lat":35.711662,"lon":139.464127},{"name":"たけのこ","province":"東京都","city":"国分寺市","address":"国分寺市戸倉1-8-43千歳サンライズ107","lat":35.709513,"lon":139.461933},{"name":"「ツリーハウス」","province":"東京都","city":"国分寺市","address":"国分寺市戸倉1-23-3","lat":35.711971,"lon":139.461277},{"name":"「ツリーハウス」Ｌｉｋｏ","province":"東京都","city":"国分寺市","address":"国分寺市戸倉3-46-7","lat":35.710182,"lon":139.451128},{"name":"ハッピーテラス国分寺","province":"東京都","city":"国分寺市","address":"国分寺市南町2-17-4国分寺南町ビューハイツ101号","lat":35.69987,"lon":139.483573},{"name":"放課後等デイサービス　ルーチェ","province":"東京都","city":"国分寺市","address":"国分寺市南町3-4-19京美ビル3階","lat":35.698009,"lon":139.479276},{"name":"福祉の杜とくら地域福祉事業所すてっぷ","province":"東京都","city":"国分寺市","address":"国分寺市富士本1-25-29","lat":35.703174,"lon":139.449815},{"name":"デイサービス事業クラブかたつむり","province":"東京都","city":"国分寺市","address":"国分寺市日吉町4-29-12","lat":35.705732,"lon":139.460078},{"name":"メリーランド国分寺","province":"東京都","city":"国分寺市","address":"国分寺市西町二丁目2番3号第五東財ビル3階","lat":35.705412,"lon":139.439055},{"name":"国分寺市子ども家庭支援センター","province":"東京都","city":"国分寺市","address":"国分寺市光町3-13-20","lat":35.707698,"lon":139.442757},{"name":"国分寺市子ども家庭支援センター","province":"東京都","city":"国分寺市","address":"国分寺市光町3-13-20","lat":35.708,"lon":139.44296},{"name":"＊?男女平等推進センター(ひかりプラザ内)","province":"東京都","city":"国分寺市","address":"東京都国分寺市光町1-46-8","lat":35.70258,"lon":139.444651},{"name":"ＥＴ教室","province":"東京都","city":"国分寺市","address":"国分寺市東戸倉2-10-34","lat":35.711662,"lon":139.464127},{"name":"たけのこ","province":"東京都","city":"国分寺市","address":"国分寺市戸倉1-8-43千歳サンライズ107","lat":35.709513,"lon":139.461933},{"name":"「ツリーハウス」","province":"東京都","city":"国分寺市","address":"国分寺市戸倉1-23-3","lat":35.711971,"lon":139.461277},{"name":"「ツリーハウス」Ｌｉｋｏ","province":"東京都","city":"国分寺市","address":"国分寺市戸倉3-46-7","lat":35.710182,"lon":139.451128},{"name":"ハッピーテラス国分寺","province":"東京都","city":"国分寺市","address":"国分寺市南町2-17-4国分寺南町ビューハイツ101号","lat":35.69987,"lon":139.483573},{"name":"放課後等デイサービス　ルーチェ","province":"東京都","city":"国分寺市","address":"国分寺市南町3-4-19京美ビル3階","lat":35.698009,"lon":139.479276},{"name":"福祉の杜とくら地域福祉事業所すてっぷ","province":"東京都","city":"国分寺市","address":"国分寺市富士本1-25-29","lat":35.703174,"lon":139.449815},{"name":"デイサービス事業クラブかたつむり","province":"東京都","city":"国分寺市","address":"国分寺市日吉町4-29-12","lat":35.705732,"lon":139.460078},{"name":"メリーランド国分寺","province":"東京都","city":"国分寺市","address":"国分寺市西町二丁目2番3号第五東財ビル3階","lat":35.705412,"lon":139.439055},{"name":"国分寺市子ども家庭支援センター","province":"東京都","city":"国分寺市","address":"国分寺市光町3-13-20","lat":35.707698,"lon":139.442757},{"name":"国分寺市子ども家庭支援センター","province":"東京都","city":"国分寺市","address":"国分寺市光町3-13-20","lat":35.708,"lon":139.44296},{"name":"＊?男女平等推進センター(ひかりプラザ内)","province":"東京都","city":"国分寺市","address":"東京都国分寺市光町1-46-8","lat":35.70258,"lon":139.444651},{"name":"ＥＴ教室","province":"東京都","city":"国分寺市","address":"国分寺市東戸倉2-10-34","lat":35.711662,"lon":139.464127},{"name":"たけのこ","province":"東京都","city":"国分寺市","address":"国分寺市戸倉1-8-43千歳サンライズ107","lat":35.709513,"lon":139.461933},{"name":"「ツリーハウス」","province":"東京都","city":"国分寺市","address":"国分寺市戸倉1-23-3","lat":35.711971,"lon":139.461277},{"name":"「ツリーハウス」Ｌｉｋｏ","province":"東京都","city":"国分寺市","address":"国分寺市戸倉3-46-7","lat":35.710182,"lon":139.451128},{"name":"ハッピーテラス国分寺","province":"東京都","city":"国分寺市","address":"国分寺市南町2-17-4国分寺南町ビューハイツ101号","lat":35.69987,"lon":139.483573},{"name":"放課後等デイサービス　ルーチェ","province":"東京都","city":"国分寺市","address":"国分寺市南町3-4-19京美ビル3階","lat":35.698009,"lon":139.479276},{"name":"福祉の杜とくら地域福祉事業所すてっぷ","province":"東京都","city":"国分寺市","address":"国分寺市富士本1-25-29","lat":35.703174,"lon":139.449815},{"name":"デイサービス事業クラブかたつむり","province":"東京都","city":"国分寺市","address":"国分寺市日吉町4-29-12","lat":35.705732,"lon":139.460078},{"name":"メリーランド国分寺","province":"東京都","city":"国分寺市","address":"国分寺市西町二丁目2番3号第五東財ビル3階","lat":35.705412,"lon":139.439055},{"name":"国分寺市子ども家庭支援センター","province":"東京都","city":"国分寺市","address":"国分寺市光町3-13-20","lat":35.707698,"lon":139.442757},{"name":"国分寺市子ども家庭支援センター","province":"東京都","city":"国分寺市","address":"国分寺市光町3-13-20","lat":35.708,"lon":139.44296},{"name":"＊?男女平等推進センター(ひかりプラザ内)","province":"東京都","city":"国分寺市","address":"東京都国分寺市光町1-46-8","lat":35.70258,"lon":139.444651},{"name":"ＥＴ教室","province":"東京都","city":"国分寺市","address":"国分寺市東戸倉2-10-34","lat":35.711662,"lon":139.464127},{"name":"たけのこ","province":"東京都","city":"国分寺市","address":"国分寺市戸倉1-8-43千歳サンライズ107","lat":35.709513,"lon":139.461933},{"name":"「ツリーハウス」","province":"東京都","city":"国分寺市","address":"国分寺市戸倉1-23-3","lat":35.711971,"lon":139.461277},{"name":"「ツリーハウス」Ｌｉｋｏ","province":"東京都","city":"国分寺市","address":"国分寺市戸倉3-46-7","lat":35.710182,"lon":139.451128},{"name":"ハッピーテラス国分寺","province":"東京都","city":"国分寺市","address":"国分寺市南町2-17-4国分寺南町ビューハイツ101号","lat":35.69987,"lon":139.483573},{"name":"放課後等デイサービス　ルーチェ","province":"東京都","city":"国分寺市","address":"国分寺市南町3-4-19京美ビル3階","lat":35.698009,"lon":139.479276},{"name":"福祉の杜とくら地域福祉事業所すてっぷ","province":"東京都","city":"国分寺市","address":"国分寺市富士本1-25-29","lat":35.703174,"lon":139.449815},{"name":"デイサービス事業クラブかたつむり","province":"東京都","city":"国分寺市","address":"国分寺市日吉町4-29-12","lat":35.705732,"lon":139.460078},{"name":"メリーランド国分寺","province":"東京都","city":"国分寺市","address":"国分寺市西町二丁目2番3号第五東財ビル3階","lat":35.705412,"lon":139.439055},{"name":"国分寺市子ども家庭支援センター","province":"東京都","city":"国分寺市","address":"国分寺市光町3-13-20","lat":35.707698,"lon":139.442757},{"name":"国分寺市子ども家庭支援センター","province":"東京都","city":"国分寺市","address":"国分寺市光町3-13-20","lat":35.708,"lon":139.44296},{"name":"＊?男女平等推進センター(ひかりプラザ内)","province":"東京都","city":"国分寺市","address":"東京都国分寺市光町1-46-8","lat":35.70258,"lon":139.444651},{"name":"ＥＴ教室","province":"東京都","city":"国分寺市","address":"国分寺市東戸倉2-10-34","lat":35.711662,"lon":139.464127},{"name":"たけのこ","province":"東京都","city":"国分寺市","address":"国分寺市戸倉1-8-43千歳サンライズ107","lat":35.709513,"lon":139.461933},{"name":"「ツリーハウス」","province":"東京都","city":"国分寺市","address":"国分寺市戸倉1-23-3","lat":35.711971,"lon":139.461277},{"name":"「ツリーハウス」Ｌｉｋｏ","province":"東京都","city":"国分寺市","address":"国分寺市戸倉3-46-7","lat":35.710182,"lon":139.451128},{"name":"ハッピーテラス国分寺","province":"東京都","city":"国分寺市","address":"国分寺市南町2-17-4国分寺南町ビューハイツ101号","lat":35.69987,"lon":139.483573},{"name":"放課後等デイサービス　ルーチェ","province":"東京都","city":"国分寺市","address":"国分寺市南町3-4-19京美ビル3階","lat":35.698009,"lon":139.479276},{"name":"福祉の杜とくら地域福祉事業所すてっぷ","province":"東京都","city":"国分寺市","address":"国分寺市富士本1-25-29","lat":35.703174,"lon":139.449815},{"name":"デイサービス事業クラブかたつむり","province":"東京都","city":"国分寺市","address":"国分寺市日吉町4-29-12","lat":35.705732,"lon":139.460078},{"name":"メリーランド国分寺","province":"東京都","city":"国分寺市","address":"国分寺市西町二丁目2番3号第五東財ビル3階","lat":35.705412,"lon":139.439055},{"name":"国分寺市子ども家庭支援センター","province":"東京都","city":"国分寺市","address":"国分寺市光町3-13-20","lat":35.707698,"lon":139.442757},{"name":"国分寺市子ども家庭支援センター","province":"東京都","city":"国分寺市","address":"国分寺市光町3-13-20","lat":35.708,"lon":139.44296},{"name":"＊?男女平等推進センター(ひかりプラザ内)","province":"東京都","city":"国分寺市","address":"東京都国分寺市光町1-46-8","lat":35.70258,"lon":139.444651},{"name":"ＥＴ教室","province":"東京都","city":"国分寺市","address":"国分寺市東戸倉2-10-34","lat":35.711662,"lon":139.464127},{"name":"たけのこ","province":"東京都","city":"国分寺市","address":"国分寺市戸倉1-8-43千歳サンライズ107","lat":35.709513,"lon":139.461933},{"name":"「ツリーハウス」","province":"東京都","city":"国分寺市","address":"国分寺市戸倉1-23-3","lat":35.711971,"lon":139.461277},{"name":"「ツリーハウス」Ｌｉｋｏ","province":"東京都","city":"国分寺市","address":"国分寺市戸倉3-46-7","lat":35.710182,"lon":139.451128},{"name":"ハッピーテラス国分寺","province":"東京都","city":"国分寺市","address":"国分寺市南町2-17-4国分寺南町ビューハイツ101号","lat":35.69987,"lon":139.483573},{"name":"放課後等デイサービス　ルーチェ","province":"東京都","city":"国分寺市","address":"国分寺市南町3-4-19京美ビル3階","lat":35.698009,"lon":139.479276},{"name":"福祉の杜とくら地域福祉事業所すてっぷ","province":"東京都","city":"国分寺市","address":"国分寺市富士本1-25-29","lat":35.703174,"lon":139.449815},{"name":"デイサービス事業クラブかたつむり","province":"東京都","city":"国分寺市","address":"国分寺市日吉町4-29-12","lat":35.705732,"lon":139.460078},{"name":"メリーランド国分寺","province":"東京都","city":"国分寺市","address":"国分寺市西町二丁目2番3号第五東財ビル3階","lat":35.705412,"lon":139.439055},{"name":"国分寺市子ども家庭支援センター","province":"東京都","city":"国分寺市","address":"国分寺市光町3-13-20","lat":35.707698,"lon":139.442757},{"name":"国分寺市子ども家庭支援センター","province":"東京都","city":"国分寺市","address":"国分寺市光町3-13-20","lat":35.708,"lon":139.44296},{"name":"＊?男女平等推進センター(ひかりプラザ内)","province":"東京都","city":"国分寺市","address":"東京都国分寺市光町1-46-8","lat":35.70258,"lon":139.444651},{"name":"ＥＴ教室","province":"東京都","city":"国分寺市","address":"国分寺市東戸倉2-10-34","lat":35.711662,"lon":139.464127},{"name":"たけのこ","province":"東京都","city":"国分寺市","address":"国分寺市戸倉1-8-43千歳サンライズ107","lat":35.709513,"lon":139.461933},{"name":"「ツリーハウス」","province":"東京都","city":"国分寺市","address":"国分寺市戸倉1-23-3","lat":35.711971,"lon":139.461277},{"name":"「ツリーハウス」Ｌｉｋｏ","province":"東京都","city":"国分寺市","address":"国分寺市戸倉3-46-7","lat":35.710182,"lon":139.451128},{"name":"ハッピーテラス国分寺","province":"東京都","city":"国分寺市","address":"国分寺市南町2-17-4国分寺南町ビューハイツ101号","lat":35.69987,"lon":139.483573},{"name":"放課後等デイサービス　ルーチェ","province":"東京都","city":"国分寺市","address":"国分寺市南町3-4-19京美ビル3階","lat":35.698009,"lon":139.479276},{"name":"福祉の杜とくら地域福祉事業所すてっぷ","province":"東京都","city":"国分寺市","address":"国分寺市富士本1-25-29","lat":35.703174,"lon":139.449815},{"name":"デイサービス事業クラブかたつむり","province":"東京都","city":"国分寺市","address":"国分寺市日吉町4-29-12","lat":35.705732,"lon":139.460078},{"name":"メリーランド国分寺","province":"東京都","city":"国分寺市","address":"国分寺市西町二丁目2番3号第五東財ビル3階","lat":35.705412,"lon":139.439055},{"name":"国分寺市子ども家庭支援センター","province":"東京都","city":"国分寺市","address":"国分寺市光町3-13-20","lat":35.707698,"lon":139.442757},{"name":"国分寺市子ども家庭支援センター","province":"東京都","city":"国分寺市","address":"国分寺市光町3-13-20","lat":35.708,"lon":139.44296},{"name":"＊?男女平等推進センター(ひかりプラザ内)","province":"東京都","city":"国分寺市","address":"東京都国分寺市光町1-46-8","lat":35.70258,"lon":139.444651},{"name":"ＥＴ教室","province":"東京都","city":"国分寺市","address":"国分寺市東戸倉2-10-34","lat":35.711662,"lon":139.464127},{"name":"たけのこ","province":"東京都","city":"国分寺市","address":"国分寺市戸倉1-8-43千歳サンライズ107","lat":35.709513,"lon":139.461933},{"name":"「ツリーハウス」","province":"東京都","city":"国分寺市","address":"国分寺市戸倉1-23-3","lat":35.711971,"lon":139.461277},{"name":"「ツリーハウス」Ｌｉｋｏ","province":"東京都","city":"国分寺市","address":"国分寺市戸倉3-46-7","lat":35.710182,"lon":139.451128},{"name":"ハッピーテラス国分寺","province":"東京都","city":"国分寺市","address":"国分寺市南町2-17-4国分寺南町ビューハイツ101号","lat":35.69987,"lon":139.483573},{"name":"放課後等デイサービス　ルーチェ","province":"東京都","city":"国分寺市","address":"国分寺市南町3-4-19京美ビル3階","lat":35.698009,"lon":139.479276},{"name":"福祉の杜とくら地域福祉事業所すてっぷ","province":"東京都","city":"国分寺市","address":"国分寺市富士本1-25-29","lat":35.703174,"lon":139.449815},{"name":"デイサービス事業クラブかたつむり","province":"東京都","city":"国分寺市","address":"国分寺市日吉町4-29-12","lat":35.705732,"lon":139.460078},{"name":"メリーランド国分寺","province":"東京都","city":"国分寺市","address":"国分寺市西町二丁目2番3号第五東財ビル3階","lat":35.705412,"lon":139.439055},{"name":"国分寺市子ども家庭支援センター","province":"東京都","city":"国分寺市","address":"国分寺市光町3-13-20","lat":35.707698,"lon":139.442757},{"name":"国分寺市子ども家庭支援センター","province":"東京都","city":"国分寺市","address":"国分寺市光町3-13-20","lat":35.708,"lon":139.44296},{"name":"＊?男女平等推進センター(ひかりプラザ内)","province":"東京都","city":"国分寺市","address":"東京都国分寺市光町1-46-8","lat":35.70258,"lon":139.444651},{"name":"ＥＴ教室","province":"東京都","city":"国分寺市","address":"国分寺市東戸倉2-10-34","lat":35.711662,"lon":139.464127},{"name":"たけのこ","province":"東京都","city":"国分寺市","address":"国分寺市戸倉1-8-43千歳サンライズ107","lat":35.709513,"lon":139.461933},{"name":"「ツリーハウス」","province":"東京都","city":"国分寺市","address":"国分寺市戸倉1-23-3","lat":35.711971,"lon":139.461277},{"name":"「ツリーハウス」Ｌｉｋｏ","province":"東京都","city":"国分寺市","address":"国分寺市戸倉3-46-7","lat":35.710182,"lon":139.451128},{"name":"ハッピーテラス国分寺","province":"東京都","city":"国分寺市","address":"国分寺市南町2-17-4国分寺南町ビューハイツ101号","lat":35.69987,"lon":139.483573},{"name":"放課後等デイサービス　ルーチェ","province":"東京都","city":"国分寺市","address":"国分寺市南町3-4-19京美ビル3階","lat":35.698009,"lon":139.479276},{"name":"福祉の杜とくら地域福祉事業所すてっぷ","province":"東京都","city":"国分寺市","address":"国分寺市富士本1-25-29","lat":35.703174,"lon":139.449815},{"name":"デイサービス事業クラブかたつむり","province":"東京都","city":"国分寺市","address":"国分寺市日吉町4-29-12","lat":35.705732,"lon":139.460078},{"name":"メリーランド国分寺","province":"東京都","city":"国分寺市","address":"国分寺市西町二丁目2番3号第五東財ビル3階","lat":35.705412,"lon":139.439055},{"name":"国分寺市子ども家庭支援センター","province":"東京都","city":"国分寺市","address":"国分寺市光町3-13-20","lat":35.707698,"lon":139.442757},{"name":"国分寺市子ども家庭支援センター","province":"東京都","city":"国分寺市","address":"国分寺市光町3-13-20","lat":35.708,"lon":139.44296},{"name":"＊?男女平等推進センター(ひかりプラザ内)","province":"東京都","city":"国分寺市","address":"東京都国分寺市光町1-46-8","lat":35.70258,"lon":139.444651},{"name":"ＥＴ教室","province":"東京都","city":"国分寺市","address":"国分寺市東戸倉2-10-34","lat":35.711662,"lon":139.464127},{"name":"たけのこ","province":"東京都","city":"国分寺市","address":"国分寺市戸倉1-8-43千歳サンライズ107","lat":35.709513,"lon":139.461933},{"name":"「ツリーハウス」","province":"東京都","city":"国分寺市","address":"国分寺市戸倉1-23-3","lat":35.711971,"lon":139.461277},{"name":"「ツリーハウス」Ｌｉｋｏ","province":"東京都","city":"国分寺市","address":"国分寺市戸倉3-46-7","lat":35.710182,"lon":139.451128},{"name":"ハッピーテラス国分寺","province":"東京都","city":"国分寺市","address":"国分寺市南町2-17-4国分寺南町ビューハイツ101号","lat":35.69987,"lon":139.483573},{"name":"放課後等デイサービス　ルーチェ","province":"東京都","city":"国分寺市","address":"国分寺市南町3-4-19京美ビル3階","lat":35.698009,"lon":139.479276},{"name":"福祉の杜とくら地域福祉事業所すてっぷ","province":"東京都","city":"国分寺市","address":"国分寺市富士本1-25-29","lat":35.703174,"lon":139.449815},{"name":"デイサービス事業クラブかたつむり","province":"東京都","city":"国分寺市","address":"国分寺市日吉町4-29-12","lat":35.705732,"lon":139.460078},{"name":"メリーランド国分寺","province":"東京都","city":"国分寺市","address":"国分寺市西町二丁目2番3号第五東財ビル3階","lat":35.705412,"lon":139.439055},{"name":"国分寺市子ども家庭支援センター","province":"東京都","city":"国分寺市","address":"国分寺市光町3-13-20","lat":35.707698,"lon":139.442757},{"name":"国分寺市子ども家庭支援センター","province":"東京都","city":"国分寺市","address":"国分寺市光町3-13-20","lat":35.708,"lon":139.44296},{"name":"＊?男女平等推進センター(ひかりプラザ内)","province":"東京都","city":"国分寺市","address":"東京都国分寺市光町1-46-8","lat":35.70258,"lon":139.444651},{"name":"ＥＴ教室","province":"東京都","city":"国分寺市","address":"国分寺市東戸倉2-10-34","lat":35.711662,"lon":139.464127},{"name":"たけのこ","province":"東京都","city":"国分寺市","address":"国分寺市戸倉1-8-43千歳サンライズ107","lat":35.709513,"lon":139.461933},{"name":"「ツリーハウス」","province":"東京都","city":"国分寺市","address":"国分寺市戸倉1-23-3","lat":35.711971,"lon":139.461277},{"name":"「ツリーハウス」Ｌｉｋｏ","province":"東京都","city":"国分寺市","address":"国分寺市戸倉3-46-7","lat":35.710182,"lon":139.451128},{"name":"ハッピーテラス国分寺","province":"東京都","city":"国分寺市","address":"国分寺市南町2-17-4国分寺南町ビューハイツ101号","lat":35.69987,"lon":139.483573},{"name":"放課後等デイサービス　ルーチェ","province":"東京都","city":"国分寺市","address":"国分寺市南町3-4-19京美ビル3階","lat":35.698009,"lon":139.479276},{"name":"福祉の杜とくら地域福祉事業所すてっぷ","province":"東京都","city":"国分寺市","address":"国分寺市富士本1-25-29","lat":35.703174,"lon":139.449815},{"name":"デイサービス事業クラブかたつむり","province":"東京都","city":"国分寺市","address":"国分寺市日吉町4-29-12","lat":35.705732,"lon":139.460078},{"name":"メリーランド国分寺","province":"東京都","city":"国分寺市","address":"国分寺市西町二丁目2番3号第五東財ビル3階","lat":35.705412,"lon":139.439055},{"name":"国分寺市子ども家庭支援センター","province":"東京都","city":"国分寺市","address":"国分寺市光町3-13-20","lat":35.707698,"lon":139.442757},{"name":"国分寺市子ども家庭支援センター","province":"東京都","city":"国分寺市","address":"国分寺市光町3-13-20","lat":35.708,"lon":139.44296},{"name":"＊?男女平等推進センター(ひかりプラザ内)","province":"東京都","city":"国分寺市","address":"東京都国分寺市光町1-46-8","lat":35.70258,"lon":139.444651},{"name":"ＥＴ教室","province":"東京都","city":"国分寺市","address":"国分寺市東戸倉2-10-34","lat":35.711662,"lon":139.464127},{"name":"たけのこ","province":"東京都","city":"国分寺市","address":"国分寺市戸倉1-8-43千歳サンライズ107","lat":35.709513,"lon":139.461933},{"name":"「ツリーハウス」","province":"東京都","city":"国分寺市","address":"国分寺市戸倉1-23-3","lat":35.711971,"lon":139.461277},{"name":"「ツリーハウス」Ｌｉｋｏ","province":"東京都","city":"国分寺市","address":"国分寺市戸倉3-46-7","lat":35.710182,"lon":139.451128},{"name":"ハッピーテラス国分寺","province":"東京都","city":"国分寺市","address":"国分寺市南町2-17-4国分寺南町ビューハイツ101号","lat":35.69987,"lon":139.483573},{"name":"放課後等デイサービス　ルーチェ","province":"東京都","city":"国分寺市","address":"国分寺市南町3-4-19京美ビル3階","lat":35.698009,"lon":139.479276},{"name":"福祉の杜とくら地域福祉事業所すてっぷ","province":"東京都","city":"国分寺市","address":"国分寺市富士本1-25-29","lat":35.703174,"lon":139.449815},{"name":"デイサービス事業クラブかたつむり","province":"東京都","city":"国分寺市","address":"国分寺市日吉町4-29-12","lat":35.705732,"lon":139.460078},{"name":"メリーランド国分寺","province":"東京都","city":"国分寺市","address":"国分寺市西町二丁目2番3号第五東財ビル3階","lat":35.705412,"lon":139.439055},{"name":"国分寺市子ども家庭支援センター","province":"東京都","city":"国分寺市","address":"国分寺市光町3-13-20","lat":35.707698,"lon":139.442757},{"name":"国分寺市子ども家庭支援センター","province":"東京都","city":"国分寺市","address":"国分寺市光町3-13-20","lat":35.708,"lon":139.44296},{"name":"＊?男女平等推進センター(ひかりプラザ内)","province":"東京都","city":"国分寺市","address":"東京都国分寺市光町1-46-8","lat":35.70258,"lon":139.444651},{"name":"ＥＴ教室","province":"東京都","city":"国分寺市","address":"国分寺市東戸倉2-10-34","lat":35.711662,"lon":139.464127},{"name":"たけのこ","province":"東京都","city":"国分寺市","address":"国分寺市戸倉1-8-43千歳サンライズ107","lat":35.709513,"lon":139.461933},{"name":"「ツリーハウス」","province":"東京都","city":"国分寺市","address":"国分寺市戸倉1-23-3","lat":35.711971,"lon":139.461277},{"name":"「ツリーハウス」Ｌｉｋｏ","province":"東京都","city":"国分寺市","address":"国分寺市戸倉3-46-7","lat":35.710182,"lon":139.451128},{"name":"ハッピーテラス国分寺","province":"東京都","city":"国分寺市","address":"国分寺市南町2-17-4国分寺南町ビューハイツ101号","lat":35.69987,"lon":139.483573},{"name":"放課後等デイサービス　ルーチェ","province":"東京都","city":"国分寺市","address":"国分寺市南町3-4-19京美ビル3階","lat":35.698009,"lon":139.479276},{"name":"福祉の杜とくら地域福祉事業所すてっぷ","province":"東京都","city":"国分寺市","address":"国分寺市富士本1-25-29","lat":35.703174,"lon":139.449815},{"name":"デイサービス事業クラブかたつむり","province":"東京都","city":"国分寺市","address":"国分寺市日吉町4-29-12","lat":35.705732,"lon":139.460078},{"name":"メリーランド国分寺","province":"東京都","city":"国分寺市","address":"国分寺市西町二丁目2番3号第五東財ビル3階","lat":35.705412,"lon":139.439055},{"name":"国分寺市子ども家庭支援センター","province":"東京都","city":"国分寺市","address":"国分寺市光町3-13-20","lat":35.707698,"lon":139.442757},{"name":"国分寺市子ども家庭支援センター","province":"東京都","city":"国分寺市","address":"国分寺市光町3-13-20","lat":35.708,"lon":139.44296},{"name":"＊?男女平等推進センター(ひかりプラザ内)","province":"東京都","city":"国分寺市","address":"東京都国分寺市光町1-46-8","lat":35.70258,"lon":139.444651},{"name":"ＥＴ教室","province":"東京都","city":"国分寺市","address":"国分寺市東戸倉2-10-34","lat":35.711662,"lon":139.464127},{"name":"たけのこ","province":"東京都","city":"国分寺市","address":"国分寺市戸倉1-8-43千歳サンライズ107","lat":35.709513,"lon":139.461933},{"name":"「ツリーハウス」","province":"東京都","city":"国分寺市","address":"国分寺市戸倉1-23-3","lat":35.711971,"lon":139.461277},{"name":"「ツリーハウス」Ｌｉｋｏ","province":"東京都","city":"国分寺市","address":"国分寺市戸倉3-46-7","lat":35.710182,"lon":139.451128},{"name":"ハッピーテラス国分寺","province":"東京都","city":"国分寺市","address":"国分寺市南町2-17-4国分寺南町ビューハイツ101号","lat":35.69987,"lon":139.483573},{"name":"放課後等デイサービス　ルーチェ","province":"東京都","city":"国分寺市","address":"国分寺市南町3-4-19京美ビル3階","lat":35.698009,"lon":139.479276},{"name":"福祉の杜とくら地域福祉事業所すてっぷ","province":"東京都","city":"国分寺市","address":"国分寺市富士本1-25-29","lat":35.703174,"lon":139.449815},{"name":"デイサービス事業クラブかたつむり","province":"東京都","city":"国分寺市","address":"国分寺市日吉町4-29-12","lat":35.705732,"lon":139.460078},{"name":"メリーランド国分寺","province":"東京都","city":"国分寺市","address":"国分寺市西町二丁目2番3号第五東財ビル3階","lat":35.705412,"lon":139.439055},{"name":"国分寺市子ども家庭支援センター","province":"東京都","city":"国分寺市","address":"国分寺市光町3-13-20","lat":35.707698,"lon":139.442757},{"name":"国分寺市子ども家庭支援センター","province":"東京都","city":"国分寺市","address":"国分寺市光町3-13-20","lat":35.708,"lon":139.44296},{"name":"＊?男女平等推進センター(ひかりプラザ内)","province":"東京都","city":"国分寺市","address":"東京都国分寺市光町1-46-8","lat":35.70258,"lon":139.444651},{"name":"ＥＴ教室","province":"東京都","city":"国分寺市","address":"国分寺市東戸倉2-10-34","lat":35.711662,"lon":139.464127},{"name":"たけのこ","province":"東京都","city":"国分寺市","address":"国分寺市戸倉1-8-43千歳サンライズ107","lat":35.709513,"lon":139.461933},{"name":"「ツリーハウス」","province":"東京都","city":"国分寺市","address":"国分寺市戸倉1-23-3","lat":35.711971,"lon":139.461277},{"name":"「ツリーハウス」Ｌｉｋｏ","province":"東京都","city":"国分寺市","address":"国分寺市戸倉3-46-7","lat":35.710182,"lon":139.451128},{"name":"ハッピーテラス国分寺","province":"東京都","city":"国分寺市","address":"国分寺市南町2-17-4国分寺南町ビューハイツ101号","lat":35.69987,"lon":139.483573},{"name":"放課後等デイサービス　ルーチェ","province":"東京都","city":"国分寺市","address":"国分寺市南町3-4-19京美ビル3階","lat":35.698009,"lon":139.479276},{"name":"福祉の杜とくら地域福祉事業所すてっぷ","province":"東京都","city":"国分寺市","address":"国分寺市富士本1-25-29","lat":35.703174,"lon":139.449815},{"name":"デイサービス事業クラブかたつむり","province":"東京都","city":"国分寺市","address":"国分寺市日吉町4-29-12","lat":35.705732,"lon":139.460078},{"name":"メリーランド国分寺","province":"東京都","city":"国分寺市","address":"国分寺市西町二丁目2番3号第五東財ビル3階","lat":35.705412,"lon":139.439055},{"name":"国分寺市子ども家庭支援センター","province":"東京都","city":"国分寺市","address":"国分寺市光町3-13-20","lat":35.707698,"lon":139.442757},{"name":"国分寺市子ども家庭支援センター","province":"東京都","city":"国分寺市","address":"国分寺市光町3-13-20","lat":35.708,"lon":139.44296},{"name":"＊?男女平等推進センター(ひかりプラザ内)","province":"東京都","city":"国分寺市","address":"東京都国分寺市光町1-46-8","lat":35.70258,"lon":139.444651},{"name":"ＥＴ教室","province":"東京都","city":"国分寺市","address":"国分寺市東戸倉2-10-34","lat":35.711662,"lon":139.464127},{"name":"たけのこ","province":"東京都","city":"国分寺市","address":"国分寺市戸倉1-8-43千歳サンライズ107","lat":35.709513,"lon":139.461933},{"name":"「ツリーハウス」","province":"東京都","city":"国分寺市","address":"国分寺市戸倉1-23-3","lat":35.711971,"lon":139.461277},{"name":"「ツリーハウス」Ｌｉｋｏ","province":"東京都","city":"国分寺市","address":"国分寺市戸倉3-46-7","lat":35.710182,"lon":139.451128},{"name":"ハッピーテラス国分寺","province":"東京都","city":"国分寺市","address":"国分寺市南町2-17-4国分寺南町ビューハイツ101号","lat":35.69987,"lon":139.483573},{"name":"放課後等デイサービス　ルーチェ","province":"東京都","city":"国分寺市","address":"国分寺市南町3-4-19京美ビル3階","lat":35.698009,"lon":139.479276},{"name":"福祉の杜とくら地域福祉事業所すてっぷ","province":"東京都","city":"国分寺市","address":"国分寺市富士本1-25-29","lat":35.703174,"lon":139.449815},{"name":"デイサービス事業クラブかたつむり","province":"東京都","city":"国分寺市","address":"国分寺市日吉町4-29-12","lat":35.705732,"lon":139.460078},{"name":"メリーランド国分寺","province":"東京都","city":"国分寺市","address":"国分寺市西町二丁目2番3号第五東財ビル3階","lat":35.705412,"lon":139.439055},{"name":"国分寺市子ども家庭支援センター","province":"東京都","city":"国分寺市","address":"国分寺市光町3-13-20","lat":35.707698,"lon":139.442757},{"name":"国分寺市子ども家庭支援センター","province":"東京都","city":"国分寺市","address":"国分寺市光町3-13-20","lat":35.708,"lon":139.44296},{"name":"＊?男女平等推進センター(ひかりプラザ内)","province":"東京都","city":"国分寺市","address":"東京都国分寺市光町1-46-8","lat":35.70258,"lon":139.444651},{"name":"ＥＴ教室","province":"東京都","city":"国分寺市","address":"国分寺市東戸倉2-10-34","lat":35.711662,"lon":139.464127},{"name":"たけのこ","province":"東京都","city":"国分寺市","address":"国分寺市戸倉1-8-43千歳サンライズ107","lat":35.709513,"lon":139.461933},{"name":"「ツリーハウス」","province":"東京都","city":"国分寺市","address":"国分寺市戸倉1-23-3","lat":35.711971,"lon":139.461277},{"name":"「ツリーハウス」Ｌｉｋｏ","province":"東京都","city":"国分寺市","address":"国分寺市戸倉3-46-7","lat":35.710182,"lon":139.451128},{"name":"ハッピーテラス国分寺","province":"東京都","city":"国分寺市","address":"国分寺市南町2-17-4国分寺南町ビューハイツ101号","lat":35.69987,"lon":139.483573},{"name":"放課後等デイサービス　ルーチェ","province":"東京都","city":"国分寺市","address":"国分寺市南町3-4-19京美ビル3階","lat":35.698009,"lon":139.479276},{"name":"福祉の杜とくら地域福祉事業所すてっぷ","province":"東京都","city":"国分寺市","address":"国分寺市富士本1-25-29","lat":35.703174,"lon":139.449815},{"name":"デイサービス事業クラブかたつむり","province":"東京都","city":"国分寺市","address":"国分寺市日吉町4-29-12","lat":35.705732,"lon":139.460078},{"name":"メリーランド国分寺","province":"東京都","city":"国分寺市","address":"国分寺市西町二丁目2番3号第五東財ビル3階","lat":35.705412,"lon":139.439055},{"name":"国分寺市子ども家庭支援センター","province":"東京都","city":"国分寺市","address":"国分寺市光町3-13-20","lat":35.707698,"lon":139.442757},{"name":"国分寺市子ども家庭支援センター","province":"東京都","city":"国分寺市","address":"国分寺市光町3-13-20","lat":35.708,"lon":139.44296},{"name":"＊?男女平等推進センター(ひかりプラザ内)","province":"東京都","city":"国分寺市","address":"東京都国分寺市光町1-46-8","lat":35.70258,"lon":139.444651},{"name":"ＥＴ教室","province":"東京都","city":"国分寺市","address":"国分寺市東戸倉2-10-34","lat":35.711662,"lon":139.464127},{"name":"たけのこ","province":"東京都","city":"国分寺市","address":"国分寺市戸倉1-8-43千歳サンライズ107","lat":35.709513,"lon":139.461933},{"name":"「ツリーハウス」","province":"東京都","city":"国分寺市","address":"国分寺市戸倉1-23-3","lat":35.711971,"lon":139.461277},{"name":"「ツリーハウス」Ｌｉｋｏ","province":"東京都","city":"国分寺市","address":"国分寺市戸倉3-46-7","lat":35.710182,"lon":139.451128},{"name":"ハッピーテラス国分寺","province":"東京都","city":"国分寺市","address":"国分寺市南町2-17-4国分寺南町ビューハイツ101号","lat":35.69987,"lon":139.483573},{"name":"放課後等デイサービス　ルーチェ","province":"東京都","city":"国分寺市","address":"国分寺市南町3-4-19京美ビル3階","lat":35.698009,"lon":139.479276},{"name":"福祉の杜とくら地域福祉事業所すてっぷ","province":"東京都","city":"国分寺市","address":"国分寺市富士本1-25-29","lat":35.703174,"lon":139.449815},{"name":"デイサービス事業クラブかたつむり","province":"東京都","city":"国分寺市","address":"国分寺市日吉町4-29-12","lat":35.705732,"lon":139.460078},{"name":"メリーランド国分寺","province":"東京都","city":"国分寺市","address":"国分寺市西町二丁目2番3号第五東財ビル3階","lat":35.705412,"lon":139.439055},{"name":"国分寺市子ども家庭支援センター","province":"東京都","city":"国分寺市","address":"国分寺市光町3-13-20","lat":35.707698,"lon":139.442757},{"name":"国分寺市子ども家庭支援センター","province":"東京都","city":"国分寺市","address":"国分寺市光町3-13-20","lat":35.708,"lon":139.44296},{"name":"＊?男女平等推進センター(ひかりプラザ内)","province":"東京都","city":"国分寺市","address":"東京都国分寺市光町1-46-8","lat":35.70258,"lon":139.444651},{"name":"ＥＴ教室","province":"東京都","city":"国分寺市","address":"国分寺市東戸倉2-10-34","lat":35.711662,"lon":139.464127},{"name":"たけのこ","province":"東京都","city":"国分寺市","address":"国分寺市戸倉1-8-43千歳サンライズ107","lat":35.709513,"lon":139.461933},{"name":"「ツリーハウス」","province":"東京都","city":"国分寺市","address":"国分寺市戸倉1-23-3","lat":35.711971,"lon":139.461277},{"name":"「ツリーハウス」Ｌｉｋｏ","province":"東京都","city":"国分寺市","address":"国分寺市戸倉3-46-7","lat":35.710182,"lon":139.451128},{"name":"ハッピーテラス国分寺","province":"東京都","city":"国分寺市","address":"国分寺市南町2-17-4国分寺南町ビューハイツ101号","lat":35.69987,"lon":139.483573},{"name":"放課後等デイサービス　ルーチェ","province":"東京都","city":"国分寺市","address":"国分寺市南町3-4-19京美ビル3階","lat":35.698009,"lon":139.479276},{"name":"福祉の杜とくら地域福祉事業所すてっぷ","province":"東京都","city":"国分寺市","address":"国分寺市富士本1-25-29","lat":35.703174,"lon":139.449815},{"name":"デイサービス事業クラブかたつむり","province":"東京都","city":"国分寺市","address":"国分寺市日吉町4-29-12","lat":35.705732,"lon":139.460078},{"name":"メリーランド国分寺","province":"東京都","city":"国分寺市","address":"国分寺市西町二丁目2番3号第五東財ビル3階","lat":35.705412,"lon":139.439055},{"name":"国分寺市子ども家庭支援センター","province":"東京都","city":"国分寺市","address":"国分寺市光町3-13-20","lat":35.707698,"lon":139.442757},{"name":"国分寺市子ども家庭支援センター","province":"東京都","city":"国分寺市","address":"国分寺市光町3-13-20","lat":35.708,"lon":139.44296},{"name":"＊?男女平等推進センター(ひかりプラザ内)","province":"東京都","city":"国分寺市","address":"東京都国分寺市光町1-46-8","lat":35.70258,"lon":139.444651},{"name":"ＥＴ教室","province":"東京都","city":"国分寺市","address":"国分寺市東戸倉2-10-34","lat":35.711662,"lon":139.464127},{"name":"たけのこ","province":"東京都","city":"国分寺市","address":"国分寺市戸倉1-8-43千歳サンライズ107","lat":35.709513,"lon":139.461933},{"name":"「ツリーハウス」","province":"東京都","city":"国分寺市","address":"国分寺市戸倉1-23-3","lat":35.711971,"lon":139.461277},{"name":"「ツリーハウス」Ｌｉｋｏ","province":"東京都","city":"国分寺市","address":"国分寺市戸倉3-46-7","lat":35.710182,"lon":139.451128},{"name":"ハッピーテラス国分寺","province":"東京都","city":"国分寺市","address":"国分寺市南町2-17-4国分寺南町ビューハイツ101号","lat":35.69987,"lon":139.483573},{"name":"放課後等デイサービス　ルーチェ","province":"東京都","city":"国分寺市","address":"国分寺市南町3-4-19京美ビル3階","lat":35.698009,"lon":139.479276},{"name":"福祉の杜とくら地域福祉事業所すてっぷ","province":"東京都","city":"国分寺市","address":"国分寺市富士本1-25-29","lat":35.703174,"lon":139.449815},{"name":"デイサービス事業クラブかたつむり","province":"東京都","city":"国分寺市","address":"国分寺市日吉町4-29-12","lat":35.705732,"lon":139.460078},{"name":"メリーランド国分寺","province":"東京都","city":"国分寺市","address":"国分寺市西町二丁目2番3号第五東財ビル3階","lat":35.705412,"lon":139.439055},{"name":"国分寺市子ども家庭支援センター","province":"東京都","city":"国分寺市","address":"国分寺市光町3-13-20","lat":35.707698,"lon":139.442757},{"name":"国分寺市子ども家庭支援センター","province":"東京都","city":"国分寺市","address":"国分寺市光町3-13-20","lat":35.708,"lon":139.44296},{"name":"＊?男女平等推進センター(ひかりプラザ内)","province":"東京都","city":"国分寺市","address":"東京都国分寺市光町1-46-8","lat":35.70258,"lon":139.444651},{"name":"ＥＴ教室","province":"東京都","city":"国分寺市","address":"国分寺市東戸倉2-10-34","lat":35.711662,"lon":139.464127},{"name":"たけのこ","province":"東京都","city":"国分寺市","address":"国分寺市戸倉1-8-43千歳サンライズ107","lat":35.709513,"lon":139.461933},{"name":"「ツリーハウス」","province":"東京都","city":"国分寺市","address":"国分寺市戸倉1-23-3","lat":35.711971,"lon":139.461277},{"name":"「ツリーハウス」Ｌｉｋｏ","province":"東京都","city":"国分寺市","address":"国分寺市戸倉3-46-7","lat":35.710182,"lon":139.451128},{"name":"ハッピーテラス国分寺","province":"東京都","city":"国分寺市","address":"国分寺市南町2-17-4国分寺南町ビューハイツ101号","lat":35.69987,"lon":139.483573},{"name":"放課後等デイサービス　ルーチェ","province":"東京都","city":"国分寺市","address":"国分寺市南町3-4-19京美ビル3階","lat":35.698009,"lon":139.479276},{"name":"福祉の杜とくら地域福祉事業所すてっぷ","province":"東京都","city":"国分寺市","address":"国分寺市富士本1-25-29","lat":35.703174,"lon":139.449815},{"name":"デイサービス事業クラブかたつむり","province":"東京都","city":"国分寺市","address":"国分寺市日吉町4-29-12","lat":35.705732,"lon":139.460078},{"name":"メリーランド国分寺","province":"東京都","city":"国分寺市","address":"国分寺市西町二丁目2番3号第五東財ビル3階","lat":35.705412,"lon":139.439055},{"name":"国分寺市子ども家庭支援センター","province":"東京都","city":"国分寺市","address":"国分寺市光町3-13-20","lat":35.707698,"lon":139.442757},{"name":"国分寺市子ども家庭支援センター","province":"東京都","city":"国分寺市","address":"国分寺市光町3-13-20","lat":35.708,"lon":139.44296},{"name":"＊?男女平等推進センター(ひかりプラザ内)","province":"東京都","city":"国分寺市","address":"東京都国分寺市光町1-46-8","lat":35.70258,"lon":139.444651},{"name":"ＥＴ教室","province":"東京都","city":"国分寺市","address":"国分寺市東戸倉2-10-34","lat":35.711662,"lon":139.464127},{"name":"たけのこ","province":"東京都","city":"国分寺市","address":"国分寺市戸倉1-8-43千歳サンライズ107","lat":35.709513,"lon":139.461933},{"name":"「ツリーハウス」","province":"東京都","city":"国分寺市","address":"国分寺市戸倉1-23-3","lat":35.711971,"lon":139.461277},{"name":"「ツリーハウス」Ｌｉｋｏ","province":"東京都","city":"国分寺市","address":"国分寺市戸倉3-46-7","lat":35.710182,"lon":139.451128},{"name":"ハッピーテラス国分寺","province":"東京都","city":"国分寺市","address":"国分寺市南町2-17-4国分寺南町ビューハイツ101号","lat":35.69987,"lon":139.483573},{"name":"放課後等デイサービス　ルーチェ","province":"東京都","city":"国分寺市","address":"国分寺市南町3-4-19京美ビル3階","lat":35.698009,"lon":139.479276},{"name":"福祉の杜とくら地域福祉事業所すてっぷ","province":"東京都","city":"国分寺市","address":"国分寺市富士本1-25-29","lat":35.703174,"lon":139.449815},{"name":"デイサービス事業クラブかたつむり","province":"東京都","city":"国分寺市","address":"国分寺市日吉町4-29-12","lat":35.705732,"lon":139.460078},{"name":"メリーランド国分寺","province":"東京都","city":"国分寺市","address":"国分寺市西町二丁目2番3号第五東財ビル3階","lat":35.705412,"lon":139.439055},{"name":"国分寺市子ども家庭支援センター","province":"東京都","city":"国分寺市","address":"国分寺市光町3-13-20","lat":35.707698,"lon":139.442757},{"name":"国分寺市子ども家庭支援センター","province":"東京都","city":"国分寺市","address":"国分寺市光町3-13-20","lat":35.708,"lon":139.44296},{"name":"＊?男女平等推進センター(ひかりプラザ内)","province":"東京都","city":"国分寺市","address":"東京都国分寺市光町1-46-8","lat":35.70258,"lon":139.444651},{"name":"ＥＴ教室","province":"東京都","city":"国分寺市","address":"国分寺市東戸倉2-10-34","lat":35.711662,"lon":139.464127},{"name":"たけのこ","province":"東京都","city":"国分寺市","address":"国分寺市戸倉1-8-43千歳サンライズ107","lat":35.709513,"lon":139.461933},{"name":"「ツリーハウス」","province":"東京都","city":"国分寺市","address":"国分寺市戸倉1-23-3","lat":35.711971,"lon":139.461277},{"name":"「ツリーハウス」Ｌｉｋｏ","province":"東京都","city":"国分寺市","address":"国分寺市戸倉3-46-7","lat":35.710182,"lon":139.451128},{"name":"ハッピーテラス国分寺","province":"東京都","city":"国分寺市","address":"国分寺市南町2-17-4国分寺南町ビューハイツ101号","lat":35.69987,"lon":139.483573},{"name":"放課後等デイサービス　ルーチェ","province":"東京都","city":"国分寺市","address":"国分寺市南町3-4-19京美ビル3階","lat":35.698009,"lon":139.479276},{"name":"福祉の杜とくら地域福祉事業所すてっぷ","province":"東京都","city":"国分寺市","address":"国分寺市富士本1-25-29","lat":35.703174,"lon":139.449815},{"name":"デイサービス事業クラブかたつむり","province":"東京都","city":"国分寺市","address":"国分寺市日吉町4-29-12","lat":35.705732,"lon":139.460078},{"name":"メリーランド国分寺","province":"東京都","city":"国分寺市","address":"国分寺市西町二丁目2番3号第五東財ビル3階","lat":35.705412,"lon":139.439055},{"name":"国分寺市子ども家庭支援センター","province":"東京都","city":"国分寺市","address":"国分寺市光町3-13-20","lat":35.707698,"lon":139.442757},{"name":"国分寺市子ども家庭支援センター","province":"東京都","city":"国分寺市","address":"国分寺市光町3-13-20","lat":35.708,"lon":139.44296},{"name":"＊?男女平等推進センター(ひかりプラザ内)","province":"東京都","city":"国分寺市","address":"東京都国分寺市光町1-46-8","lat":35.70258,"lon":139.444651},{"name":"ＥＴ教室","province":"東京都","city":"国分寺市","address":"国分寺市東戸倉2-10-34","lat":35.711662,"lon":139.464127},{"name":"たけのこ","province":"東京都","city":"国分寺市","address":"国分寺市戸倉1-8-43千歳サンライズ107","lat":35.709513,"lon":139.461933},{"name":"「ツリーハウス」","province":"東京都","city":"国分寺市","address":"国分寺市戸倉1-23-3","lat":35.711971,"lon":139.461277},{"name":"「ツリーハウス」Ｌｉｋｏ","province":"東京都","city":"国分寺市","address":"国分寺市戸倉3-46-7","lat":35.710182,"lon":139.451128},{"name":"ハッピーテラス国分寺","province":"東京都","city":"国分寺市","address":"国分寺市南町2-17-4国分寺南町ビューハイツ101号","lat":35.69987,"lon":139.483573},{"name":"放課後等デイサービス　ルーチェ","province":"東京都","city":"国分寺市","address":"国分寺市南町3-4-19京美ビル3階","lat":35.698009,"lon":139.479276},{"name":"福祉の杜とくら地域福祉事業所すてっぷ","province":"東京都","city":"国分寺市","address":"国分寺市富士本1-25-29","lat":35.703174,"lon":139.449815},{"name":"デイサービス事業クラブかたつむり","province":"東京都","city":"国分寺市","address":"国分寺市日吉町4-29-12","lat":35.705732,"lon":139.460078},{"name":"メリーランド国分寺","province":"東京都","city":"国分寺市","address":"国分寺市西町二丁目2番3号第五東財ビル3階","lat":35.705412,"lon":139.439055},{"name":"国分寺市子ども家庭支援センター","province":"東京都","city":"国分寺市","address":"国分寺市光町3-13-20","lat":35.707698,"lon":139.442757},{"name":"国分寺市子ども家庭支援センター","province":"東京都","city":"国分寺市","address":"国分寺市光町3-13-20","lat":35.708,"lon":139.44296},{"name":"＊?男女平等推進センター(ひかりプラザ内)","province":"東京都","city":"国分寺市","address":"東京都国分寺市光町1-46-8","lat":35.70258,"lon":139.444651},{"name":"ＥＴ教室","province":"東京都","city":"国分寺市","address":"国分寺市東戸倉2-10-34","lat":35.711662,"lon":139.464127},{"name":"たけのこ","province":"東京都","city":"国分寺市","address":"国分寺市戸倉1-8-43千歳サンライズ107","lat":35.709513,"lon":139.461933},{"name":"「ツリーハウス」","province":"東京都","city":"国分寺市","address":"国分寺市戸倉1-23-3","lat":35.711971,"lon":139.461277},{"name":"「ツリーハウス」Ｌｉｋｏ","province":"東京都","city":"国分寺市","address":"国分寺市戸倉3-46-7","lat":35.710182,"lon":139.451128},{"name":"ハッピーテラス国分寺","province":"東京都","city":"国分寺市","address":"国分寺市南町2-17-4国分寺南町ビューハイツ101号","lat":35.69987,"lon":139.483573},{"name":"放課後等デイサービス　ルーチェ","province":"東京都","city":"国分寺市","address":"国分寺市南町3-4-19京美ビル3階","lat":35.698009,"lon":139.479276},{"name":"福祉の杜とくら地域福祉事業所すてっぷ","province":"東京都","city":"国分寺市","address":"国分寺市富士本1-25-29","lat":35.703174,"lon":139.449815},{"name":"デイサービス事業クラブかたつむり","province":"東京都","city":"国分寺市","address":"国分寺市日吉町4-29-12","lat":35.705732,"lon":139.460078},{"name":"メリーランド国分寺","province":"東京都","city":"国分寺市","address":"国分寺市西町二丁目2番3号第五東財ビル3階","lat":35.705412,"lon":139.439055},{"name":"国分寺市子ども家庭支援センター","province":"東京都","city":"国分寺市","address":"国分寺市光町3-13-20","lat":35.707698,"lon":139.442757},{"name":"国分寺市子ども家庭支援センター","province":"東京都","city":"国分寺市","address":"国分寺市光町3-13-20","lat":35.708,"lon":139.44296},{"name":"＊?男女平等推進センター(ひかりプラザ内)","province":"東京都","city":"国分寺市","address":"東京都国分寺市光町1-46-8","lat":35.70258,"lon":139.444651},{"name":"ＥＴ教室","province":"東京都","city":"国分寺市","address":"国分寺市東戸倉2-10-34","lat":35.711662,"lon":139.464127},{"name":"たけのこ","province":"東京都","city":"国分寺市","address":"国分寺市戸倉1-8-43千歳サンライズ107","lat":35.709513,"lon":139.461933},{"name":"「ツリーハウス」","province":"東京都","city":"国分寺市","address":"国分寺市戸倉1-23-3","lat":35.711971,"lon":139.461277},{"name":"「ツリーハウス」Ｌｉｋｏ","province":"東京都","city":"国分寺市","address":"国分寺市戸倉3-46-7","lat":35.710182,"lon":139.451128},{"name":"ハッピーテラス国分寺","province":"東京都","city":"国分寺市","address":"国分寺市南町2-17-4国分寺南町ビューハイツ101号","lat":35.69987,"lon":139.483573},{"name":"放課後等デイサービス　ルーチェ","province":"東京都","city":"国分寺市","address":"国分寺市南町3-4-19京美ビル3階","lat":35.698009,"lon":139.479276},{"name":"福祉の杜とくら地域福祉事業所すてっぷ","province":"東京都","city":"国分寺市","address":"国分寺市富士本1-25-29","lat":35.703174,"lon":139.449815},{"name":"デイサービス事業クラブかたつむり","province":"東京都","city":"国分寺市","address":"国分寺市日吉町4-29-12","lat":35.705732,"lon":139.460078},{"name":"メリーランド国分寺","province":"東京都","city":"国分寺市","address":"国分寺市西町二丁目2番3号第五東財ビル3階","lat":35.705412,"lon":139.439055},{"name":"国分寺市子ども家庭支援センター","province":"東京都","city":"国分寺市","address":"国分寺市光町3-13-20","lat":35.707698,"lon":139.442757},{"name":"国分寺市子ども家庭支援センター","province":"東京都","city":"国分寺市","address":"国分寺市光町3-13-20","lat":35.708,"lon":139.44296},{"name":"＊?男女平等推進センター(ひかりプラザ内)","province":"東京都","city":"国分寺市","address":"東京都国分寺市光町1-46-8","lat":35.70258,"lon":139.444651},{"name":"ＥＴ教室","province":"東京都","city":"国分寺市","address":"国分寺市東戸倉2-10-34","lat":35.711662,"lon":139.464127},{"name":"たけのこ","province":"東京都","city":"国分寺市","address":"国分寺市戸倉1-8-43千歳サンライズ107","lat":35.709513,"lon":139.461933},{"name":"「ツリーハウス」","province":"東京都","city":"国分寺市","address":"国分寺市戸倉1-23-3","lat":35.711971,"lon":139.461277},{"name":"「ツリーハウス」Ｌｉｋｏ","province":"東京都","city":"国分寺市","address":"国分寺市戸倉3-46-7","lat":35.710182,"lon":139.451128},{"name":"ハッピーテラス国分寺","province":"東京都","city":"国分寺市","address":"国分寺市南町2-17-4国分寺南町ビューハイツ101号","lat":35.69987,"lon":139.483573},{"name":"放課後等デイサービス　ルーチェ","province":"東京都","city":"国分寺市","address":"国分寺市南町3-4-19京美ビル3階","lat":35.698009,"lon":139.479276},{"name":"福祉の杜とくら地域福祉事業所すてっぷ","province":"東京都","city":"国分寺市","address":"国分寺市富士本1-25-29","lat":35.703174,"lon":139.449815},{"name":"デイサービス事業クラブかたつむり","province":"東京都","city":"国分寺市","address":"国分寺市日吉町4-29-12","lat":35.705732,"lon":139.460078},{"name":"メリーランド国分寺","province":"東京都","city":"国分寺市","address":"国分寺市西町二丁目2番3号第五東財ビル3階","lat":35.705412,"lon":139.439055},{"name":"国分寺市子ども家庭支援センター","province":"東京都","city":"国分寺市","address":"国分寺市光町3-13-20","lat":35.707698,"lon":139.442757},{"name":"国分寺市子ども家庭支援センター","province":"東京都","city":"国分寺市","address":"国分寺市光町3-13-20","lat":35.708,"lon":139.44296},{"name":"＊?男女平等推進センター(ひかりプラザ内)","province":"東京都","city":"国分寺市","address":"東京都国分寺市光町1-46-8","lat":35.70258,"lon":139.444651},{"name":"ＥＴ教室","province":"東京都","city":"国分寺市","address":"国分寺市東戸倉2-10-34","lat":35.711662,"lon":139.464127},{"name":"たけのこ","province":"東京都","city":"国分寺市","address":"国分寺市戸倉1-8-43千歳サンライズ107","lat":35.709513,"lon":139.461933},{"name":"「ツリーハウス」","province":"東京都","city":"国分寺市","address":"国分寺市戸倉1-23-3","lat":35.711971,"lon":139.461277},{"name":"「ツリーハウス」Ｌｉｋｏ","province":"東京都","city":"国分寺市","address":"国分寺市戸倉3-46-7","lat":35.710182,"lon":139.451128},{"name":"ハッピーテラス国分寺","province":"東京都","city":"国分寺市","address":"国分寺市南町2-17-4国分寺南町ビューハイツ101号","lat":35.69987,"lon":139.483573},{"name":"放課後等デイサービス　ルーチェ","province":"東京都","city":"国分寺市","address":"国分寺市南町3-4-19京美ビル3階","lat":35.698009,"lon":139.479276},{"name":"福祉の杜とくら地域福祉事業所すてっぷ","province":"東京都","city":"国分寺市","address":"国分寺市富士本1-25-29","lat":35.703174,"lon":139.449815},{"name":"デイサービス事業クラブかたつむり","province":"東京都","city":"国分寺市","address":"国分寺市日吉町4-29-12","lat":35.705732,"lon":139.460078},{"name":"メリーランド国分寺","province":"東京都","city":"国分寺市","address":"国分寺市西町二丁目2番3号第五東財ビル3階","lat":35.705412,"lon":139.439055},{"name":"国分寺市子ども家庭支援センター","province":"東京都","city":"国分寺市","address":"国分寺市光町3-13-20","lat":35.707698,"lon":139.442757},{"name":"国分寺市子ども家庭支援センター","province":"東京都","city":"国分寺市","address":"国分寺市光町3-13-20","lat":35.708,"lon":139.44296},{"name":"＊?男女平等推進センター(ひかりプラザ内)","province":"東京都","city":"国分寺市","address":"東京都国分寺市光町1-46-8","lat":35.70258,"lon":139.444651}]}