{"keyword":"構築","data":[{"name":"稲荷神社前","province":"東京都","city":"国分寺市","address":"東京都国分寺市光町1丁目23-2","lat":35.70626243,"lon":139.44249866},{"name":"本多公民館西","province":"東京都","city":"国分寺市","address":"東京都国分寺市本多1丁目6-3","lat":35.70516631,"lon":139.48188687},{"name":"国分寺駅南口第一","province":"東京都","city":"国分寺市","address":"東京都国分寺市南町3丁目17-3","lat":35.69936417,"lon":139.48084276},{"name":"国分寺駅南口第二","province":"東京都","city":"国分寺市","address":"東京都国分寺市南町3丁目18-1","lat":35.6991975,"lon":139.47988451},{"name":"国分寺市役所前","province":"東京都","city":"国分寺市","address":"東京都国分寺市戸倉1丁目5","lat":35.71022915,"lon":139.46235786},{"name":"国分寺第二小学校前","province":"東京都","city":"国分寺市","address":"東京都国分寺市光町3丁目1-1","lat":35.70790396,"lon":139.44431232},{"name":"国分寺第四小学校入口","province":"東京都","city":"国分寺市","address":"東京都国分寺市西元町2丁目17","lat":35.69559765,"lon":139.46844954},{"name":"国分寺南町一丁目","province":"東京都","city":"国分寺市","address":"東京都国分寺市南町2丁目1-37","lat":35.69877271,"lon":139.48630621},{"name":"東恋ヶ窪浄水所","province":"東京都","city":"国分寺市","address":"東京都国分寺市東恋ヶ窪2丁目5-8","lat":35.7064827,"lon":139.47639009},{"name":"国分寺消防署","province":"東京都","city":"国分寺市","address":"国分寺市本多1-7-15","lat":35.70578,"lon":139.4827},{"name":"稲荷神社前","province":"東京都","city":"国分寺市","address":"東京都国分寺市光町1丁目23-2","lat":35.70626243,"lon":139.44249866},{"name":"本多公民館西","province":"東京都","city":"国分寺市","address":"東京都国分寺市本多1丁目6-3","lat":35.70516631,"lon":139.48188687},{"name":"国分寺駅南口第一","province":"東京都","city":"国分寺市","address":"東京都国分寺市南町3丁目17-3","lat":35.69936417,"lon":139.48084276},{"name":"国分寺駅南口第二","province":"東京都","city":"国分寺市","address":"東京都国分寺市南町3丁目18-1","lat":35.6991975,"lon":139.47988451},{"name":"国分寺市役所前","province":"東京都","city":"国分寺市","address":"東京都国分寺市戸倉1丁目5","lat":35.71022915,"lon":139.46235786},{"name":"国分寺第二小学校前","province":"東京都","city":"国分寺市","address":"東京都国分寺市光町3丁目1-1","lat":35.70790396,"lon":139.44431232},{"name":"国分寺第四小学校入口","province":"東京都","city":"国分寺市","address":"東京都国分寺市西元町2丁目17","lat":35.69559765,"lon":139.46844954},{"name":"国分寺南町一丁目","province":"東京都","city":"国分寺市","address":"東京都国分寺市南町2丁目1-37","lat":35.69877271,"lon":139.48630621},{"name":"東恋ヶ窪浄水所","province":"東京都","city":"国分寺市","address":"東京都国分寺市東恋ヶ窪2丁目5-8","lat":35.7064827,"lon":139.47639009},{"name":"国分寺消防署","province":"東京都","city":"国分寺市","address":"国分寺市本多1-7-15","lat":35.70578,"lon":139.4827},{"name":"稲荷神社前","province":"東京都","city":"国分寺市","address":"東京都国分寺市光町1丁目23-2","lat":35.70626243,"lon":139.44249866},{"name":"本多公民館西","province":"東京都","city":"国分寺市","address":"東京都国分寺市本多1丁目6-3","lat":35.70516631,"lon":139.48188687},{"name":"国分寺駅南口第一","province":"東京都","city":"国分寺市","address":"東京都国分寺市南町3丁目17-3","lat":35.69936417,"lon":139.48084276},{"name":"国分寺駅南口第二","province":"東京都","city":"国分寺市","address":"東京都国分寺市南町3丁目18-1","lat":35.6991975,"lon":139.47988451},{"name":"国分寺市役所前","province":"東京都","city":"国分寺市","address":"東京都国分寺市戸倉1丁目5","lat":35.71022915,"lon":139.46235786},{"name":"国分寺第二小学校前","province":"東京都","city":"国分寺市","address":"東京都国分寺市光町3丁目1-1","lat":35.70790396,"lon":139.44431232},{"name":"国分寺第四小学校入口","province":"東京都","city":"国分寺市","address":"東京都国分寺市西元町2丁目17","lat":35.69559765,"lon":139.46844954},{"name":"国分寺南町一丁目","province":"東京都","city":"国分寺市","address":"東京都国分寺市南町2丁目1-37","lat":35.69877271,"lon":139.48630621},{"name":"東恋ヶ窪浄水所","province":"東京都","city":"国分寺市","address":"東京都国分寺市東恋ヶ窪2丁目5-8","lat":35.7064827,"lon":139.47639009},{"name":"国分寺消防署","province":"東京都","city":"国分寺市","address":"国分寺市本多1-7-15","lat":35.70578,"lon":139.4827},{"name":"稲荷神社前","province":"東京都","city":"国分寺市","address":"東京都国分寺市光町1丁目23-2","lat":35.70626243,"lon":139.44249866},{"name":"本多公民館西","province":"東京都","city":"国分寺市","address":"東京都国分寺市本多1丁目6-3","lat":35.70516631,"lon":139.48188687},{"name":"国分寺駅南口第一","province":"東京都","city":"国分寺市","address":"東京都国分寺市南町3丁目17-3","lat":35.69936417,"lon":139.48084276},{"name":"国分寺駅南口第二","province":"東京都","city":"国分寺市","address":"東京都国分寺市南町3丁目18-1","lat":35.6991975,"lon":139.47988451},{"name":"国分寺市役所前","province":"東京都","city":"国分寺市","address":"東京都国分寺市戸倉1丁目5","lat":35.71022915,"lon":139.46235786},{"name":"国分寺第二小学校前","province":"東京都","city":"国分寺市","address":"東京都国分寺市光町3丁目1-1","lat":35.70790396,"lon":139.44431232},{"name":"国分寺第四小学校入口","province":"東京都","city":"国分寺市","address":"東京都国分寺市西元町2丁目17","lat":35.69559765,"lon":139.46844954},{"name":"国分寺南町一丁目","province":"東京都","city":"国分寺市","address":"東京都国分寺市南町2丁目1-37","lat":35.69877271,"lon":139.48630621},{"name":"東恋ヶ窪浄水所","province":"東京都","city":"国分寺市","address":"東京都国分寺市東恋ヶ窪2丁目5-8","lat":35.7064827,"lon":139.47639009},{"name":"国分寺消防署","province":"東京都","city":"国分寺市","address":"国分寺市本多1-7-15","lat":35.70578,"lon":139.4827},{"name":"稲荷神社前","province":"東京都","city":"国分寺市","address":"東京都国分寺市光町1丁目23-2","lat":35.70626243,"lon":139.44249866},{"name":"本多公民館西","province":"東京都","city":"国分寺市","address":"東京都国分寺市本多1丁目6-3","lat":35.70516631,"lon":139.48188687},{"name":"国分寺駅南口第一","province":"東京都","city":"国分寺市","address":"東京都国分寺市南町3丁目17-3","lat":35.69936417,"lon":139.48084276},{"name":"国分寺駅南口第二","province":"東京都","city":"国分寺市","address":"東京都国分寺市南町3丁目18-1","lat":35.6991975,"lon":139.47988451},{"name":"国分寺市役所前","province":"東京都","city":"国分寺市","address":"東京都国分寺市戸倉1丁目5","lat":35.71022915,"lon":139.46235786},{"name":"国分寺第二小学校前","province":"東京都","city":"国分寺市","address":"東京都国分寺市光町3丁目1-1","lat":35.70790396,"lon":139.44431232},{"name":"国分寺第四小学校入口","province":"東京都","city":"国分寺市","address":"東京都国分寺市西元町2丁目17","lat":35.69559765,"lon":139.46844954},{"name":"国分寺南町一丁目","province":"東京都","city":"国分寺市","address":"東京都国分寺市南町2丁目1-37","lat":35.69877271,"lon":139.48630621},{"name":"東恋ヶ窪浄水所","province":"東京都","city":"国分寺市","address":"東京都国分寺市東恋ヶ窪2丁目5-8","lat":35.7064827,"lon":139.47639009},{"name":"国分寺消防署","province":"東京都","city":"国分寺市","address":"国分寺市本多1-7-15","lat":35.70578,"lon":139.4827},{"name":"稲荷神社前","province":"東京都","city":"国分寺市","address":"東京都国分寺市光町1丁目23-2","lat":35.70626243,"lon":139.44249866},{"name":"本多公民館西","province":"東京都","city":"国分寺市","address":"東京都国分寺市本多1丁目6-3","lat":35.70516631,"lon":139.48188687},{"name":"国分寺駅南口第一","province":"東京都","city":"国分寺市","address":"東京都国分寺市南町3丁目17-3","lat":35.69936417,"lon":139.48084276},{"name":"国分寺駅南口第二","province":"東京都","city":"国分寺市","address":"東京都国分寺市南町3丁目18-1","lat":35.6991975,"lon":139.47988451},{"name":"国分寺市役所前","province":"東京都","city":"国分寺市","address":"東京都国分寺市戸倉1丁目5","lat":35.71022915,"lon":139.46235786},{"name":"国分寺第二小学校前","province":"東京都","city":"国分寺市","address":"東京都国分寺市光町3丁目1-1","lat":35.70790396,"lon":139.44431232},{"name":"国分寺第四小学校入口","province":"東京都","city":"国分寺市","address":"東京都国分寺市西元町2丁目17","lat":35.69559765,"lon":139.46844954},{"name":"国分寺南町一丁目","province":"東京都","city":"国分寺市","address":"東京都国分寺市南町2丁目1-37","lat":35.69877271,"lon":139.48630621},{"name":"東恋ヶ窪浄水所","province":"東京都","city":"国分寺市","address":"東京都国分寺市東恋ヶ窪2丁目5-8","lat":35.7064827,"lon":139.47639009},{"name":"国分寺消防署","province":"東京都","city":"国分寺市","address":"国分寺市本多1-7-15","lat":35.70578,"lon":139.4827},{"name":"稲荷神社前","province":"東京都","city":"国分寺市","address":"東京都国分寺市光町1丁目23-2","lat":35.70626243,"lon":139.44249866},{"name":"本多公民館西","province":"東京都","city":"国分寺市","address":"東京都国分寺市本多1丁目6-3","lat":35.70516631,"lon":139.48188687},{"name":"国分寺駅南口第一","province":"東京都","city":"国分寺市","address":"東京都国分寺市南町3丁目17-3","lat":35.69936417,"lon":139.48084276},{"name":"国分寺駅南口第二","province":"東京都","city":"国分寺市","address":"東京都国分寺市南町3丁目18-1","lat":35.6991975,"lon":139.47988451},{"name":"国分寺市役所前","province":"東京都","city":"国分寺市","address":"東京都国分寺市戸倉1丁目5","lat":35.71022915,"lon":139.46235786},{"name":"国分寺第二小学校前","province":"東京都","city":"国分寺市","address":"東京都国分寺市光町3丁目1-1","lat":35.70790396,"lon":139.44431232},{"name":"国分寺第四小学校入口","province":"東京都","city":"国分寺市","address":"東京都国分寺市西元町2丁目17","lat":35.69559765,"lon":139.46844954},{"name":"国分寺南町一丁目","province":"東京都","city":"国分寺市","address":"東京都国分寺市南町2丁目1-37","lat":35.69877271,"lon":139.48630621},{"name":"東恋ヶ窪浄水所","province":"東京都","city":"国分寺市","address":"東京都国分寺市東恋ヶ窪2丁目5-8","lat":35.7064827,"lon":139.47639009},{"name":"国分寺消防署","province":"東京都","city":"国分寺市","address":"国分寺市本多1-7-15","lat":35.70578,"lon":139.4827},{"name":"稲荷神社前","province":"東京都","city":"国分寺市","address":"東京都国分寺市光町1丁目23-2","lat":35.70626243,"lon":139.44249866},{"name":"本多公民館西","province":"東京都","city":"国分寺市","address":"東京都国分寺市本多1丁目6-3","lat":35.70516631,"lon":139.48188687},{"name":"国分寺駅南口第一","province":"東京都","city":"国分寺市","address":"東京都国分寺市南町3丁目17-3","lat":35.69936417,"lon":139.48084276},{"name":"国分寺駅南口第二","province":"東京都","city":"国分寺市","address":"東京都国分寺市南町3丁目18-1","lat":35.6991975,"lon":139.47988451},{"name":"国分寺市役所前","province":"東京都","city":"国分寺市","address":"東京都国分寺市戸倉1丁目5","lat":35.71022915,"lon":139.46235786},{"name":"国分寺第二小学校前","province":"東京都","city":"国分寺市","address":"東京都国分寺市光町3丁目1-1","lat":35.70790396,"lon":139.44431232},{"name":"国分寺第四小学校入口","province":"東京都","city":"国分寺市","address":"東京都国分寺市西元町2丁目17","lat":35.69559765,"lon":139.46844954},{"name":"国分寺南町一丁目","province":"東京都","city":"国分寺市","address":"東京都国分寺市南町2丁目1-37","lat":35.69877271,"lon":139.48630621},{"name":"東恋ヶ窪浄水所","province":"東京都","city":"国分寺市","address":"東京都国分寺市東恋ヶ窪2丁目5-8","lat":35.7064827,"lon":139.47639009},{"name":"国分寺消防署","province":"東京都","city":"国分寺市","address":"国分寺市本多1-7-15","lat":35.70578,"lon":139.4827},{"name":"稲荷神社前","province":"東京都","city":"国分寺市","address":"東京都国分寺市光町1丁目23-2","lat":35.70626243,"lon":139.44249866},{"name":"本多公民館西","province":"東京都","city":"国分寺市","address":"東京都国分寺市本多1丁目6-3","lat":35.70516631,"lon":139.48188687},{"name":"国分寺駅南口第一","province":"東京都","city":"国分寺市","address":"東京都国分寺市南町3丁目17-3","lat":35.69936417,"lon":139.48084276},{"name":"国分寺駅南口第二","province":"東京都","city":"国分寺市","address":"東京都国分寺市南町3丁目18-1","lat":35.6991975,"lon":139.47988451},{"name":"国分寺市役所前","province":"東京都","city":"国分寺市","address":"東京都国分寺市戸倉1丁目5","lat":35.71022915,"lon":139.46235786},{"name":"国分寺第二小学校前","province":"東京都","city":"国分寺市","address":"東京都国分寺市光町3丁目1-1","lat":35.70790396,"lon":139.44431232},{"name":"国分寺第四小学校入口","province":"東京都","city":"国分寺市","address":"東京都国分寺市西元町2丁目17","lat":35.69559765,"lon":139.46844954},{"name":"国分寺南町一丁目","province":"東京都","city":"国分寺市","address":"東京都国分寺市南町2丁目1-37","lat":35.69877271,"lon":139.48630621},{"name":"東恋ヶ窪浄水所","province":"東京都","city":"国分寺市","address":"東京都国分寺市東恋ヶ窪2丁目5-8","lat":35.7064827,"lon":139.47639009},{"name":"国分寺消防署","province":"東京都","city":"国分寺市","address":"国分寺市本多1-7-15","lat":35.70578,"lon":139.4827},{"name":"稲荷神社前","province":"東京都","city":"国分寺市","address":"東京都国分寺市光町1丁目23-2","lat":35.70626243,"lon":139.44249866},{"name":"本多公民館西","province":"東京都","city":"国分寺市","address":"東京都国分寺市本多1丁目6-3","lat":35.70516631,"lon":139.48188687},{"name":"国分寺駅南口第一","province":"東京都","city":"国分寺市","address":"東京都国分寺市南町3丁目17-3","lat":35.69936417,"lon":139.48084276},{"name":"国分寺駅南口第二","province":"東京都","city":"国分寺市","address":"東京都国分寺市南町3丁目18-1","lat":35.6991975,"lon":139.47988451},{"name":"国分寺市役所前","province":"東京都","city":"国分寺市","address":"東京都国分寺市戸倉1丁目5","lat":35.71022915,"lon":139.46235786},{"name":"国分寺第二小学校前","province":"東京都","city":"国分寺市","address":"東京都国分寺市光町3丁目1-1","lat":35.70790396,"lon":139.44431232},{"name":"国分寺第四小学校入口","province":"東京都","city":"国分寺市","address":"東京都国分寺市西元町2丁目17","lat":35.69559765,"lon":139.46844954},{"name":"国分寺南町一丁目","province":"東京都","city":"国分寺市","address":"東京都国分寺市南町2丁目1-37","lat":35.69877271,"lon":139.48630621},{"name":"東恋ヶ窪浄水所","province":"東京都","city":"国分寺市","address":"東京都国分寺市東恋ヶ窪2丁目5-8","lat":35.7064827,"lon":139.47639009},{"name":"国分寺消防署","province":"東京都","city":"国分寺市","address":"国分寺市本多1-7-15","lat":35.70578,"lon":139.4827},{"name":"稲荷神社前","province":"東京都","city":"国分寺市","address":"東京都国分寺市光町1丁目23-2","lat":35.70626243,"lon":139.44249866},{"name":"本多公民館西","province":"東京都","city":"国分寺市","address":"東京都国分寺市本多1丁目6-3","lat":35.70516631,"lon":139.48188687},{"name":"国分寺駅南口第一","province":"東京都","city":"国分寺市","address":"東京都国分寺市南町3丁目17-3","lat":35.69936417,"lon":139.48084276},{"name":"国分寺駅南口第二","province":"東京都","city":"国分寺市","address":"東京都国分寺市南町3丁目18-1","lat":35.6991975,"lon":139.47988451},{"name":"国分寺市役所前","province":"東京都","city":"国分寺市","address":"東京都国分寺市戸倉1丁目5","lat":35.71022915,"lon":139.46235786},{"name":"国分寺第二小学校前","province":"東京都","city":"国分寺市","address":"東京都国分寺市光町3丁目1-1","lat":35.70790396,"lon":139.44431232},{"name":"国分寺第四小学校入口","province":"東京都","city":"国分寺市","address":"東京都国分寺市西元町2丁目17","lat":35.69559765,"lon":139.46844954},{"name":"国分寺南町一丁目","province":"東京都","city":"国分寺市","address":"東京都国分寺市南町2丁目1-37","lat":35.69877271,"lon":139.48630621},{"name":"東恋ヶ窪浄水所","province":"東京都","city":"国分寺市","address":"東京都国分寺市東恋ヶ窪2丁目5-8","lat":35.7064827,"lon":139.47639009},{"name":"国分寺消防署","province":"東京都","city":"国分寺市","address":"国分寺市本多1-7-15","lat":35.70578,"lon":139.4827},{"name":"稲荷神社前","province":"東京都","city":"国分寺市","address":"東京都国分寺市光町1丁目23-2","lat":35.70626243,"lon":139.44249866},{"name":"本多公民館西","province":"東京都","city":"国分寺市","address":"東京都国分寺市本多1丁目6-3","lat":35.70516631,"lon":139.48188687},{"name":"国分寺駅南口第一","province":"東京都","city":"国分寺市","address":"東京都国分寺市南町3丁目17-3","lat":35.69936417,"lon":139.48084276},{"name":"国分寺駅南口第二","province":"東京都","city":"国分寺市","address":"東京都国分寺市南町3丁目18-1","lat":35.6991975,"lon":139.47988451},{"name":"国分寺市役所前","province":"東京都","city":"国分寺市","address":"東京都国分寺市戸倉1丁目5","lat":35.71022915,"lon":139.46235786},{"name":"国分寺第二小学校前","province":"東京都","city":"国分寺市","address":"東京都国分寺市光町3丁目1-1","lat":35.70790396,"lon":139.44431232},{"name":"国分寺第四小学校入口","province":"東京都","city":"国分寺市","address":"東京都国分寺市西元町2丁目17","lat":35.69559765,"lon":139.46844954},{"name":"国分寺南町一丁目","province":"東京都","city":"国分寺市","address":"東京都国分寺市南町2丁目1-37","lat":35.69877271,"lon":139.48630621},{"name":"東恋ヶ窪浄水所","province":"東京都","city":"国分寺市","address":"東京都国分寺市東恋ヶ窪2丁目5-8","lat":35.7064827,"lon":139.47639009},{"name":"国分寺消防署","province":"東京都","city":"国分寺市","address":"国分寺市本多1-7-15","lat":35.70578,"lon":139.4827},{"name":"稲荷神社前","province":"東京都","city":"国分寺市","address":"東京都国分寺市光町1丁目23-2","lat":35.70626243,"lon":139.44249866},{"name":"本多公民館西","province":"東京都","city":"国分寺市","address":"東京都国分寺市本多1丁目6-3","lat":35.70516631,"lon":139.48188687},{"name":"国分寺駅南口第一","province":"東京都","city":"国分寺市","address":"東京都国分寺市南町3丁目17-3","lat":35.69936417,"lon":139.48084276},{"name":"国分寺駅南口第二","province":"東京都","city":"国分寺市","address":"東京都国分寺市南町3丁目18-1","lat":35.6991975,"lon":139.47988451},{"name":"国分寺市役所前","province":"東京都","city":"国分寺市","address":"東京都国分寺市戸倉1丁目5","lat":35.71022915,"lon":139.46235786},{"name":"国分寺第二小学校前","province":"東京都","city":"国分寺市","address":"東京都国分寺市光町3丁目1-1","lat":35.70790396,"lon":139.44431232},{"name":"国分寺第四小学校入口","province":"東京都","city":"国分寺市","address":"東京都国分寺市西元町2丁目17","lat":35.69559765,"lon":139.46844954},{"name":"国分寺南町一丁目","province":"東京都","city":"国分寺市","address":"東京都国分寺市南町2丁目1-37","lat":35.69877271,"lon":139.48630621},{"name":"東恋ヶ窪浄水所","province":"東京都","city":"国分寺市","address":"東京都国分寺市東恋ヶ窪2丁目5-8","lat":35.7064827,"lon":139.47639009},{"name":"国分寺消防署","province":"東京都","city":"国分寺市","address":"国分寺市本多1-7-15","lat":35.70578,"lon":139.4827}]}