{"keyword":"男女","data":[{"name":"千春第二保育園","province":"東京都","city":"国分寺市","address":"国分寺市戸倉1丁目22番地2","lat":35.712176,"lon":139.460733},{"name":"国分寺市立しんまち保育園","province":"東京都","city":"国分寺市","address":"国分寺市新町1丁目7番地11","lat":35.712967,"lon":139.453825},{"name":"ベネッセ国分寺保育園","province":"東京都","city":"国分寺市","address":"国分寺市本多3-1-7","lat":35.707702,"lon":139.480334},{"name":"ほんだ保育園","province":"東京都","city":"国分寺市","address":"国分寺市本多3丁目14番12号","lat":35.712052,"lon":139.479553},{"name":"キャリー保育園国分寺","province":"東京都","city":"国分寺市","address":"国分寺市本多5丁目2番3号","lat":35.704547,"lon":139.486209},{"name":"ぶんじっこ保育園（本園・分園）","province":"東京都","city":"国分寺市","address":"国分寺市本町4丁目22番9号","lat":35.703425,"lon":139.477835},{"name":"グローバルキッズ西国分寺園","province":"東京都","city":"国分寺市","address":"国分寺市西恋ヶ窪3-18-5","lat":35.704174,"lon":139.466349},{"name":"西国分寺保育園","province":"東京都","city":"国分寺市","address":"国分寺市西恋ヶ窪2丁目18番地1","lat":35.701802,"lon":139.464522},{"name":"えがおの森保育園","province":"東京都","city":"国分寺市","address":"国分寺市西恋ヶ窪4丁目17番地18","lat":35.708788,"lon":139.465705},{"name":"ポッポのもり保育園","province":"東京都","city":"国分寺市","address":"国分寺市西恋ヶ窪3丁目5番地25","lat":35.70308,"lon":139.463911},{"name":"桑の実西国分寺保育園","province":"東京都","city":"国分寺市","address":"国分寺市西恋ヶ窪1-32-15","lat":35.701139,"lon":139.468141},{"name":"明国保育園","province":"東京都","city":"国分寺市","address":"国分寺市東恋ヶ窪3-5-7","lat":35.70558,"lon":139.473626},{"name":"恋ヶ窪保育園","province":"東京都","city":"国分寺市","address":"国分寺市東恋ヶ窪2丁目6番地13","lat":35.706569,"lon":139.477168},{"name":"浴光保育園","province":"東京都","city":"国分寺市","address":"国分寺市東恋ヶ窪4丁目5番地1","lat":35.706874,"lon":139.469607},{"name":"こもれびの森保育園","province":"東京都","city":"国分寺市","address":"国分寺市東恋ヶ窪5丁目8番地3","lat":35.710043,"lon":139.465333},{"name":"国分寺Ｊキッズステーション","province":"東京都","city":"国分寺市","address":"国分寺市南町3丁目20番3号","lat":35.699792,"lon":139.480346},{"name":"保育園ピコ国分寺","province":"東京都","city":"国分寺市","address":"国分寺市南町3丁目11番7号","lat":35.698356,"lon":139.480207},{"name":"アスクこくぶんじ南町保育園","province":"東京都","city":"国分寺市","address":"国分寺市南町1丁目13番19号","lat":35.698811,"lon":139.486849},{"name":"国分寺市立もとまち保育園","province":"東京都","city":"国分寺市","address":"国分寺市東元町2丁目13番18号","lat":35.694376,"lon":139.481412},{"name":"にしこくワンダーランド保育園","province":"東京都","city":"国分寺市","address":"国分寺市西元町2丁目7番9号","lat":35.692187,"lon":139.468319},{"name":"国分寺市立こくぶんじ保育園","province":"東京都","city":"国分寺市","address":"国分寺市泉町2丁目7番2号","lat":35.698739,"lon":139.46843},{"name":"生活クラブ保育園ぽむ・国分寺","province":"東京都","city":"国分寺市","address":"国分寺市泉町3-33-2西晴ビル1階","lat":35.698806,"lon":139.466525},{"name":"富士本保育園","province":"東京都","city":"国分寺市","address":"国分寺市富士本2丁目30番地4","lat":35.707235,"lon":139.446282},{"name":"ひだまりの森保育園","province":"東京都","city":"国分寺市","address":"国分寺市富士本1丁目2番地16","lat":35.703905,"lon":139.452856},{"name":"ひよし保育園","province":"東京都","city":"国分寺市","address":"国分寺市日吉町2丁目20番地5","lat":35.701416,"lon":139.452451},{"name":"やなぎ保育園","province":"東京都","city":"国分寺市","address":"国分寺市日吉町1丁目46番地7","lat":35.700797,"lon":139.455731},{"name":"ポッポのはな保育園","province":"東京都","city":"国分寺市","address":"国分寺市日吉町1丁目2番地14","lat":35.700286,"lon":139.461378},{"name":"ひかり保育園","province":"東京都","city":"国分寺市","address":"国分寺市光町3丁目24番地2","lat":35.706318,"lon":139.44071},{"name":"まなびの森保育園国分寺","province":"東京都","city":"国分寺市","address":"国分寺市光町二丁目5番地1","lat":35.700908,"lon":139.444196},{"name":"くるみの木保育園","province":"東京都","city":"国分寺市","address":"国分寺市西町5丁目8番地8","lat":35.718055,"lon":139.433635},{"name":"ともだちの森保育園","province":"東京都","city":"国分寺市","address":"国分寺市高木町1丁目22番地41","lat":35.712509,"lon":139.440524},{"name":"ＥＴ教室","province":"東京都","city":"国分寺市","address":"国分寺市東戸倉2-10-34","lat":35.711662,"lon":139.464127},{"name":"たけのこ","province":"東京都","city":"国分寺市","address":"国分寺市戸倉1-8-43千歳サンライズ107","lat":35.709513,"lon":139.461933},{"name":"「ツリーハウス」","province":"東京都","city":"国分寺市","address":"国分寺市戸倉1-23-3","lat":35.711971,"lon":139.461277},{"name":"「ツリーハウス」Ｌｉｋｏ","province":"東京都","city":"国分寺市","address":"国分寺市戸倉3-46-7","lat":35.710182,"lon":139.451128},{"name":"ハッピーテラス国分寺","province":"東京都","city":"国分寺市","address":"国分寺市南町2-17-4国分寺南町ビューハイツ101号","lat":35.69987,"lon":139.483573},{"name":"放課後等デイサービス　ルーチェ","province":"東京都","city":"国分寺市","address":"国分寺市南町3-4-19京美ビル3階","lat":35.698009,"lon":139.479276},{"name":"福祉の杜とくら地域福祉事業所すてっぷ","province":"東京都","city":"国分寺市","address":"国分寺市富士本1-25-29","lat":35.703174,"lon":139.449815},{"name":"デイサービス事業クラブかたつむり","province":"東京都","city":"国分寺市","address":"国分寺市日吉町4-29-12","lat":35.705732,"lon":139.460078},{"name":"メリーランド国分寺","province":"東京都","city":"国分寺市","address":"国分寺市西町二丁目2番3号第五東財ビル3階","lat":35.705412,"lon":139.439055},{"name":"さくら国分寺ハウス","province":"東京都","city":"国分寺市","address":"国分寺市東元町3-30-7","lat":35.696806,"lon":139.476904},{"name":"国分寺病院","province":"東京都","city":"国分寺市","address":"国分寺市東恋ケ窪4-2-2","lat":35.706505,"lon":139.469438},{"name":"国分寺市いずみ保健センター","province":"東京都","city":"国分寺市","address":"国分寺市泉町2-3-8","lat":35.696398,"lon":139.468855},{"name":"さくら国分寺ハウス","province":"東京都","city":"国分寺市","address":"国分寺市東元町3-30-7","lat":35.69675,"lon":139.47731},{"name":"東京都公文書館","province":"東京都","city":"国分寺市","address":"東京都国分寺市泉町2丁目2-21","lat":35.69758,"lon":139.469918},{"name":"武蔵国分寺公園","province":"東京都","city":"国分寺市","address":"東京都国分寺市西元町1丁目11","lat":35.695313,"lon":139.471005},{"name":"殿ヶ谷戸庭園","province":"東京都","city":"国分寺市","address":"東京都国分寺市南町2丁目16","lat":35.698538,"lon":139.481512},{"name":"東京都立多摩図書館","province":"東京都","city":"国分寺市","address":"東京都国分寺市泉町2丁目2-26","lat":35.697944,"lon":139.469609},{"name":"東京都立多摩図書館","province":"東京都","city":"国分寺市","address":"東京都国分寺市泉町2丁目2-26","lat":35.697917,"lon":139.470081},{"name":"国分寺消防署","province":"東京都","city":"国分寺市","address":"東京都国分寺市泉町2丁目2-3","lat":35.69651,"lon":139.470486},{"name":"武蔵国分寺跡資料館","province":"東京都","city":"国分寺市","address":"東京都国分寺市西元町1丁目13-10","lat":35.693836,"lon":139.472786},{"name":"国分寺市役所　本庁","province":"東京都","city":"国分寺市","address":"東京都国分寺市戸倉1丁目6-1","lat":35.710444,"lon":139.463122},{"name":"国分寺市役所　本庁","province":"東京都","city":"国分寺市","address":"東京都国分寺市戸倉1丁目6-1","lat":35.710925,"lon":139.462782},{"name":"国分寺市役所　本庁","province":"東京都","city":"国分寺市","address":"東京都国分寺市戸倉1丁目6-1","lat":35.710557,"lon":139.462961},{"name":"国分寺市いずみプラザ","province":"東京都","city":"国分寺市","address":"東京都国分寺市泉町2丁目3-8","lat":35.696222,"lon":139.468688},{"name":"国分寺市いずみプラザ","province":"東京都","city":"国分寺市","address":"東京都国分寺市泉町2丁目3-8","lat":35.696287,"lon":139.468809},{"name":"国分寺市立本多公民館","province":"東京都","city":"国分寺市","address":"東京都国分寺市本多1丁目7-1","lat":35.705349,"lon":139.482333},{"name":"国分寺市ひかりプラザ","province":"東京都","city":"国分寺市","address":"東京都国分寺市光町1丁目46-8","lat":35.702543,"lon":139.444666},{"name":"国分寺市ひかりプラザ","province":"東京都","city":"国分寺市","address":"東京都国分寺市光町1丁目46-8","lat":35.702607,"lon":139.444609},{"name":"史跡の駅","province":"東京都","city":"国分寺市","address":"東京都国分寺市西元町1丁目13-6","lat":35.693225,"lon":139.472917},{"name":"国分寺市立本多公民館","province":"東京都","city":"国分寺市","address":"東京都国分寺市本多1丁目7-1","lat":35.705322,"lon":139.482711},{"name":"国分寺市立光公民館","province":"東京都","city":"国分寺市","address":"東京都国分寺市光町3丁目13-19","lat":35.707821,"lon":139.443053},{"name":"国分寺市立光公民館","province":"東京都","city":"国分寺市","address":"東京都国分寺市光町3丁目13-19","lat":35.707779,"lon":139.44312},{"name":"国分寺市立もとまち公民館","province":"東京都","city":"国分寺市","address":"東京都国分寺市東元町2丁目3-13","lat":35.692128,"lon":139.483487},{"name":"国分寺市立並木公民館","province":"東京都","city":"国分寺市","address":"東京都国分寺市並木町2丁目12-3","lat":35.715786,"lon":139.453249},{"name":"生きがいセンターこいがくぼ","province":"東京都","city":"国分寺市","address":"東京都国分寺市西恋ヶ窪3丁目32-6","lat":35.705771,"lon":139.465369},{"name":"生きがいセンターほんだ","province":"東京都","city":"国分寺市","address":"東京都国分寺市本多5丁目29-3","lat":35.705692,"lon":139.487216},{"name":"国分寺市いきいきセンター","province":"東京都","city":"国分寺市","address":"東京都国分寺市泉町2丁目3","lat":35.696555,"lon":139.468271},{"name":"国分寺市立福祉センター","province":"東京都","city":"国分寺市","address":"東京都国分寺市戸倉4丁目14","lat":35.708122,"lon":139.455714},{"name":"国分寺市立アクティ・ココブンジ","province":"東京都","city":"国分寺市","address":"東京都国分寺市本町2丁目2-1","lat":35.700678,"lon":139.481543},{"name":"国分寺市立恋ケ窪図書館","province":"東京都","city":"国分寺市","address":"東京都国分寺市西恋ヶ窪4丁目12-8","lat":35.707662,"lon":139.464215},{"name":"国分寺市立光図書館","province":"東京都","city":"国分寺市","address":"東京都国分寺市光町3丁目13-19","lat":35.707852,"lon":139.443073},{"name":"国分寺市立もとまち図書館","province":"東京都","city":"国分寺市","address":"東京都国分寺市東元町2丁目3","lat":35.692278,"lon":139.483471},{"name":"国分寺市立並木図書館","province":"東京都","city":"国分寺市","address":"東京都国分寺市並木町2丁目12-3","lat":35.715857,"lon":139.453154},{"name":"国分寺市立本町・南町地域センター","province":"東京都","city":"国分寺市","address":"東京都国分寺市南町3丁目21-1","lat":35.699822,"lon":139.478864},{"name":"国分寺市立北町地域センター","province":"東京都","city":"国分寺市","address":"東京都国分寺市北町3丁目2-13","lat":35.717831,"lon":139.450012},{"name":"国分寺市立北の原地域センター","province":"東京都","city":"国分寺市","address":"東京都国分寺市東恋ヶ窪6丁目9-11","lat":35.713633,"lon":139.46919},{"name":"国分寺市内藤地域センター","province":"東京都","city":"国分寺市","address":"東京都国分寺市内藤2丁目22-34","lat":35.698206,"lon":139.456225},{"name":"国分寺市立西町プラザ","province":"東京都","city":"国分寺市","address":"東京都国分寺市西町3丁目22-1","lat":35.710847,"lon":139.434242},{"name":"国分寺市立西町プラザ","province":"東京都","city":"国分寺市","address":"東京都国分寺市西町3丁目22-1","lat":35.710835,"lon":139.434322},{"name":"国分寺市立もとまちプラザ","province":"東京都","city":"国分寺市","address":"東京都国分寺市西元町3丁目18-12","lat":35.691285,"lon":139.474987},{"name":"国分寺市立cocobunjiプラザ","province":"東京都","city":"国分寺市","address":"東京都国分寺市本町3丁目1","lat":35.700464,"lon":139.480087},{"name":"国分寺市立いずみホール","province":"東京都","city":"国分寺市","address":"東京都国分寺市泉町3丁目36-12","lat":35.698843,"lon":139.464856},{"name":"窪東公園","province":"東京都","city":"国分寺市","address":"東京都国分寺市東戸倉2丁目19","lat":35.715162,"lon":139.465935},{"name":"北町公園","province":"東京都","city":"国分寺市","address":"東京都国分寺市北町5丁目25","lat":35.720666,"lon":139.451078},{"name":"東恋ヶ窪でんしゃ公園","province":"東京都","city":"国分寺市","address":"東京都国分寺市東恋ヶ窪1丁目","lat":35.704299,"lon":139.470081},{"name":"姿見の池緑地","province":"東京都","city":"国分寺市","address":"東京都国分寺市西恋ヶ窪1丁目32","lat":35.701024,"lon":139.468891},{"name":"内藤さつき公園","province":"東京都","city":"国分寺市","address":"東京都国分寺市内藤1丁目24","lat":35.697298,"lon":139.458472},{"name":"国分寺いきいき農園","province":"東京都","city":"国分寺市","address":"東京都国分寺市戸倉3丁目14","lat":35.709124,"lon":139.452392},{"name":"国分寺駅北口駅前広場","province":"東京都","city":"国分寺市","address":"東京都国分寺市本町3丁目10","lat":35.701895,"lon":139.48045},{"name":"国分寺市障害者センター","province":"東京都","city":"国分寺市","address":"東京都国分寺市泉町2丁目3-8","lat":35.696264,"lon":139.468453},{"name":"市民室内プール","province":"東京都","city":"国分寺市","address":"東京都国分寺市西恋ヶ窪3丁目32-6","lat":35.705738,"lon":139.465354},{"name":"光図書館","province":"東京都","city":"国分寺市","address":"東京都国分寺市光町3-13-19","lat":35.70797479,"lon":139.4431685},{"name":"並木図書館","province":"東京都","city":"国分寺市","address":"東京都国分寺市並木町2-12-3","lat":35.71609957,"lon":139.4529894},{"name":"恋ケ窪図書館","province":"東京都","city":"国分寺市","address":"東京都国分寺市西恋ヶ窪4-12-8","lat":35.70789636,"lon":139.46425},{"name":"本多図書館","province":"東京都","city":"国分寺市","address":"東京都国分寺市本多1-7-1","lat":35.70549468,"lon":139.4821719},{"name":"本多図書館駅前分館","province":"東京都","city":"国分寺市","address":"東京都国分寺市本町4-1-9本町クリスタルビル4階","lat":35.7008298,"lon":139.4779507},{"name":"もとまち図書館","province":"東京都","city":"国分寺市","address":"東京都国分寺市東元町2-3-13","lat":35.6924342,"lon":139.48338},{"name":"ひかりスポーツセンター","province":"東京都","city":"国分寺市","address":"東京都国分寺市光町1-46-8ひかりプラザ","lat":35.70264198,"lon":139.4445856},{"name":"フィットネスルーム（ひかりスポーツセンター内）","province":"東京都","city":"国分寺市","address":"東京都国分寺市光町1-46-8ひかりプラザ","lat":35.70264198,"lon":139.4445856},{"name":"国分寺市民室内プール","province":"東京都","city":"国分寺市","address":"東京都国分寺市西恋ヶ窪3-32-6","lat":35.70586023,"lon":139.4653462},{"name":"戸倉野球場","province":"東京都","city":"国分寺市","address":"東京都国分寺市戸倉1-31-1","lat":35.71418107,"lon":139.4591364},{"name":"本多武道館","province":"東京都","city":"国分寺市","address":"東京都国分寺市本多2-1-18","lat":35.70476857,"lon":139.4811189},{"name":"戸倉第一テニスコート","province":"東京都","city":"国分寺市","address":"東京都国分寺市戸倉1-28-14","lat":35.71356877,"lon":139.4591917},{"name":"戸倉第二テニスコート","province":"東京都","city":"国分寺市","address":"東京都国分寺市戸倉2-5-2","lat":35.70869365,"lon":139.4609194},{"name":"西元町ゲートボール場","province":"東京都","city":"国分寺市","address":"東京都国分寺市西元町3-22","lat":35.6906539,"lon":139.4730347},{"name":"新町ゲートボール場","province":"東京都","city":"国分寺市","address":"東京都国分寺市新町1-19-2","lat":35.71161702,"lon":139.4487797},{"name":"戸倉ゲートボール場","province":"東京都","city":"国分寺市","address":"東京都国分寺市戸倉3-43-1","lat":35.70791715,"lon":139.4511394},{"name":"東京都立多摩図書館","province":"東京都","city":"国分寺市","address":"東京都国分寺市泉町2-2-26","lat":35.698081,"lon":139.469872},{"name":"武蔵国分寺公園","province":"東京都","city":"国分寺市","address":"東京都国分寺市泉町二丁目・西元町二丁目","lat":35.69685,"lon":139.472757},{"name":"殿ヶ谷戸庭園","province":"東京都","city":"国分寺市","address":"東京都国分寺市南町二丁目","lat":35.69872,"lon":139.481937},{"name":"東恋ヶ窪配水所","province":"東京都","city":"国分寺市","address":"東京都国分寺市東恋ヶ窪2-5-8","lat":35.7065051,"lon":139.476399},{"name":"国分寺北町給水所","province":"東京都","city":"国分寺市","address":"東京都国分寺市北町4-1-5","lat":35.721054,"lon":139.45038},{"name":"千春第二保育園","province":"東京都","city":"国分寺市","address":"国分寺市戸倉1丁目22番地2","lat":35.71408,"lon":139.46019},{"name":"ひよし保育園","province":"東京都","city":"国分寺市","address":"国分寺市戸倉2-27-6","lat":35.70458,"lon":139.4541},{"name":"しんまち保育園","province":"東京都","city":"国分寺市","address":"国分寺市新町一丁目7番地11","lat":35.7134,"lon":139.45372},{"name":"ベネッセ国分寺保育園","province":"東京都","city":"国分寺市","address":"国分寺市本多3-1-7","lat":35.70756,"lon":139.48041},{"name":"ほんだ保育園","province":"東京都","city":"国分寺市","address":"国分寺市本多3丁目14番12号","lat":35.71197,"lon":139.47961},{"name":"キャリー保育園国分寺","province":"東京都","city":"国分寺市","address":"国分寺市本多五丁目2番3号ティアラB2階","lat":35.70495,"lon":139.4865},{"name":"ぶんじっこ保育園（本園・分園）","province":"東京都","city":"国分寺市","address":"国分寺市本町4丁目22番9号","lat":35.70332,"lon":139.47784},{"name":"あしたの森保育園","province":"東京都","city":"国分寺市","address":"国分寺市本町四丁目12番6号","lat":35.70135,"lon":139.47852},{"name":"桑の実西国分寺保育園","province":"東京都","city":"国分寺市","address":"国分寺市西恋ヶ窪1-32-15","lat":35.70117,"lon":139.46799},{"name":"西国分寺保育園","province":"東京都","city":"国分寺市","address":"国分寺市西恋ヶ窪2丁目18番地1","lat":35.70197,"lon":139.46448},{"name":"グローバルキッズ西国分寺園","province":"東京都","city":"国分寺市","address":"国分寺市西恋ヶ窪3-18-5","lat":35.70389,"lon":139.46622},{"name":"ポッポのもり保育園","province":"東京都","city":"国分寺市","address":"国分寺市西恋ヶ窪3丁目5番地25","lat":35.70297,"lon":139.46475},{"name":"えがおの森保育園","province":"東京都","city":"国分寺市","address":"国分寺市西恋ヶ窪4丁目17番地18","lat":35.70848,"lon":139.46588},{"name":"あそびの森保育園","province":"東京都","city":"国分寺市","address":"国分寺市東恋ヶ窪2-11-4","lat":35.70844,"lon":139.47633},{"name":"恋ヶ窪保育園","province":"東京都","city":"国分寺市","address":"国分寺市東恋ヶ窪2丁目6番地13","lat":35.7063,"lon":139.47733},{"name":"明国保育園","province":"東京都","city":"国分寺市","address":"国分寺市東恋ヶ窪3-5-7","lat":35.70544,"lon":139.47314},{"name":"国分寺エンジェル保育園","province":"東京都","city":"国分寺市","address":"国分寺市東恋ヶ窪4-29-10","lat":35.70707,"lon":139.46822},{"name":"浴光保育園","province":"東京都","city":"国分寺市","address":"国分寺市東恋ヶ窪4丁目5番地1","lat":35.70763,"lon":139.46962},{"name":"こもれびの森保育園","province":"東京都","city":"国分寺市","address":"国分寺市東恋ヶ窪5丁目8番地3","lat":35.70975,"lon":139.46558},{"name":"アスクこくぶんじ南町保育園","province":"東京都","city":"国分寺市","address":"国分寺市南町1-13-9","lat":35.69859,"lon":139.48711},{"name":"保育園ピコ国分寺","province":"東京都","city":"国分寺市","address":"国分寺市南町3丁目11番7号","lat":35.69822,"lon":139.48032},{"name":"国分寺Ｊキッズステーション","province":"東京都","city":"国分寺市","address":"国分寺市南町3丁目20番3号","lat":35.69989,"lon":139.47997},{"name":"明美保育園","province":"東京都","city":"国分寺市","address":"国分寺市南町三丁目28番3号","lat":35.69968,"lon":139.47736},{"name":"国分寺もとまち保育園","province":"東京都","city":"国分寺市","address":"国分寺市東元町2-13-18","lat":35.69484,"lon":139.48137},{"name":"まなびの森保育園国分寺","province":"東京都","city":"国分寺市","address":"国分寺市東元町三丁目14番2号","lat":35.69559,"lon":139.47968},{"name":"にしこくワンダーランド保育園","province":"東京都","city":"国分寺市","address":"国分寺市西元町2丁目7番9号","lat":35.69253,"lon":139.46912},{"name":"国分寺市立こくぶんじ保育園","province":"東京都","city":"国分寺市","address":"国分寺市泉町2丁目7番2号","lat":35.69861,"lon":139.46899},{"name":"生活クラブ保育園ぽむ・国分寺","province":"東京都","city":"国分寺市","address":"国分寺市泉町3-33-2西晴ビル1階","lat":35.69893,"lon":139.46581},{"name":"ナーサリースクール　クオーレにしこく","province":"東京都","city":"国分寺市","address":"国分寺市泉町三丁目37番23号マーベラスパレス1階","lat":35.69934,"lon":139.46342},{"name":"たんぽぽ保育所西国分寺園","province":"東京都","city":"国分寺市","address":"国分寺市泉町三丁目37番23号マーベラスパレス2階","lat":35.69934,"lon":139.46342},{"name":"ひだまりの森保育園","province":"東京都","city":"国分寺市","address":"国分寺市富士本1丁目2番地16","lat":35.70429,"lon":139.45265},{"name":"富士本保育園","province":"東京都","city":"国分寺市","address":"国分寺市富士本2丁目30番地4","lat":35.70699,"lon":139.44649},{"name":"ポッポのはな保育園","province":"東京都","city":"国分寺市","address":"国分寺市日吉町1丁目2番地14","lat":35.70025,"lon":139.4615},{"name":"やなぎ保育園","province":"東京都","city":"国分寺市","address":"国分寺市日吉町1丁目46番地7","lat":35.70111,"lon":139.45605},{"name":"ニチイキッズ国分寺ひよし保育園","province":"東京都","city":"国分寺市","address":"国分寺市日吉町二丁目23番地9","lat":35.70044,"lon":139.45248},{"name":"ひかり保育園","province":"東京都","city":"国分寺市","address":"国分寺市光町3丁目24番地2","lat":35.70633,"lon":139.44093},{"name":"キッズガーデン国立駅前","province":"東京都","city":"国分寺市","address":"国分寺市光町一丁目43番地17","lat":35.70098,"lon":139.44547},{"name":"じゆうな森保育園","province":"東京都","city":"国分寺市","address":"国分寺市光町二丁目15番地3","lat":35.70448,"lon":139.44112},{"name":"まなびの森保育園","province":"東京都","city":"国分寺市","address":"国分寺市光町二丁目5番地1","lat":35.7009,"lon":139.44336},{"name":"ヴィラまなびの森保育園","province":"東京都","city":"国分寺市","address":"国分寺市光町二丁目5番地27","lat":35.7009,"lon":139.44336},{"name":"くるみの木保育園","province":"東京都","city":"国分寺市","address":"国分寺市西町5丁目8番地8","lat":35.7169,"lon":139.43314},{"name":"ともだちの森保育園","province":"東京都","city":"国分寺市","address":"国分寺市高木町1丁目22番地41","lat":35.71275,"lon":139.44035},{"name":"国分寺市","province":"東京都","city":"国分寺市","address":"国分寺市戸倉1-6-1","lat":35.71077,"lon":139.46265},{"name":"国分寺駅南口自転車駐車場","province":"東京都","city":"国分寺市","address":"東京都国分寺市南町3丁目22-17","lat":35.69951967,"lon":139.47874572},{"name":"国分寺駅南口原動機付自転車駐車場","province":"東京都","city":"国分寺市","address":"東京都国分寺市南町3丁目9","lat":35.69781714,"lon":139.48090671},{"name":"殿ヶ谷戸庭園西自転車駐車場","province":"東京都","city":"国分寺市","address":"東京都国分寺市南町2丁目16","lat":35.69784215,"lon":139.48170941},{"name":"アットパーク泉町二丁目自転車等駐車場","province":"東京都","city":"国分寺市","address":"東京都国分寺市泉町2丁目9-2","lat":35.6994083,"lon":139.46716617},{"name":"アットパーク国立駅北口駐輪場","province":"東京都","city":"国分寺市","address":"東京都国分寺市光町1丁目40-2","lat":35.70095209,"lon":139.44718731},{"name":"西武スマイルパーク恋ヶ窪駅第２駐輪場","province":"東京都","city":"国分寺市","address":"東京都国分寺市戸倉1丁目1-1","lat":35.71085134,"lon":139.46420767},{"name":"西武スマイルパーク恋ヶ窪駅第４駐輪場","province":"東京都","city":"国分寺市","address":"東京都国分寺市東戸倉2丁目11-10","lat":35.71113464,"lon":139.4643132},{"name":"SOCP本町4丁目","province":"東京都","city":"国分寺市","address":"東京都国分寺市本町4丁目13-12","lat":35.70120559,"lon":139.47916227},{"name":"国分寺市地域包括支援センター","province":"東京都","city":"国分寺市","address":"国分寺市泉町2-3-8","lat":35.696209,"lon":139.468216},{"name":"国分寺地域包括支援センターもとまち","province":"東京都","city":"国分寺市","address":"国分寺市東元町2-5-17さわやかプラザもとまち1階","lat":35.691803,"lon":139.480972},{"name":"国分寺地域包括支援センターこいがくぼ","province":"東京都","city":"国分寺市","address":"国分寺市西恋ヶ窪1-50-1にんじんホーム1階","lat":35.705936,"lon":139.467926},{"name":"国分寺地域包括支援センターほんだ","province":"東京都","city":"国分寺市","address":"国分寺市本多2-3-3商工会館3階","lat":35.70401,"lon":139.480164},{"name":"国分寺地域包括支援センターひかり","province":"東京都","city":"国分寺市","address":"国分寺市光町3-13-34国分寺ひかり診療所3階","lat":35.708466,"lon":139.444092},{"name":"国分寺地域包括支援センターひよし","province":"東京都","city":"国分寺市","address":"国分寺市日吉町4-32-6うれしのの里1階","lat":35.706627,"lon":139.458771},{"name":"国分寺地域包括支援センターなみき","province":"東京都","city":"国分寺市","address":"国分寺市並木町3-12-2至誠ホームミンナ1階","lat":35.71442,"lon":139.447311},{"name":"社会福祉法人万葉の里国分寺市障害者センター","province":"東京都","city":"国分寺市","address":"東京都国分寺市泉町2丁目3-8","lat":35.69639202,"lon":139.46876059},{"name":"社会福祉法人ななえの里就労継続支援Ｂ型ともしび工房","province":"東京都","city":"国分寺市","address":"東京都国分寺市西恋ヶ窪4丁目10-2","lat":35.70629633,"lon":139.4651022},{"name":"一般社団法人一粒福祉会デイオアシスまほろば","province":"東京都","city":"国分寺市","address":"東京都国分寺市富士本2丁目18-13","lat":35.70528218,"lon":139.44851482},{"name":"まなびの森保育園国分寺","province":"東京都","city":"国分寺市","address":"国分寺市光町2-5-1","lat":35.7009,"lon":139.44336},{"name":"千春第二保育園","province":"東京都","city":"国分寺市","address":"国分寺市戸倉1-22-2","lat":35.71409,"lon":139.46019},{"name":"えがおの森保育園","province":"東京都","city":"国分寺市","address":"国分寺市西恋ヶ窪4-17-18","lat":35.70849,"lon":139.46588},{"name":"明国保育園","province":"東京都","city":"国分寺市","address":"国分寺市東恋ヶ窪3-5-7","lat":35.70544,"lon":139.47315},{"name":"恋ヶ窪保育園","province":"東京都","city":"国分寺市","address":"国分寺市東恋ヶ窪2-613","lat":35.70804,"lon":139.47559},{"name":"こもれびの森保育園","province":"東京都","city":"国分寺市","address":"国分寺市東恋ヶ窪5-8-3","lat":35.70976,"lon":139.46558},{"name":"明美保育園","province":"東京都","city":"国分寺市","address":"国分寺市南町3-13-18","lat":35.69801,"lon":139.4796},{"name":"ナーサリースクール　クオーレにしこく","province":"東京都","city":"国分寺市","address":"国分寺市泉町3-37-23マーベラスパレス1階","lat":35.69934,"lon":139.46343},{"name":"たんぽぽ保育所西国分寺園","province":"東京都","city":"国分寺市","address":"国分寺市泉町3-37-23マーベラスパレス2階","lat":35.69934,"lon":139.46343},{"name":"やなぎ保育園","province":"東京都","city":"国分寺市","address":"国分寺市日吉町1-46-7","lat":35.70112,"lon":139.45606},{"name":"キッズガーデン国立駅前","province":"東京都","city":"国分寺市","address":"国分寺市光町1-43-17","lat":35.70099,"lon":139.44547},{"name":"さくら国分寺ハウス","province":"東京都","city":"国分寺市","address":"国分寺市東元町3-30-7","lat":35.69677,"lon":139.476974},{"name":"稲荷神社前","province":"東京都","city":"国分寺市","address":"東京都国分寺市光町1丁目23-2","lat":35.70626243,"lon":139.44249866},{"name":"本多公民館西","province":"東京都","city":"国分寺市","address":"東京都国分寺市本多1丁目6-3","lat":35.70516631,"lon":139.48188687},{"name":"国分寺駅南口第一","province":"東京都","city":"国分寺市","address":"東京都国分寺市南町3丁目17-3","lat":35.69936417,"lon":139.48084276},{"name":"国分寺駅南口第二","province":"東京都","city":"国分寺市","address":"東京都国分寺市南町3丁目18-1","lat":35.6991975,"lon":139.47988451},{"name":"国分寺市役所前","province":"東京都","city":"国分寺市","address":"東京都国分寺市戸倉1丁目5","lat":35.71022915,"lon":139.46235786},{"name":"国分寺第二小学校前","province":"東京都","city":"国分寺市","address":"東京都国分寺市光町3丁目1-1","lat":35.70790396,"lon":139.44431232},{"name":"国分寺第四小学校入口","province":"東京都","city":"国分寺市","address":"東京都国分寺市西元町2丁目17","lat":35.69559765,"lon":139.46844954},{"name":"国分寺南町一丁目","province":"東京都","city":"国分寺市","address":"東京都国分寺市南町2丁目1-37","lat":35.69877271,"lon":139.48630621},{"name":"東恋ヶ窪浄水所","province":"東京都","city":"国分寺市","address":"東京都国分寺市東恋ヶ窪2丁目5-8","lat":35.7064827,"lon":139.47639009},{"name":"国分寺市立窪東公園","province":"東京都","city":"国分寺市","address":"東京都国分寺市東戸倉2丁目19","lat":35.71561748,"lon":139.46532404},{"name":"＊?男女平等推進センター(ひかりプラザ内)","province":"東京都","city":"国分寺市","address":"東京都国分寺市光町1-46-8","lat":35.70258,"lon":139.444651},{"name":"＊?国分寺市民俗資料室","province":"東京都","city":"国分寺市","address":"国分寺市本多5-24-11","lat":35.706805,"lon":139.485146},{"name":"＊?武蔵国分寺跡資料館","province":"東京都","city":"国分寺市","address":"国分寺市西元町1-13-10","lat":35.69386,"lon":139.472785},{"name":"＊?いずみホール","province":"東京都","city":"国分寺市","address":"国分寺市泉町3-36-12","lat":35.698913,"lon":139.464936},{"name":"＊?文化財資料展示室","province":"東京都","city":"国分寺市","address":"国分寺市西元町3-10-17","lat":35.690764,"lon":139.469928},{"name":"＊?教育センター(ひかりプラザ内)","province":"東京都","city":"国分寺市","address":"国分寺市光町1-46-8","lat":35.70258,"lon":139.444651},{"name":"(有)野村容器","province":"東京都","city":"国分寺市","address":"国分寺市東恋ケ窪5-2-3","lat":35.707634,"lon":139.467743},{"name":"国分寺市清掃センター","province":"東京都","city":"国分寺市","address":"東京都国分寺市西恋ヶ窪4丁目9-8","lat":35.706036,"lon":139.465652},{"name":"焼却施設","province":"東京都","city":"国分寺市","address":"東京都国分寺市戸倉1丁目15","lat":35.712482,"lon":139.462402},{"name":"国分寺市","province":"東京都","city":"国分寺市","address":"国分寺市戸倉1-6-1","lat":35.711021,"lon":139.462608},{"name":"都立多摩図書館","province":"東京都","city":"国分寺市","address":"東京都国分寺市泉町2丁目2-26","lat":35.69808074,"lon":139.46987155},{"name":"恋ケ窪図書館","province":"東京都","city":"国分寺市","address":"東京都国分寺市西恋ヶ窪4丁目12-8","lat":35.70775448,"lon":139.46427167},{"name":"もとまち図書館","province":"東京都","city":"国分寺市","address":"東京都国分寺市東元町2丁目3-13","lat":35.69222617,"lon":139.48334562},{"name":"本多公民館","province":"東京都","city":"国分寺市","address":"東京都国分寺市本多1丁目7-1","lat":35.70540519,"lon":139.48242849},{"name":"光公民館","province":"東京都","city":"国分寺市","address":"東京都国分寺市光町3丁目13-19","lat":35.70781783,"lon":139.44319021},{"name":"並木公民館","province":"東京都","city":"国分寺市","address":"東京都国分寺市並木町2丁目12-3","lat":35.71585325,"lon":139.45321402},{"name":"労働相談情報センター国分寺事務所","province":"東京都","city":"国分寺市","address":"東京都国分寺市南町3丁目22-10","lat":35.69871697,"lon":139.47803747},{"name":"国分寺高等学校","province":"東京都","city":"国分寺市","address":"東京都国分寺市新町3丁目2-5","lat":35.71226464,"lon":139.4477841},{"name":"国分寺市本庁舎","province":"東京都","city":"国分寺市","address":"東京都国分寺市戸倉1丁目6-1","lat":35.71082909,"lon":139.46270502},{"name":"ひかりスポーツセンター","province":"東京都","city":"国分寺市","address":"東京都国分寺市光町1丁目46-8","lat":35.70270738,"lon":139.44470969},{"name":"国分寺市本庁舎","province":"東京都","city":"国分寺市","address":"国分寺市戸倉1-6-1","lat":35.711021,"lon":139.462608},{"name":"国分寺消防署","province":"東京都","city":"国分寺市","address":"国分寺市本多1-7-15","lat":35.70578,"lon":139.4827},{"name":"※国分寺市本庁舎","province":"東京都","city":"国分寺市","address":"東京都国分寺市戸倉1丁目6-1","lat":35.71082909,"lon":139.46270502},{"name":"西国分寺駅","province":"東京都","city":"国分寺市","address":"東京都国分寺市西恋ヶ窪2丁目1-18","lat":35.69981377,"lon":139.46571628},{"name":"ＥＴ教室","province":"東京都","city":"国分寺市","address":"国分寺市東戸倉2-10-34","lat":35.711662,"lon":139.464127},{"name":"たけのこ","province":"東京都","city":"国分寺市","address":"国分寺市戸倉1-8-43千歳サンライズ107","lat":35.709513,"lon":139.461933},{"name":"「ツリーハウス」","province":"東京都","city":"国分寺市","address":"国分寺市戸倉1-23-3","lat":35.711971,"lon":139.461277},{"name":"「ツリーハウス」Ｌｉｋｏ","province":"東京都","city":"国分寺市","address":"国分寺市戸倉3-46-7","lat":35.710182,"lon":139.451128},{"name":"ハッピーテラス国分寺","province":"東京都","city":"国分寺市","address":"国分寺市南町2-17-4国分寺南町ビューハイツ101号","lat":35.69987,"lon":139.483573},{"name":"放課後等デイサービス　ルーチェ","province":"東京都","city":"国分寺市","address":"国分寺市南町3-4-19京美ビル3階","lat":35.698009,"lon":139.479276},{"name":"福祉の杜とくら地域福祉事業所すてっぷ","province":"東京都","city":"国分寺市","address":"国分寺市富士本1-25-29","lat":35.703174,"lon":139.449815},{"name":"デイサービス事業クラブかたつむり","province":"東京都","city":"国分寺市","address":"国分寺市日吉町4-29-12","lat":35.705732,"lon":139.460078},{"name":"メリーランド国分寺","province":"東京都","city":"国分寺市","address":"国分寺市西町二丁目2番3号第五東財ビル3階","lat":35.705412,"lon":139.439055},{"name":"さくら国分寺ハウス","province":"東京都","city":"国分寺市","address":"国分寺市東元町3-30-7","lat":35.696806,"lon":139.476904},{"name":"国分寺病院","province":"東京都","city":"国分寺市","address":"国分寺市東恋ケ窪4-2-2","lat":35.706505,"lon":139.469438},{"name":"さくら国分寺ハウス","province":"東京都","city":"国分寺市","address":"国分寺市東元町3-30-7","lat":35.69675,"lon":139.47731},{"name":"光図書館","province":"東京都","city":"国分寺市","address":"東京都国分寺市光町3-13-19","lat":35.70797479,"lon":139.4431685},{"name":"並木図書館","province":"東京都","city":"国分寺市","address":"東京都国分寺市並木町2-12-3","lat":35.71609957,"lon":139.4529894},{"name":"恋ケ窪図書館","province":"東京都","city":"国分寺市","address":"東京都国分寺市西恋ヶ窪4-12-8","lat":35.70789636,"lon":139.46425},{"name":"本多図書館","province":"東京都","city":"国分寺市","address":"東京都国分寺市本多1-7-1","lat":35.70549468,"lon":139.4821719},{"name":"本多図書館駅前分館","province":"東京都","city":"国分寺市","address":"東京都国分寺市本町4-1-9本町クリスタルビル4階","lat":35.7008298,"lon":139.4779507},{"name":"もとまち図書館","province":"東京都","city":"国分寺市","address":"東京都国分寺市東元町2-3-13","lat":35.6924342,"lon":139.48338},{"name":"ひかりスポーツセンター","province":"東京都","city":"国分寺市","address":"東京都国分寺市光町1-46-8ひかりプラザ","lat":35.70264198,"lon":139.4445856},{"name":"フィットネスルーム（ひかりスポーツセンター内）","province":"東京都","city":"国分寺市","address":"東京都国分寺市光町1-46-8ひかりプラザ","lat":35.70264198,"lon":139.4445856},{"name":"国分寺市民室内プール","province":"東京都","city":"国分寺市","address":"東京都国分寺市西恋ヶ窪3-32-6","lat":35.70586023,"lon":139.4653462},{"name":"戸倉野球場","province":"東京都","city":"国分寺市","address":"東京都国分寺市戸倉1-31-1","lat":35.71418107,"lon":139.4591364},{"name":"本多武道館","province":"東京都","city":"国分寺市","address":"東京都国分寺市本多2-1-18","lat":35.70476857,"lon":139.4811189},{"name":"戸倉第一テニスコート","province":"東京都","city":"国分寺市","address":"東京都国分寺市戸倉1-28-14","lat":35.71356877,"lon":139.4591917},{"name":"戸倉第二テニスコート","province":"東京都","city":"国分寺市","address":"東京都国分寺市戸倉2-5-2","lat":35.70869365,"lon":139.4609194},{"name":"西元町ゲートボール場","province":"東京都","city":"国分寺市","address":"東京都国分寺市西元町3-22","lat":35.6906539,"lon":139.4730347},{"name":"新町ゲートボール場","province":"東京都","city":"国分寺市","address":"東京都国分寺市新町1-19-2","lat":35.71161702,"lon":139.4487797},{"name":"戸倉ゲートボール場","province":"東京都","city":"国分寺市","address":"東京都国分寺市戸倉3-43-1","lat":35.70791715,"lon":139.4511394},{"name":"東京都立多摩図書館","province":"東京都","city":"国分寺市","address":"東京都国分寺市泉町2-2-26","lat":35.698081,"lon":139.469872},{"name":"武蔵国分寺公園","province":"東京都","city":"国分寺市","address":"東京都国分寺市泉町二丁目・西元町二丁目","lat":35.69685,"lon":139.472757},{"name":"殿ヶ谷戸庭園","province":"東京都","city":"国分寺市","address":"東京都国分寺市南町二丁目","lat":35.69872,"lon":139.481937},{"name":"東恋ヶ窪配水所","province":"東京都","city":"国分寺市","address":"東京都国分寺市東恋ヶ窪2-5-8","lat":35.7065051,"lon":139.476399},{"name":"国分寺北町給水所","province":"東京都","city":"国分寺市","address":"東京都国分寺市北町4-1-5","lat":35.721054,"lon":139.45038},{"name":"国分寺市","province":"東京都","city":"国分寺市","address":"国分寺市戸倉1-6-1","lat":35.71077,"lon":139.46265},{"name":"国分寺駅南口自転車駐車場","province":"東京都","city":"国分寺市","address":"東京都国分寺市南町3丁目22-17","lat":35.69951967,"lon":139.47874572},{"name":"国分寺駅南口原動機付自転車駐車場","province":"東京都","city":"国分寺市","address":"東京都国分寺市南町3丁目9","lat":35.69781714,"lon":139.48090671},{"name":"殿ヶ谷戸庭園西自転車駐車場","province":"東京都","city":"国分寺市","address":"東京都国分寺市南町2丁目16","lat":35.69784215,"lon":139.48170941},{"name":"アットパーク泉町二丁目自転車等駐車場","province":"東京都","city":"国分寺市","address":"東京都国分寺市泉町2丁目9-2","lat":35.6994083,"lon":139.46716617},{"name":"アットパーク国立駅北口駐輪場","province":"東京都","city":"国分寺市","address":"東京都国分寺市光町1丁目40-2","lat":35.70095209,"lon":139.44718731},{"name":"西武スマイルパーク恋ヶ窪駅第２駐輪場","province":"東京都","city":"国分寺市","address":"東京都国分寺市戸倉1丁目1-1","lat":35.71085134,"lon":139.46420767},{"name":"西武スマイルパーク恋ヶ窪駅第４駐輪場","province":"東京都","city":"国分寺市","address":"東京都国分寺市東戸倉2丁目11-10","lat":35.71113464,"lon":139.4643132},{"name":"SOCP本町4丁目","province":"東京都","city":"国分寺市","address":"東京都国分寺市本町4丁目13-12","lat":35.70120559,"lon":139.47916227},{"name":"国分寺市地域包括支援センター","province":"東京都","city":"国分寺市","address":"国分寺市泉町2-3-8","lat":35.696209,"lon":139.468216},{"name":"国分寺地域包括支援センターもとまち","province":"東京都","city":"国分寺市","address":"国分寺市東元町2-5-17さわやかプラザもとまち1階","lat":35.691803,"lon":139.480972},{"name":"国分寺地域包括支援センターこいがくぼ","province":"東京都","city":"国分寺市","address":"国分寺市西恋ヶ窪1-50-1にんじんホーム1階","lat":35.705936,"lon":139.467926},{"name":"国分寺地域包括支援センターほんだ","province":"東京都","city":"国分寺市","address":"国分寺市本多2-3-3商工会館3階","lat":35.70401,"lon":139.480164},{"name":"国分寺地域包括支援センターひかり","province":"東京都","city":"国分寺市","address":"国分寺市光町3-13-34国分寺ひかり診療所3階","lat":35.708466,"lon":139.444092},{"name":"国分寺地域包括支援センターひよし","province":"東京都","city":"国分寺市","address":"国分寺市日吉町4-32-6うれしのの里1階","lat":35.706627,"lon":139.458771},{"name":"国分寺地域包括支援センターなみき","province":"東京都","city":"国分寺市","address":"国分寺市並木町3-12-2至誠ホームミンナ1階","lat":35.71442,"lon":139.447311},{"name":"さくら国分寺ハウス","province":"東京都","city":"国分寺市","address":"国分寺市東元町3-30-7","lat":35.69677,"lon":139.476974},{"name":"稲荷神社前","province":"東京都","city":"国分寺市","address":"東京都国分寺市光町1丁目23-2","lat":35.70626243,"lon":139.44249866},{"name":"本多公民館西","province":"東京都","city":"国分寺市","address":"東京都国分寺市本多1丁目6-3","lat":35.70516631,"lon":139.48188687},{"name":"国分寺駅南口第一","province":"東京都","city":"国分寺市","address":"東京都国分寺市南町3丁目17-3","lat":35.69936417,"lon":139.48084276},{"name":"国分寺駅南口第二","province":"東京都","city":"国分寺市","address":"東京都国分寺市南町3丁目18-1","lat":35.6991975,"lon":139.47988451},{"name":"国分寺市役所前","province":"東京都","city":"国分寺市","address":"東京都国分寺市戸倉1丁目5","lat":35.71022915,"lon":139.46235786},{"name":"国分寺第二小学校前","province":"東京都","city":"国分寺市","address":"東京都国分寺市光町3丁目1-1","lat":35.70790396,"lon":139.44431232},{"name":"国分寺第四小学校入口","province":"東京都","city":"国分寺市","address":"東京都国分寺市西元町2丁目17","lat":35.69559765,"lon":139.46844954},{"name":"国分寺南町一丁目","province":"東京都","city":"国分寺市","address":"東京都国分寺市南町2丁目1-37","lat":35.69877271,"lon":139.48630621},{"name":"＊?男女平等推進センター(ひかりプラザ内)","province":"東京都","city":"国分寺市","address":"東京都国分寺市光町1-46-8","lat":35.70258,"lon":139.444651},{"name":"＊?国分寺市民俗資料室","province":"東京都","city":"国分寺市","address":"国分寺市本多5-24-11","lat":35.706805,"lon":139.485146},{"name":"＊?武蔵国分寺跡資料館","province":"東京都","city":"国分寺市","address":"国分寺市西元町1-13-10","lat":35.69386,"lon":139.472785},{"name":"＊?いずみホール","province":"東京都","city":"国分寺市","address":"国分寺市泉町3-36-12","lat":35.698913,"lon":139.464936},{"name":"＊?文化財資料展示室","province":"東京都","city":"国分寺市","address":"国分寺市西元町3-10-17","lat":35.690764,"lon":139.469928},{"name":"＊?教育センター(ひかりプラザ内)","province":"東京都","city":"国分寺市","address":"国分寺市光町1-46-8","lat":35.70258,"lon":139.444651},{"name":"(有)野村容器","province":"東京都","city":"国分寺市","address":"国分寺市東恋ケ窪5-2-3","lat":35.707634,"lon":139.467743},{"name":"国分寺市清掃センター","province":"東京都","city":"国分寺市","address":"東京都国分寺市西恋ヶ窪4丁目9-8","lat":35.706036,"lon":139.465652},{"name":"焼却施設","province":"東京都","city":"国分寺市","address":"東京都国分寺市戸倉1丁目15","lat":35.712482,"lon":139.462402},{"name":"国分寺市","province":"東京都","city":"国分寺市","address":"国分寺市戸倉1-6-1","lat":35.711021,"lon":139.462608},{"name":"都立多摩図書館","province":"東京都","city":"国分寺市","address":"東京都国分寺市泉町2丁目2-26","lat":35.69808074,"lon":139.46987155},{"name":"恋ケ窪図書館","province":"東京都","city":"国分寺市","address":"東京都国分寺市西恋ヶ窪4丁目12-8","lat":35.70775448,"lon":139.46427167},{"name":"もとまち図書館","province":"東京都","city":"国分寺市","address":"東京都国分寺市東元町2丁目3-13","lat":35.69222617,"lon":139.48334562},{"name":"本多公民館","province":"東京都","city":"国分寺市","address":"東京都国分寺市本多1丁目7-1","lat":35.70540519,"lon":139.48242849},{"name":"光公民館","province":"東京都","city":"国分寺市","address":"東京都国分寺市光町3丁目13-19","lat":35.70781783,"lon":139.44319021},{"name":"並木公民館","province":"東京都","city":"国分寺市","address":"東京都国分寺市並木町2丁目12-3","lat":35.71585325,"lon":139.45321402},{"name":"国分寺消防署","province":"東京都","city":"国分寺市","address":"国分寺市本多1-7-15","lat":35.70578,"lon":139.4827},{"name":"西国分寺駅","province":"東京都","city":"国分寺市","address":"東京都国分寺市西恋ヶ窪2丁目1-18","lat":35.69981377,"lon":139.46571628},{"name":"ＥＴ教室","province":"東京都","city":"国分寺市","address":"国分寺市東戸倉2-10-34","lat":35.711662,"lon":139.464127},{"name":"たけのこ","province":"東京都","city":"国分寺市","address":"国分寺市戸倉1-8-43千歳サンライズ107","lat":35.709513,"lon":139.461933},{"name":"「ツリーハウス」","province":"東京都","city":"国分寺市","address":"国分寺市戸倉1-23-3","lat":35.711971,"lon":139.461277},{"name":"「ツリーハウス」Ｌｉｋｏ","province":"東京都","city":"国分寺市","address":"国分寺市戸倉3-46-7","lat":35.710182,"lon":139.451128},{"name":"ハッピーテラス国分寺","province":"東京都","city":"国分寺市","address":"国分寺市南町2-17-4国分寺南町ビューハイツ101号","lat":35.69987,"lon":139.483573},{"name":"放課後等デイサービス　ルーチェ","province":"東京都","city":"国分寺市","address":"国分寺市南町3-4-19京美ビル3階","lat":35.698009,"lon":139.479276},{"name":"福祉の杜とくら地域福祉事業所すてっぷ","province":"東京都","city":"国分寺市","address":"国分寺市富士本1-25-29","lat":35.703174,"lon":139.449815},{"name":"デイサービス事業クラブかたつむり","province":"東京都","city":"国分寺市","address":"国分寺市日吉町4-29-12","lat":35.705732,"lon":139.460078},{"name":"メリーランド国分寺","province":"東京都","city":"国分寺市","address":"国分寺市西町二丁目2番3号第五東財ビル3階","lat":35.705412,"lon":139.439055},{"name":"さくら国分寺ハウス","province":"東京都","city":"国分寺市","address":"国分寺市東元町3-30-7","lat":35.696806,"lon":139.476904},{"name":"国分寺病院","province":"東京都","city":"国分寺市","address":"国分寺市東恋ケ窪4-2-2","lat":35.706505,"lon":139.469438},{"name":"さくら国分寺ハウス","province":"東京都","city":"国分寺市","address":"国分寺市東元町3-30-7","lat":35.69675,"lon":139.47731},{"name":"光図書館","province":"東京都","city":"国分寺市","address":"東京都国分寺市光町3-13-19","lat":35.70797479,"lon":139.4431685},{"name":"並木図書館","province":"東京都","city":"国分寺市","address":"東京都国分寺市並木町2-12-3","lat":35.71609957,"lon":139.4529894},{"name":"恋ケ窪図書館","province":"東京都","city":"国分寺市","address":"東京都国分寺市西恋ヶ窪4-12-8","lat":35.70789636,"lon":139.46425},{"name":"本多図書館","province":"東京都","city":"国分寺市","address":"東京都国分寺市本多1-7-1","lat":35.70549468,"lon":139.4821719},{"name":"本多図書館駅前分館","province":"東京都","city":"国分寺市","address":"東京都国分寺市本町4-1-9本町クリスタルビル4階","lat":35.7008298,"lon":139.4779507},{"name":"もとまち図書館","province":"東京都","city":"国分寺市","address":"東京都国分寺市東元町2-3-13","lat":35.6924342,"lon":139.48338},{"name":"ひかりスポーツセンター","province":"東京都","city":"国分寺市","address":"東京都国分寺市光町1-46-8ひかりプラザ","lat":35.70264198,"lon":139.4445856},{"name":"フィットネスルーム（ひかりスポーツセンター内）","province":"東京都","city":"国分寺市","address":"東京都国分寺市光町1-46-8ひかりプラザ","lat":35.70264198,"lon":139.4445856},{"name":"国分寺市民室内プール","province":"東京都","city":"国分寺市","address":"東京都国分寺市西恋ヶ窪3-32-6","lat":35.70586023,"lon":139.4653462},{"name":"戸倉野球場","province":"東京都","city":"国分寺市","address":"東京都国分寺市戸倉1-31-1","lat":35.71418107,"lon":139.4591364},{"name":"本多武道館","province":"東京都","city":"国分寺市","address":"東京都国分寺市本多2-1-18","lat":35.70476857,"lon":139.4811189},{"name":"戸倉第一テニスコート","province":"東京都","city":"国分寺市","address":"東京都国分寺市戸倉1-28-14","lat":35.71356877,"lon":139.4591917},{"name":"戸倉第二テニスコート","province":"東京都","city":"国分寺市","address":"東京都国分寺市戸倉2-5-2","lat":35.70869365,"lon":139.4609194},{"name":"西元町ゲートボール場","province":"東京都","city":"国分寺市","address":"東京都国分寺市西元町3-22","lat":35.6906539,"lon":139.4730347},{"name":"新町ゲートボール場","province":"東京都","city":"国分寺市","address":"東京都国分寺市新町1-19-2","lat":35.71161702,"lon":139.4487797},{"name":"戸倉ゲートボール場","province":"東京都","city":"国分寺市","address":"東京都国分寺市戸倉3-43-1","lat":35.70791715,"lon":139.4511394},{"name":"東京都立多摩図書館","province":"東京都","city":"国分寺市","address":"東京都国分寺市泉町2-2-26","lat":35.698081,"lon":139.469872},{"name":"武蔵国分寺公園","province":"東京都","city":"国分寺市","address":"東京都国分寺市泉町二丁目・西元町二丁目","lat":35.69685,"lon":139.472757},{"name":"殿ヶ谷戸庭園","province":"東京都","city":"国分寺市","address":"東京都国分寺市南町二丁目","lat":35.69872,"lon":139.481937},{"name":"東恋ヶ窪配水所","province":"東京都","city":"国分寺市","address":"東京都国分寺市東恋ヶ窪2-5-8","lat":35.7065051,"lon":139.476399},{"name":"国分寺北町給水所","province":"東京都","city":"国分寺市","address":"東京都国分寺市北町4-1-5","lat":35.721054,"lon":139.45038},{"name":"国分寺駅南口自転車駐車場","province":"東京都","city":"国分寺市","address":"東京都国分寺市南町3丁目22-17","lat":35.69951967,"lon":139.47874572},{"name":"国分寺駅南口原動機付自転車駐車場","province":"東京都","city":"国分寺市","address":"東京都国分寺市南町3丁目9","lat":35.69781714,"lon":139.48090671},{"name":"殿ヶ谷戸庭園西自転車駐車場","province":"東京都","city":"国分寺市","address":"東京都国分寺市南町2丁目16","lat":35.69784215,"lon":139.48170941},{"name":"アットパーク泉町二丁目自転車等駐車場","province":"東京都","city":"国分寺市","address":"東京都国分寺市泉町2丁目9-2","lat":35.6994083,"lon":139.46716617},{"name":"アットパーク国立駅北口駐輪場","province":"東京都","city":"国分寺市","address":"東京都国分寺市光町1丁目40-2","lat":35.70095209,"lon":139.44718731},{"name":"西武スマイルパーク恋ヶ窪駅第２駐輪場","province":"東京都","city":"国分寺市","address":"東京都国分寺市戸倉1丁目1-1","lat":35.71085134,"lon":139.46420767},{"name":"西武スマイルパーク恋ヶ窪駅第４駐輪場","province":"東京都","city":"国分寺市","address":"東京都国分寺市東戸倉2丁目11-10","lat":35.71113464,"lon":139.4643132},{"name":"SOCP本町4丁目","province":"東京都","city":"国分寺市","address":"東京都国分寺市本町4丁目13-12","lat":35.70120559,"lon":139.47916227},{"name":"国分寺市地域包括支援センター","province":"東京都","city":"国分寺市","address":"国分寺市泉町2-3-8","lat":35.696209,"lon":139.468216},{"name":"国分寺地域包括支援センターもとまち","province":"東京都","city":"国分寺市","address":"国分寺市東元町2-5-17さわやかプラザもとまち1階","lat":35.691803,"lon":139.480972},{"name":"国分寺地域包括支援センターこいがくぼ","province":"東京都","city":"国分寺市","address":"国分寺市西恋ヶ窪1-50-1にんじんホーム1階","lat":35.705936,"lon":139.467926},{"name":"国分寺地域包括支援センターほんだ","province":"東京都","city":"国分寺市","address":"国分寺市本多2-3-3商工会館3階","lat":35.70401,"lon":139.480164},{"name":"国分寺地域包括支援センターひかり","province":"東京都","city":"国分寺市","address":"国分寺市光町3-13-34国分寺ひかり診療所3階","lat":35.708466,"lon":139.444092},{"name":"国分寺地域包括支援センターひよし","province":"東京都","city":"国分寺市","address":"国分寺市日吉町4-32-6うれしのの里1階","lat":35.706627,"lon":139.458771},{"name":"国分寺地域包括支援センターなみき","province":"東京都","city":"国分寺市","address":"国分寺市並木町3-12-2至誠ホームミンナ1階","lat":35.71442,"lon":139.447311},{"name":"さくら国分寺ハウス","province":"東京都","city":"国分寺市","address":"国分寺市東元町3-30-7","lat":35.69677,"lon":139.476974},{"name":"稲荷神社前","province":"東京都","city":"国分寺市","address":"東京都国分寺市光町1丁目23-2","lat":35.70626243,"lon":139.44249866},{"name":"本多公民館西","province":"東京都","city":"国分寺市","address":"東京都国分寺市本多1丁目6-3","lat":35.70516631,"lon":139.48188687},{"name":"国分寺駅南口第一","province":"東京都","city":"国分寺市","address":"東京都国分寺市南町3丁目17-3","lat":35.69936417,"lon":139.48084276},{"name":"国分寺駅南口第二","province":"東京都","city":"国分寺市","address":"東京都国分寺市南町3丁目18-1","lat":35.6991975,"lon":139.47988451},{"name":"国分寺市役所前","province":"東京都","city":"国分寺市","address":"東京都国分寺市戸倉1丁目5","lat":35.71022915,"lon":139.46235786},{"name":"国分寺第二小学校前","province":"東京都","city":"国分寺市","address":"東京都国分寺市光町3丁目1-1","lat":35.70790396,"lon":139.44431232},{"name":"国分寺第四小学校入口","province":"東京都","city":"国分寺市","address":"東京都国分寺市西元町2丁目17","lat":35.69559765,"lon":139.46844954},{"name":"国分寺南町一丁目","province":"東京都","city":"国分寺市","address":"東京都国分寺市南町2丁目1-37","lat":35.69877271,"lon":139.48630621},{"name":"＊?国分寺市民俗資料室","province":"東京都","city":"国分寺市","address":"国分寺市本多5-24-11","lat":35.706805,"lon":139.485146},{"name":"＊?武蔵国分寺跡資料館","province":"東京都","city":"国分寺市","address":"国分寺市西元町1-13-10","lat":35.69386,"lon":139.472785},{"name":"＊?いずみホール","province":"東京都","city":"国分寺市","address":"国分寺市泉町3-36-12","lat":35.698913,"lon":139.464936},{"name":"＊?文化財資料展示室","province":"東京都","city":"国分寺市","address":"国分寺市西元町3-10-17","lat":35.690764,"lon":139.469928},{"name":"＊?教育センター(ひかりプラザ内)","province":"東京都","city":"国分寺市","address":"国分寺市光町1-46-8","lat":35.70258,"lon":139.444651},{"name":"(有)野村容器","province":"東京都","city":"国分寺市","address":"国分寺市東恋ケ窪5-2-3","lat":35.707634,"lon":139.467743},{"name":"国分寺市清掃センター","province":"東京都","city":"国分寺市","address":"東京都国分寺市西恋ヶ窪4丁目9-8","lat":35.706036,"lon":139.465652},{"name":"焼却施設","province":"東京都","city":"国分寺市","address":"東京都国分寺市戸倉1丁目15","lat":35.712482,"lon":139.462402},{"name":"都立多摩図書館","province":"東京都","city":"国分寺市","address":"東京都国分寺市泉町2丁目2-26","lat":35.69808074,"lon":139.46987155},{"name":"恋ケ窪図書館","province":"東京都","city":"国分寺市","address":"東京都国分寺市西恋ヶ窪4丁目12-8","lat":35.70775448,"lon":139.46427167},{"name":"もとまち図書館","province":"東京都","city":"国分寺市","address":"東京都国分寺市東元町2丁目3-13","lat":35.69222617,"lon":139.48334562},{"name":"本多公民館","province":"東京都","city":"国分寺市","address":"東京都国分寺市本多1丁目7-1","lat":35.70540519,"lon":139.48242849},{"name":"光公民館","province":"東京都","city":"国分寺市","address":"東京都国分寺市光町3丁目13-19","lat":35.70781783,"lon":139.44319021},{"name":"並木公民館","province":"東京都","city":"国分寺市","address":"東京都国分寺市並木町2丁目12-3","lat":35.71585325,"lon":139.45321402},{"name":"西国分寺駅","province":"東京都","city":"国分寺市","address":"東京都国分寺市西恋ヶ窪2丁目1-18","lat":35.69981377,"lon":139.46571628},{"name":"ＥＴ教室","province":"東京都","city":"国分寺市","address":"国分寺市東戸倉2-10-34","lat":35.711662,"lon":139.464127},{"name":"たけのこ","province":"東京都","city":"国分寺市","address":"国分寺市戸倉1-8-43千歳サンライズ107","lat":35.709513,"lon":139.461933},{"name":"「ツリーハウス」","province":"東京都","city":"国分寺市","address":"国分寺市戸倉1-23-3","lat":35.711971,"lon":139.461277},{"name":"「ツリーハウス」Ｌｉｋｏ","province":"東京都","city":"国分寺市","address":"国分寺市戸倉3-46-7","lat":35.710182,"lon":139.451128},{"name":"ハッピーテラス国分寺","province":"東京都","city":"国分寺市","address":"国分寺市南町2-17-4国分寺南町ビューハイツ101号","lat":35.69987,"lon":139.483573},{"name":"放課後等デイサービス　ルーチェ","province":"東京都","city":"国分寺市","address":"国分寺市南町3-4-19京美ビル3階","lat":35.698009,"lon":139.479276},{"name":"福祉の杜とくら地域福祉事業所すてっぷ","province":"東京都","city":"国分寺市","address":"国分寺市富士本1-25-29","lat":35.703174,"lon":139.449815},{"name":"デイサービス事業クラブかたつむり","province":"東京都","city":"国分寺市","address":"国分寺市日吉町4-29-12","lat":35.705732,"lon":139.460078},{"name":"メリーランド国分寺","province":"東京都","city":"国分寺市","address":"国分寺市西町二丁目2番3号第五東財ビル3階","lat":35.705412,"lon":139.439055},{"name":"さくら国分寺ハウス","province":"東京都","city":"国分寺市","address":"国分寺市東元町3-30-7","lat":35.696806,"lon":139.476904},{"name":"国分寺病院","province":"東京都","city":"国分寺市","address":"国分寺市東恋ケ窪4-2-2","lat":35.706505,"lon":139.469438},{"name":"さくら国分寺ハウス","province":"東京都","city":"国分寺市","address":"国分寺市東元町3-30-7","lat":35.69675,"lon":139.47731},{"name":"光図書館","province":"東京都","city":"国分寺市","address":"東京都国分寺市光町3-13-19","lat":35.70797479,"lon":139.4431685},{"name":"並木図書館","province":"東京都","city":"国分寺市","address":"東京都国分寺市並木町2-12-3","lat":35.71609957,"lon":139.4529894},{"name":"恋ケ窪図書館","province":"東京都","city":"国分寺市","address":"東京都国分寺市西恋ヶ窪4-12-8","lat":35.70789636,"lon":139.46425},{"name":"本多図書館","province":"東京都","city":"国分寺市","address":"東京都国分寺市本多1-7-1","lat":35.70549468,"lon":139.4821719},{"name":"本多図書館駅前分館","province":"東京都","city":"国分寺市","address":"東京都国分寺市本町4-1-9本町クリスタルビル4階","lat":35.7008298,"lon":139.4779507},{"name":"もとまち図書館","province":"東京都","city":"国分寺市","address":"東京都国分寺市東元町2-3-13","lat":35.6924342,"lon":139.48338},{"name":"ひかりスポーツセンター","province":"東京都","city":"国分寺市","address":"東京都国分寺市光町1-46-8ひかりプラザ","lat":35.70264198,"lon":139.4445856},{"name":"フィットネスルーム（ひかりスポーツセンター内）","province":"東京都","city":"国分寺市","address":"東京都国分寺市光町1-46-8ひかりプラザ","lat":35.70264198,"lon":139.4445856},{"name":"国分寺市民室内プール","province":"東京都","city":"国分寺市","address":"東京都国分寺市西恋ヶ窪3-32-6","lat":35.70586023,"lon":139.4653462},{"name":"戸倉野球場","province":"東京都","city":"国分寺市","address":"東京都国分寺市戸倉1-31-1","lat":35.71418107,"lon":139.4591364},{"name":"本多武道館","province":"東京都","city":"国分寺市","address":"東京都国分寺市本多2-1-18","lat":35.70476857,"lon":139.4811189},{"name":"戸倉第一テニスコート","province":"東京都","city":"国分寺市","address":"東京都国分寺市戸倉1-28-14","lat":35.71356877,"lon":139.4591917},{"name":"戸倉第二テニスコート","province":"東京都","city":"国分寺市","address":"東京都国分寺市戸倉2-5-2","lat":35.70869365,"lon":139.4609194},{"name":"西元町ゲートボール場","province":"東京都","city":"国分寺市","address":"東京都国分寺市西元町3-22","lat":35.6906539,"lon":139.4730347},{"name":"新町ゲートボール場","province":"東京都","city":"国分寺市","address":"東京都国分寺市新町1-19-2","lat":35.71161702,"lon":139.4487797},{"name":"戸倉ゲートボール場","province":"東京都","city":"国分寺市","address":"東京都国分寺市戸倉3-43-1","lat":35.70791715,"lon":139.4511394},{"name":"東京都立多摩図書館","province":"東京都","city":"国分寺市","address":"東京都国分寺市泉町2-2-26","lat":35.698081,"lon":139.469872},{"name":"武蔵国分寺公園","province":"東京都","city":"国分寺市","address":"東京都国分寺市泉町二丁目・西元町二丁目","lat":35.69685,"lon":139.472757},{"name":"殿ヶ谷戸庭園","province":"東京都","city":"国分寺市","address":"東京都国分寺市南町二丁目","lat":35.69872,"lon":139.481937},{"name":"東恋ヶ窪配水所","province":"東京都","city":"国分寺市","address":"東京都国分寺市東恋ヶ窪2-5-8","lat":35.7065051,"lon":139.476399},{"name":"国分寺北町給水所","province":"東京都","city":"国分寺市","address":"東京都国分寺市北町4-1-5","lat":35.721054,"lon":139.45038},{"name":"国分寺駅南口自転車駐車場","province":"東京都","city":"国分寺市","address":"東京都国分寺市南町3丁目22-17","lat":35.69951967,"lon":139.47874572},{"name":"国分寺駅南口原動機付自転車駐車場","province":"東京都","city":"国分寺市","address":"東京都国分寺市南町3丁目9","lat":35.69781714,"lon":139.48090671},{"name":"殿ヶ谷戸庭園西自転車駐車場","province":"東京都","city":"国分寺市","address":"東京都国分寺市南町2丁目16","lat":35.69784215,"lon":139.48170941},{"name":"アットパーク泉町二丁目自転車等駐車場","province":"東京都","city":"国分寺市","address":"東京都国分寺市泉町2丁目9-2","lat":35.6994083,"lon":139.46716617},{"name":"アットパーク国立駅北口駐輪場","province":"東京都","city":"国分寺市","address":"東京都国分寺市光町1丁目40-2","lat":35.70095209,"lon":139.44718731},{"name":"西武スマイルパーク恋ヶ窪駅第２駐輪場","province":"東京都","city":"国分寺市","address":"東京都国分寺市戸倉1丁目1-1","lat":35.71085134,"lon":139.46420767},{"name":"西武スマイルパーク恋ヶ窪駅第４駐輪場","province":"東京都","city":"国分寺市","address":"東京都国分寺市東戸倉2丁目11-10","lat":35.71113464,"lon":139.4643132},{"name":"SOCP本町4丁目","province":"東京都","city":"国分寺市","address":"東京都国分寺市本町4丁目13-12","lat":35.70120559,"lon":139.47916227},{"name":"さくら国分寺ハウス","province":"東京都","city":"国分寺市","address":"国分寺市東元町3-30-7","lat":35.69677,"lon":139.476974},{"name":"稲荷神社前","province":"東京都","city":"国分寺市","address":"東京都国分寺市光町1丁目23-2","lat":35.70626243,"lon":139.44249866},{"name":"本多公民館西","province":"東京都","city":"国分寺市","address":"東京都国分寺市本多1丁目6-3","lat":35.70516631,"lon":139.48188687},{"name":"国分寺駅南口第一","province":"東京都","city":"国分寺市","address":"東京都国分寺市南町3丁目17-3","lat":35.69936417,"lon":139.48084276},{"name":"国分寺駅南口第二","province":"東京都","city":"国分寺市","address":"東京都国分寺市南町3丁目18-1","lat":35.6991975,"lon":139.47988451},{"name":"国分寺市役所前","province":"東京都","city":"国分寺市","address":"東京都国分寺市戸倉1丁目5","lat":35.71022915,"lon":139.46235786},{"name":"国分寺第二小学校前","province":"東京都","city":"国分寺市","address":"東京都国分寺市光町3丁目1-1","lat":35.70790396,"lon":139.44431232},{"name":"国分寺第四小学校入口","province":"東京都","city":"国分寺市","address":"東京都国分寺市西元町2丁目17","lat":35.69559765,"lon":139.46844954},{"name":"国分寺南町一丁目","province":"東京都","city":"国分寺市","address":"東京都国分寺市南町2丁目1-37","lat":35.69877271,"lon":139.48630621},{"name":"＊?国分寺市民俗資料室","province":"東京都","city":"国分寺市","address":"国分寺市本多5-24-11","lat":35.706805,"lon":139.485146},{"name":"＊?武蔵国分寺跡資料館","province":"東京都","city":"国分寺市","address":"国分寺市西元町1-13-10","lat":35.69386,"lon":139.472785},{"name":"＊?いずみホール","province":"東京都","city":"国分寺市","address":"国分寺市泉町3-36-12","lat":35.698913,"lon":139.464936},{"name":"＊?文化財資料展示室","province":"東京都","city":"国分寺市","address":"国分寺市西元町3-10-17","lat":35.690764,"lon":139.469928},{"name":"＊?教育センター(ひかりプラザ内)","province":"東京都","city":"国分寺市","address":"国分寺市光町1-46-8","lat":35.70258,"lon":139.444651},{"name":"(有)野村容器","province":"東京都","city":"国分寺市","address":"国分寺市東恋ケ窪5-2-3","lat":35.707634,"lon":139.467743},{"name":"国分寺市清掃センター","province":"東京都","city":"国分寺市","address":"東京都国分寺市西恋ヶ窪4丁目9-8","lat":35.706036,"lon":139.465652},{"name":"焼却施設","province":"東京都","city":"国分寺市","address":"東京都国分寺市戸倉1丁目15","lat":35.712482,"lon":139.462402},{"name":"都立多摩図書館","province":"東京都","city":"国分寺市","address":"東京都国分寺市泉町2丁目2-26","lat":35.69808074,"lon":139.46987155},{"name":"恋ケ窪図書館","province":"東京都","city":"国分寺市","address":"東京都国分寺市西恋ヶ窪4丁目12-8","lat":35.70775448,"lon":139.46427167},{"name":"もとまち図書館","province":"東京都","city":"国分寺市","address":"東京都国分寺市東元町2丁目3-13","lat":35.69222617,"lon":139.48334562},{"name":"本多公民館","province":"東京都","city":"国分寺市","address":"東京都国分寺市本多1丁目7-1","lat":35.70540519,"lon":139.48242849},{"name":"光公民館","province":"東京都","city":"国分寺市","address":"東京都国分寺市光町3丁目13-19","lat":35.70781783,"lon":139.44319021},{"name":"並木公民館","province":"東京都","city":"国分寺市","address":"東京都国分寺市並木町2丁目12-3","lat":35.71585325,"lon":139.45321402},{"name":"西国分寺駅","province":"東京都","city":"国分寺市","address":"東京都国分寺市西恋ヶ窪2丁目1-18","lat":35.69981377,"lon":139.46571628},{"name":"ＥＴ教室","province":"東京都","city":"国分寺市","address":"国分寺市東戸倉2-10-34","lat":35.711662,"lon":139.464127},{"name":"たけのこ","province":"東京都","city":"国分寺市","address":"国分寺市戸倉1-8-43千歳サンライズ107","lat":35.709513,"lon":139.461933},{"name":"「ツリーハウス」","province":"東京都","city":"国分寺市","address":"国分寺市戸倉1-23-3","lat":35.711971,"lon":139.461277},{"name":"「ツリーハウス」Ｌｉｋｏ","province":"東京都","city":"国分寺市","address":"国分寺市戸倉3-46-7","lat":35.710182,"lon":139.451128},{"name":"ハッピーテラス国分寺","province":"東京都","city":"国分寺市","address":"国分寺市南町2-17-4国分寺南町ビューハイツ101号","lat":35.69987,"lon":139.483573},{"name":"放課後等デイサービス　ルーチェ","province":"東京都","city":"国分寺市","address":"国分寺市南町3-4-19京美ビル3階","lat":35.698009,"lon":139.479276},{"name":"福祉の杜とくら地域福祉事業所すてっぷ","province":"東京都","city":"国分寺市","address":"国分寺市富士本1-25-29","lat":35.703174,"lon":139.449815},{"name":"デイサービス事業クラブかたつむり","province":"東京都","city":"国分寺市","address":"国分寺市日吉町4-29-12","lat":35.705732,"lon":139.460078},{"name":"メリーランド国分寺","province":"東京都","city":"国分寺市","address":"国分寺市西町二丁目2番3号第五東財ビル3階","lat":35.705412,"lon":139.439055},{"name":"さくら国分寺ハウス","province":"東京都","city":"国分寺市","address":"国分寺市東元町3-30-7","lat":35.696806,"lon":139.476904},{"name":"国分寺病院","province":"東京都","city":"国分寺市","address":"国分寺市東恋ケ窪4-2-2","lat":35.706505,"lon":139.469438},{"name":"さくら国分寺ハウス","province":"東京都","city":"国分寺市","address":"国分寺市東元町3-30-7","lat":35.69675,"lon":139.47731},{"name":"光図書館","province":"東京都","city":"国分寺市","address":"東京都国分寺市光町3-13-19","lat":35.70797479,"lon":139.4431685},{"name":"並木図書館","province":"東京都","city":"国分寺市","address":"東京都国分寺市並木町2-12-3","lat":35.71609957,"lon":139.4529894},{"name":"恋ケ窪図書館","province":"東京都","city":"国分寺市","address":"東京都国分寺市西恋ヶ窪4-12-8","lat":35.70789636,"lon":139.46425},{"name":"本多図書館","province":"東京都","city":"国分寺市","address":"東京都国分寺市本多1-7-1","lat":35.70549468,"lon":139.4821719},{"name":"本多図書館駅前分館","province":"東京都","city":"国分寺市","address":"東京都国分寺市本町4-1-9本町クリスタルビル4階","lat":35.7008298,"lon":139.4779507},{"name":"もとまち図書館","province":"東京都","city":"国分寺市","address":"東京都国分寺市東元町2-3-13","lat":35.6924342,"lon":139.48338},{"name":"ひかりスポーツセンター","province":"東京都","city":"国分寺市","address":"東京都国分寺市光町1-46-8ひかりプラザ","lat":35.70264198,"lon":139.4445856},{"name":"フィットネスルーム（ひかりスポーツセンター内）","province":"東京都","city":"国分寺市","address":"東京都国分寺市光町1-46-8ひかりプラザ","lat":35.70264198,"lon":139.4445856},{"name":"国分寺市民室内プール","province":"東京都","city":"国分寺市","address":"東京都国分寺市西恋ヶ窪3-32-6","lat":35.70586023,"lon":139.4653462},{"name":"戸倉野球場","province":"東京都","city":"国分寺市","address":"東京都国分寺市戸倉1-31-1","lat":35.71418107,"lon":139.4591364},{"name":"本多武道館","province":"東京都","city":"国分寺市","address":"東京都国分寺市本多2-1-18","lat":35.70476857,"lon":139.4811189},{"name":"戸倉第一テニスコート","province":"東京都","city":"国分寺市","address":"東京都国分寺市戸倉1-28-14","lat":35.71356877,"lon":139.4591917},{"name":"戸倉第二テニスコート","province":"東京都","city":"国分寺市","address":"東京都国分寺市戸倉2-5-2","lat":35.70869365,"lon":139.4609194},{"name":"西元町ゲートボール場","province":"東京都","city":"国分寺市","address":"東京都国分寺市西元町3-22","lat":35.6906539,"lon":139.4730347},{"name":"新町ゲートボール場","province":"東京都","city":"国分寺市","address":"東京都国分寺市新町1-19-2","lat":35.71161702,"lon":139.4487797},{"name":"戸倉ゲートボール場","province":"東京都","city":"国分寺市","address":"東京都国分寺市戸倉3-43-1","lat":35.70791715,"lon":139.4511394},{"name":"東京都立多摩図書館","province":"東京都","city":"国分寺市","address":"東京都国分寺市泉町2-2-26","lat":35.698081,"lon":139.469872},{"name":"武蔵国分寺公園","province":"東京都","city":"国分寺市","address":"東京都国分寺市泉町二丁目・西元町二丁目","lat":35.69685,"lon":139.472757},{"name":"殿ヶ谷戸庭園","province":"東京都","city":"国分寺市","address":"東京都国分寺市南町二丁目","lat":35.69872,"lon":139.481937},{"name":"東恋ヶ窪配水所","province":"東京都","city":"国分寺市","address":"東京都国分寺市東恋ヶ窪2-5-8","lat":35.7065051,"lon":139.476399},{"name":"国分寺北町給水所","province":"東京都","city":"国分寺市","address":"東京都国分寺市北町4-1-5","lat":35.721054,"lon":139.45038},{"name":"国分寺駅南口自転車駐車場","province":"東京都","city":"国分寺市","address":"東京都国分寺市南町3丁目22-17","lat":35.69951967,"lon":139.47874572},{"name":"国分寺駅南口原動機付自転車駐車場","province":"東京都","city":"国分寺市","address":"東京都国分寺市南町3丁目9","lat":35.69781714,"lon":139.48090671},{"name":"殿ヶ谷戸庭園西自転車駐車場","province":"東京都","city":"国分寺市","address":"東京都国分寺市南町2丁目16","lat":35.69784215,"lon":139.48170941},{"name":"アットパーク泉町二丁目自転車等駐車場","province":"東京都","city":"国分寺市","address":"東京都国分寺市泉町2丁目9-2","lat":35.6994083,"lon":139.46716617},{"name":"アットパーク国立駅北口駐輪場","province":"東京都","city":"国分寺市","address":"東京都国分寺市光町1丁目40-2","lat":35.70095209,"lon":139.44718731},{"name":"西武スマイルパーク恋ヶ窪駅第２駐輪場","province":"東京都","city":"国分寺市","address":"東京都国分寺市戸倉1丁目1-1","lat":35.71085134,"lon":139.46420767},{"name":"西武スマイルパーク恋ヶ窪駅第４駐輪場","province":"東京都","city":"国分寺市","address":"東京都国分寺市東戸倉2丁目11-10","lat":35.71113464,"lon":139.4643132},{"name":"SOCP本町4丁目","province":"東京都","city":"国分寺市","address":"東京都国分寺市本町4丁目13-12","lat":35.70120559,"lon":139.47916227},{"name":"さくら国分寺ハウス","province":"東京都","city":"国分寺市","address":"国分寺市東元町3-30-7","lat":35.69677,"lon":139.476974},{"name":"稲荷神社前","province":"東京都","city":"国分寺市","address":"東京都国分寺市光町1丁目23-2","lat":35.70626243,"lon":139.44249866},{"name":"本多公民館西","province":"東京都","city":"国分寺市","address":"東京都国分寺市本多1丁目6-3","lat":35.70516631,"lon":139.48188687},{"name":"国分寺駅南口第一","province":"東京都","city":"国分寺市","address":"東京都国分寺市南町3丁目17-3","lat":35.69936417,"lon":139.48084276},{"name":"国分寺駅南口第二","province":"東京都","city":"国分寺市","address":"東京都国分寺市南町3丁目18-1","lat":35.6991975,"lon":139.47988451},{"name":"国分寺市役所前","province":"東京都","city":"国分寺市","address":"東京都国分寺市戸倉1丁目5","lat":35.71022915,"lon":139.46235786},{"name":"国分寺第二小学校前","province":"東京都","city":"国分寺市","address":"東京都国分寺市光町3丁目1-1","lat":35.70790396,"lon":139.44431232},{"name":"国分寺第四小学校入口","province":"東京都","city":"国分寺市","address":"東京都国分寺市西元町2丁目17","lat":35.69559765,"lon":139.46844954},{"name":"国分寺南町一丁目","province":"東京都","city":"国分寺市","address":"東京都国分寺市南町2丁目1-37","lat":35.69877271,"lon":139.48630621},{"name":"＊?国分寺市民俗資料室","province":"東京都","city":"国分寺市","address":"国分寺市本多5-24-11","lat":35.706805,"lon":139.485146},{"name":"＊?武蔵国分寺跡資料館","province":"東京都","city":"国分寺市","address":"国分寺市西元町1-13-10","lat":35.69386,"lon":139.472785},{"name":"＊?いずみホール","province":"東京都","city":"国分寺市","address":"国分寺市泉町3-36-12","lat":35.698913,"lon":139.464936},{"name":"＊?文化財資料展示室","province":"東京都","city":"国分寺市","address":"国分寺市西元町3-10-17","lat":35.690764,"lon":139.469928},{"name":"＊?教育センター(ひかりプラザ内)","province":"東京都","city":"国分寺市","address":"国分寺市光町1-46-8","lat":35.70258,"lon":139.444651},{"name":"国分寺市清掃センター","province":"東京都","city":"国分寺市","address":"東京都国分寺市西恋ヶ窪4丁目9-8","lat":35.706036,"lon":139.465652},{"name":"焼却施設","province":"東京都","city":"国分寺市","address":"東京都国分寺市戸倉1丁目15","lat":35.712482,"lon":139.462402},{"name":"都立多摩図書館","province":"東京都","city":"国分寺市","address":"東京都国分寺市泉町2丁目2-26","lat":35.69808074,"lon":139.46987155},{"name":"恋ケ窪図書館","province":"東京都","city":"国分寺市","address":"東京都国分寺市西恋ヶ窪4丁目12-8","lat":35.70775448,"lon":139.46427167},{"name":"もとまち図書館","province":"東京都","city":"国分寺市","address":"東京都国分寺市東元町2丁目3-13","lat":35.69222617,"lon":139.48334562},{"name":"本多公民館","province":"東京都","city":"国分寺市","address":"東京都国分寺市本多1丁目7-1","lat":35.70540519,"lon":139.48242849},{"name":"光公民館","province":"東京都","city":"国分寺市","address":"東京都国分寺市光町3丁目13-19","lat":35.70781783,"lon":139.44319021},{"name":"並木公民館","province":"東京都","city":"国分寺市","address":"東京都国分寺市並木町2丁目12-3","lat":35.71585325,"lon":139.45321402},{"name":"西国分寺駅","province":"東京都","city":"国分寺市","address":"東京都国分寺市西恋ヶ窪2丁目1-18","lat":35.69981377,"lon":139.46571628},{"name":"ＥＴ教室","province":"東京都","city":"国分寺市","address":"国分寺市東戸倉2-10-34","lat":35.711662,"lon":139.464127},{"name":"たけのこ","province":"東京都","city":"国分寺市","address":"国分寺市戸倉1-8-43千歳サンライズ107","lat":35.709513,"lon":139.461933},{"name":"「ツリーハウス」","province":"東京都","city":"国分寺市","address":"国分寺市戸倉1-23-3","lat":35.711971,"lon":139.461277},{"name":"「ツリーハウス」Ｌｉｋｏ","province":"東京都","city":"国分寺市","address":"国分寺市戸倉3-46-7","lat":35.710182,"lon":139.451128},{"name":"ハッピーテラス国分寺","province":"東京都","city":"国分寺市","address":"国分寺市南町2-17-4国分寺南町ビューハイツ101号","lat":35.69987,"lon":139.483573},{"name":"放課後等デイサービス　ルーチェ","province":"東京都","city":"国分寺市","address":"国分寺市南町3-4-19京美ビル3階","lat":35.698009,"lon":139.479276},{"name":"福祉の杜とくら地域福祉事業所すてっぷ","province":"東京都","city":"国分寺市","address":"国分寺市富士本1-25-29","lat":35.703174,"lon":139.449815},{"name":"デイサービス事業クラブかたつむり","province":"東京都","city":"国分寺市","address":"国分寺市日吉町4-29-12","lat":35.705732,"lon":139.460078},{"name":"メリーランド国分寺","province":"東京都","city":"国分寺市","address":"国分寺市西町二丁目2番3号第五東財ビル3階","lat":35.705412,"lon":139.439055},{"name":"さくら国分寺ハウス","province":"東京都","city":"国分寺市","address":"国分寺市東元町3-30-7","lat":35.696806,"lon":139.476904},{"name":"国分寺病院","province":"東京都","city":"国分寺市","address":"国分寺市東恋ケ窪4-2-2","lat":35.706505,"lon":139.469438},{"name":"さくら国分寺ハウス","province":"東京都","city":"国分寺市","address":"国分寺市東元町3-30-7","lat":35.69675,"lon":139.47731},{"name":"東京都立多摩図書館","province":"東京都","city":"国分寺市","address":"東京都国分寺市泉町2-2-26","lat":35.698081,"lon":139.469872},{"name":"武蔵国分寺公園","province":"東京都","city":"国分寺市","address":"東京都国分寺市泉町二丁目・西元町二丁目","lat":35.69685,"lon":139.472757},{"name":"殿ヶ谷戸庭園","province":"東京都","city":"国分寺市","address":"東京都国分寺市南町二丁目","lat":35.69872,"lon":139.481937},{"name":"東恋ヶ窪配水所","province":"東京都","city":"国分寺市","address":"東京都国分寺市東恋ヶ窪2-5-8","lat":35.7065051,"lon":139.476399},{"name":"国分寺北町給水所","province":"東京都","city":"国分寺市","address":"東京都国分寺市北町4-1-5","lat":35.721054,"lon":139.45038},{"name":"国分寺駅南口自転車駐車場","province":"東京都","city":"国分寺市","address":"東京都国分寺市南町3丁目22-17","lat":35.69951967,"lon":139.47874572},{"name":"国分寺駅南口原動機付自転車駐車場","province":"東京都","city":"国分寺市","address":"東京都国分寺市南町3丁目9","lat":35.69781714,"lon":139.48090671},{"name":"殿ヶ谷戸庭園西自転車駐車場","province":"東京都","city":"国分寺市","address":"東京都国分寺市南町2丁目16","lat":35.69784215,"lon":139.48170941},{"name":"アットパーク泉町二丁目自転車等駐車場","province":"東京都","city":"国分寺市","address":"東京都国分寺市泉町2丁目9-2","lat":35.6994083,"lon":139.46716617},{"name":"アットパーク国立駅北口駐輪場","province":"東京都","city":"国分寺市","address":"東京都国分寺市光町1丁目40-2","lat":35.70095209,"lon":139.44718731},{"name":"西武スマイルパーク恋ヶ窪駅第２駐輪場","province":"東京都","city":"国分寺市","address":"東京都国分寺市戸倉1丁目1-1","lat":35.71085134,"lon":139.46420767},{"name":"西武スマイルパーク恋ヶ窪駅第４駐輪場","province":"東京都","city":"国分寺市","address":"東京都国分寺市東戸倉2丁目11-10","lat":35.71113464,"lon":139.4643132},{"name":"SOCP本町4丁目","province":"東京都","city":"国分寺市","address":"東京都国分寺市本町4丁目13-12","lat":35.70120559,"lon":139.47916227},{"name":"さくら国分寺ハウス","province":"東京都","city":"国分寺市","address":"国分寺市東元町3-30-7","lat":35.69677,"lon":139.476974},{"name":"稲荷神社前","province":"東京都","city":"国分寺市","address":"東京都国分寺市光町1丁目23-2","lat":35.70626243,"lon":139.44249866},{"name":"本多公民館西","province":"東京都","city":"国分寺市","address":"東京都国分寺市本多1丁目6-3","lat":35.70516631,"lon":139.48188687},{"name":"国分寺駅南口第一","province":"東京都","city":"国分寺市","address":"東京都国分寺市南町3丁目17-3","lat":35.69936417,"lon":139.48084276},{"name":"国分寺駅南口第二","province":"東京都","city":"国分寺市","address":"東京都国分寺市南町3丁目18-1","lat":35.6991975,"lon":139.47988451},{"name":"国分寺市役所前","province":"東京都","city":"国分寺市","address":"東京都国分寺市戸倉1丁目5","lat":35.71022915,"lon":139.46235786},{"name":"国分寺第二小学校前","province":"東京都","city":"国分寺市","address":"東京都国分寺市光町3丁目1-1","lat":35.70790396,"lon":139.44431232},{"name":"国分寺第四小学校入口","province":"東京都","city":"国分寺市","address":"東京都国分寺市西元町2丁目17","lat":35.69559765,"lon":139.46844954},{"name":"国分寺南町一丁目","province":"東京都","city":"国分寺市","address":"東京都国分寺市南町2丁目1-37","lat":35.69877271,"lon":139.48630621},{"name":"＊?いずみホール","province":"東京都","city":"国分寺市","address":"国分寺市泉町3-36-12","lat":35.698913,"lon":139.464936},{"name":"＊?文化財資料展示室","province":"東京都","city":"国分寺市","address":"国分寺市西元町3-10-17","lat":35.690764,"lon":139.469928},{"name":"＊?教育センター(ひかりプラザ内)","province":"東京都","city":"国分寺市","address":"国分寺市光町1-46-8","lat":35.70258,"lon":139.444651},{"name":"国分寺市清掃センター","province":"東京都","city":"国分寺市","address":"東京都国分寺市西恋ヶ窪4丁目9-8","lat":35.706036,"lon":139.465652},{"name":"焼却施設","province":"東京都","city":"国分寺市","address":"東京都国分寺市戸倉1丁目15","lat":35.712482,"lon":139.462402},{"name":"都立多摩図書館","province":"東京都","city":"国分寺市","address":"東京都国分寺市泉町2丁目2-26","lat":35.69808074,"lon":139.46987155},{"name":"恋ケ窪図書館","province":"東京都","city":"国分寺市","address":"東京都国分寺市西恋ヶ窪4丁目12-8","lat":35.70775448,"lon":139.46427167},{"name":"もとまち図書館","province":"東京都","city":"国分寺市","address":"東京都国分寺市東元町2丁目3-13","lat":35.69222617,"lon":139.48334562},{"name":"本多公民館","province":"東京都","city":"国分寺市","address":"東京都国分寺市本多1丁目7-1","lat":35.70540519,"lon":139.48242849},{"name":"光公民館","province":"東京都","city":"国分寺市","address":"東京都国分寺市光町3丁目13-19","lat":35.70781783,"lon":139.44319021},{"name":"並木公民館","province":"東京都","city":"国分寺市","address":"東京都国分寺市並木町2丁目12-3","lat":35.71585325,"lon":139.45321402},{"name":"ＥＴ教室","province":"東京都","city":"国分寺市","address":"国分寺市東戸倉2-10-34","lat":35.711662,"lon":139.464127},{"name":"たけのこ","province":"東京都","city":"国分寺市","address":"国分寺市戸倉1-8-43千歳サンライズ107","lat":35.709513,"lon":139.461933},{"name":"「ツリーハウス」","province":"東京都","city":"国分寺市","address":"国分寺市戸倉1-23-3","lat":35.711971,"lon":139.461277},{"name":"「ツリーハウス」Ｌｉｋｏ","province":"東京都","city":"国分寺市","address":"国分寺市戸倉3-46-7","lat":35.710182,"lon":139.451128},{"name":"ハッピーテラス国分寺","province":"東京都","city":"国分寺市","address":"国分寺市南町2-17-4国分寺南町ビューハイツ101号","lat":35.69987,"lon":139.483573},{"name":"放課後等デイサービス　ルーチェ","province":"東京都","city":"国分寺市","address":"国分寺市南町3-4-19京美ビル3階","lat":35.698009,"lon":139.479276},{"name":"福祉の杜とくら地域福祉事業所すてっぷ","province":"東京都","city":"国分寺市","address":"国分寺市富士本1-25-29","lat":35.703174,"lon":139.449815},{"name":"デイサービス事業クラブかたつむり","province":"東京都","city":"国分寺市","address":"国分寺市日吉町4-29-12","lat":35.705732,"lon":139.460078},{"name":"メリーランド国分寺","province":"東京都","city":"国分寺市","address":"国分寺市西町二丁目2番3号第五東財ビル3階","lat":35.705412,"lon":139.439055},{"name":"さくら国分寺ハウス","province":"東京都","city":"国分寺市","address":"国分寺市東元町3-30-7","lat":35.696806,"lon":139.476904},{"name":"国分寺病院","province":"東京都","city":"国分寺市","address":"国分寺市東恋ケ窪4-2-2","lat":35.706505,"lon":139.469438},{"name":"さくら国分寺ハウス","province":"東京都","city":"国分寺市","address":"国分寺市東元町3-30-7","lat":35.69675,"lon":139.47731},{"name":"東京都立多摩図書館","province":"東京都","city":"国分寺市","address":"東京都国分寺市泉町2-2-26","lat":35.698081,"lon":139.469872},{"name":"武蔵国分寺公園","province":"東京都","city":"国分寺市","address":"東京都国分寺市泉町二丁目・西元町二丁目","lat":35.69685,"lon":139.472757},{"name":"殿ヶ谷戸庭園","province":"東京都","city":"国分寺市","address":"東京都国分寺市南町二丁目","lat":35.69872,"lon":139.481937},{"name":"東恋ヶ窪配水所","province":"東京都","city":"国分寺市","address":"東京都国分寺市東恋ヶ窪2-5-8","lat":35.7065051,"lon":139.476399},{"name":"国分寺北町給水所","province":"東京都","city":"国分寺市","address":"東京都国分寺市北町4-1-5","lat":35.721054,"lon":139.45038},{"name":"国分寺駅南口自転車駐車場","province":"東京都","city":"国分寺市","address":"東京都国分寺市南町3丁目22-17","lat":35.69951967,"lon":139.47874572},{"name":"国分寺駅南口原動機付自転車駐車場","province":"東京都","city":"国分寺市","address":"東京都国分寺市南町3丁目9","lat":35.69781714,"lon":139.48090671},{"name":"殿ヶ谷戸庭園西自転車駐車場","province":"東京都","city":"国分寺市","address":"東京都国分寺市南町2丁目16","lat":35.69784215,"lon":139.48170941},{"name":"アットパーク泉町二丁目自転車等駐車場","province":"東京都","city":"国分寺市","address":"東京都国分寺市泉町2丁目9-2","lat":35.6994083,"lon":139.46716617},{"name":"アットパーク国立駅北口駐輪場","province":"東京都","city":"国分寺市","address":"東京都国分寺市光町1丁目40-2","lat":35.70095209,"lon":139.44718731},{"name":"西武スマイルパーク恋ヶ窪駅第２駐輪場","province":"東京都","city":"国分寺市","address":"東京都国分寺市戸倉1丁目1-1","lat":35.71085134,"lon":139.46420767},{"name":"西武スマイルパーク恋ヶ窪駅第４駐輪場","province":"東京都","city":"国分寺市","address":"東京都国分寺市東戸倉2丁目11-10","lat":35.71113464,"lon":139.4643132},{"name":"SOCP本町4丁目","province":"東京都","city":"国分寺市","address":"東京都国分寺市本町4丁目13-12","lat":35.70120559,"lon":139.47916227},{"name":"さくら国分寺ハウス","province":"東京都","city":"国分寺市","address":"国分寺市東元町3-30-7","lat":35.69677,"lon":139.476974},{"name":"稲荷神社前","province":"東京都","city":"国分寺市","address":"東京都国分寺市光町1丁目23-2","lat":35.70626243,"lon":139.44249866},{"name":"本多公民館西","province":"東京都","city":"国分寺市","address":"東京都国分寺市本多1丁目6-3","lat":35.70516631,"lon":139.48188687},{"name":"国分寺駅南口第一","province":"東京都","city":"国分寺市","address":"東京都国分寺市南町3丁目17-3","lat":35.69936417,"lon":139.48084276},{"name":"国分寺駅南口第二","province":"東京都","city":"国分寺市","address":"東京都国分寺市南町3丁目18-1","lat":35.6991975,"lon":139.47988451},{"name":"国分寺市役所前","province":"東京都","city":"国分寺市","address":"東京都国分寺市戸倉1丁目5","lat":35.71022915,"lon":139.46235786},{"name":"国分寺第二小学校前","province":"東京都","city":"国分寺市","address":"東京都国分寺市光町3丁目1-1","lat":35.70790396,"lon":139.44431232},{"name":"国分寺第四小学校入口","province":"東京都","city":"国分寺市","address":"東京都国分寺市西元町2丁目17","lat":35.69559765,"lon":139.46844954},{"name":"国分寺南町一丁目","province":"東京都","city":"国分寺市","address":"東京都国分寺市南町2丁目1-37","lat":35.69877271,"lon":139.48630621},{"name":"国分寺市清掃センター","province":"東京都","city":"国分寺市","address":"東京都国分寺市西恋ヶ窪4丁目9-8","lat":35.706036,"lon":139.465652},{"name":"焼却施設","province":"東京都","city":"国分寺市","address":"東京都国分寺市戸倉1丁目15","lat":35.712482,"lon":139.462402},{"name":"都立多摩図書館","province":"東京都","city":"国分寺市","address":"東京都国分寺市泉町2丁目2-26","lat":35.69808074,"lon":139.46987155},{"name":"恋ケ窪図書館","province":"東京都","city":"国分寺市","address":"東京都国分寺市西恋ヶ窪4丁目12-8","lat":35.70775448,"lon":139.46427167},{"name":"もとまち図書館","province":"東京都","city":"国分寺市","address":"東京都国分寺市東元町2丁目3-13","lat":35.69222617,"lon":139.48334562},{"name":"本多公民館","province":"東京都","city":"国分寺市","address":"東京都国分寺市本多1丁目7-1","lat":35.70540519,"lon":139.48242849},{"name":"光公民館","province":"東京都","city":"国分寺市","address":"東京都国分寺市光町3丁目13-19","lat":35.70781783,"lon":139.44319021},{"name":"並木公民館","province":"東京都","city":"国分寺市","address":"東京都国分寺市並木町2丁目12-3","lat":35.71585325,"lon":139.45321402},{"name":"さくら国分寺ハウス","province":"東京都","city":"国分寺市","address":"国分寺市東元町3-30-7","lat":35.696806,"lon":139.476904},{"name":"国分寺病院","province":"東京都","city":"国分寺市","address":"国分寺市東恋ケ窪4-2-2","lat":35.706505,"lon":139.469438},{"name":"さくら国分寺ハウス","province":"東京都","city":"国分寺市","address":"国分寺市東元町3-30-7","lat":35.69675,"lon":139.47731},{"name":"東京都立多摩図書館","province":"東京都","city":"国分寺市","address":"東京都国分寺市泉町2-2-26","lat":35.698081,"lon":139.469872},{"name":"武蔵国分寺公園","province":"東京都","city":"国分寺市","address":"東京都国分寺市泉町二丁目・西元町二丁目","lat":35.69685,"lon":139.472757},{"name":"殿ヶ谷戸庭園","province":"東京都","city":"国分寺市","address":"東京都国分寺市南町二丁目","lat":35.69872,"lon":139.481937},{"name":"東恋ヶ窪配水所","province":"東京都","city":"国分寺市","address":"東京都国分寺市東恋ヶ窪2-5-8","lat":35.7065051,"lon":139.476399},{"name":"国分寺北町給水所","province":"東京都","city":"国分寺市","address":"東京都国分寺市北町4-1-5","lat":35.721054,"lon":139.45038},{"name":"国分寺駅南口自転車駐車場","province":"東京都","city":"国分寺市","address":"東京都国分寺市南町3丁目22-17","lat":35.69951967,"lon":139.47874572},{"name":"国分寺駅南口原動機付自転車駐車場","province":"東京都","city":"国分寺市","address":"東京都国分寺市南町3丁目9","lat":35.69781714,"lon":139.48090671},{"name":"殿ヶ谷戸庭園西自転車駐車場","province":"東京都","city":"国分寺市","address":"東京都国分寺市南町2丁目16","lat":35.69784215,"lon":139.48170941},{"name":"アットパーク泉町二丁目自転車等駐車場","province":"東京都","city":"国分寺市","address":"東京都国分寺市泉町2丁目9-2","lat":35.6994083,"lon":139.46716617},{"name":"アットパーク国立駅北口駐輪場","province":"東京都","city":"国分寺市","address":"東京都国分寺市光町1丁目40-2","lat":35.70095209,"lon":139.44718731},{"name":"西武スマイルパーク恋ヶ窪駅第２駐輪場","province":"東京都","city":"国分寺市","address":"東京都国分寺市戸倉1丁目1-1","lat":35.71085134,"lon":139.46420767},{"name":"西武スマイルパーク恋ヶ窪駅第４駐輪場","province":"東京都","city":"国分寺市","address":"東京都国分寺市東戸倉2丁目11-10","lat":35.71113464,"lon":139.4643132},{"name":"SOCP本町4丁目","province":"東京都","city":"国分寺市","address":"東京都国分寺市本町4丁目13-12","lat":35.70120559,"lon":139.47916227},{"name":"さくら国分寺ハウス","province":"東京都","city":"国分寺市","address":"国分寺市東元町3-30-7","lat":35.69677,"lon":139.476974},{"name":"国分寺市清掃センター","province":"東京都","city":"国分寺市","address":"東京都国分寺市西恋ヶ窪4丁目9-8","lat":35.706036,"lon":139.465652},{"name":"焼却施設","province":"東京都","city":"国分寺市","address":"東京都国分寺市戸倉1丁目15","lat":35.712482,"lon":139.462402},{"name":"都立多摩図書館","province":"東京都","city":"国分寺市","address":"東京都国分寺市泉町2丁目2-26","lat":35.69808074,"lon":139.46987155},{"name":"恋ケ窪図書館","province":"東京都","city":"国分寺市","address":"東京都国分寺市西恋ヶ窪4丁目12-8","lat":35.70775448,"lon":139.46427167},{"name":"もとまち図書館","province":"東京都","city":"国分寺市","address":"東京都国分寺市東元町2丁目3-13","lat":35.69222617,"lon":139.48334562},{"name":"本多公民館","province":"東京都","city":"国分寺市","address":"東京都国分寺市本多1丁目7-1","lat":35.70540519,"lon":139.48242849},{"name":"光公民館","province":"東京都","city":"国分寺市","address":"東京都国分寺市光町3丁目13-19","lat":35.70781783,"lon":139.44319021},{"name":"並木公民館","province":"東京都","city":"国分寺市","address":"東京都国分寺市並木町2丁目12-3","lat":35.71585325,"lon":139.45321402},{"name":"さくら国分寺ハウス","province":"東京都","city":"国分寺市","address":"国分寺市東元町3-30-7","lat":35.696806,"lon":139.476904},{"name":"国分寺病院","province":"東京都","city":"国分寺市","address":"国分寺市東恋ケ窪4-2-2","lat":35.706505,"lon":139.469438},{"name":"さくら国分寺ハウス","province":"東京都","city":"国分寺市","address":"国分寺市東元町3-30-7","lat":35.69675,"lon":139.47731},{"name":"東京都立多摩図書館","province":"東京都","city":"国分寺市","address":"東京都国分寺市泉町2-2-26","lat":35.698081,"lon":139.469872},{"name":"武蔵国分寺公園","province":"東京都","city":"国分寺市","address":"東京都国分寺市泉町二丁目・西元町二丁目","lat":35.69685,"lon":139.472757},{"name":"殿ヶ谷戸庭園","province":"東京都","city":"国分寺市","address":"東京都国分寺市南町二丁目","lat":35.69872,"lon":139.481937},{"name":"東恋ヶ窪配水所","province":"東京都","city":"国分寺市","address":"東京都国分寺市東恋ヶ窪2-5-8","lat":35.7065051,"lon":139.476399},{"name":"国分寺北町給水所","province":"東京都","city":"国分寺市","address":"東京都国分寺市北町4-1-5","lat":35.721054,"lon":139.45038},{"name":"国分寺駅南口自転車駐車場","province":"東京都","city":"国分寺市","address":"東京都国分寺市南町3丁目22-17","lat":35.69951967,"lon":139.47874572},{"name":"国分寺駅南口原動機付自転車駐車場","province":"東京都","city":"国分寺市","address":"東京都国分寺市南町3丁目9","lat":35.69781714,"lon":139.48090671},{"name":"殿ヶ谷戸庭園西自転車駐車場","province":"東京都","city":"国分寺市","address":"東京都国分寺市南町2丁目16","lat":35.69784215,"lon":139.48170941},{"name":"アットパーク泉町二丁目自転車等駐車場","province":"東京都","city":"国分寺市","address":"東京都国分寺市泉町2丁目9-2","lat":35.6994083,"lon":139.46716617},{"name":"アットパーク国立駅北口駐輪場","province":"東京都","city":"国分寺市","address":"東京都国分寺市光町1丁目40-2","lat":35.70095209,"lon":139.44718731},{"name":"西武スマイルパーク恋ヶ窪駅第２駐輪場","province":"東京都","city":"国分寺市","address":"東京都国分寺市戸倉1丁目1-1","lat":35.71085134,"lon":139.46420767},{"name":"西武スマイルパーク恋ヶ窪駅第４駐輪場","province":"東京都","city":"国分寺市","address":"東京都国分寺市東戸倉2丁目11-10","lat":35.71113464,"lon":139.4643132},{"name":"SOCP本町4丁目","province":"東京都","city":"国分寺市","address":"東京都国分寺市本町4丁目13-12","lat":35.70120559,"lon":139.47916227},{"name":"さくら国分寺ハウス","province":"東京都","city":"国分寺市","address":"国分寺市東元町3-30-7","lat":35.69677,"lon":139.476974},{"name":"国分寺市清掃センター","province":"東京都","city":"国分寺市","address":"東京都国分寺市西恋ヶ窪4丁目9-8","lat":35.706036,"lon":139.465652},{"name":"焼却施設","province":"東京都","city":"国分寺市","address":"東京都国分寺市戸倉1丁目15","lat":35.712482,"lon":139.462402},{"name":"都立多摩図書館","province":"東京都","city":"国分寺市","address":"東京都国分寺市泉町2丁目2-26","lat":35.69808074,"lon":139.46987155},{"name":"恋ケ窪図書館","province":"東京都","city":"国分寺市","address":"東京都国分寺市西恋ヶ窪4丁目12-8","lat":35.70775448,"lon":139.46427167},{"name":"もとまち図書館","province":"東京都","city":"国分寺市","address":"東京都国分寺市東元町2丁目3-13","lat":35.69222617,"lon":139.48334562},{"name":"本多公民館","province":"東京都","city":"国分寺市","address":"東京都国分寺市本多1丁目7-1","lat":35.70540519,"lon":139.48242849},{"name":"光公民館","province":"東京都","city":"国分寺市","address":"東京都国分寺市光町3丁目13-19","lat":35.70781783,"lon":139.44319021},{"name":"並木公民館","province":"東京都","city":"国分寺市","address":"東京都国分寺市並木町2丁目12-3","lat":35.71585325,"lon":139.45321402},{"name":"東京都立多摩図書館","province":"東京都","city":"国分寺市","address":"東京都国分寺市泉町2-2-26","lat":35.698081,"lon":139.469872},{"name":"武蔵国分寺公園","province":"東京都","city":"国分寺市","address":"東京都国分寺市泉町二丁目・西元町二丁目","lat":35.69685,"lon":139.472757},{"name":"殿ヶ谷戸庭園","province":"東京都","city":"国分寺市","address":"東京都国分寺市南町二丁目","lat":35.69872,"lon":139.481937},{"name":"東恋ヶ窪配水所","province":"東京都","city":"国分寺市","address":"東京都国分寺市東恋ヶ窪2-5-8","lat":35.7065051,"lon":139.476399},{"name":"国分寺北町給水所","province":"東京都","city":"国分寺市","address":"東京都国分寺市北町4-1-5","lat":35.721054,"lon":139.45038},{"name":"国分寺駅南口自転車駐車場","province":"東京都","city":"国分寺市","address":"東京都国分寺市南町3丁目22-17","lat":35.69951967,"lon":139.47874572},{"name":"国分寺駅南口原動機付自転車駐車場","province":"東京都","city":"国分寺市","address":"東京都国分寺市南町3丁目9","lat":35.69781714,"lon":139.48090671},{"name":"殿ヶ谷戸庭園西自転車駐車場","province":"東京都","city":"国分寺市","address":"東京都国分寺市南町2丁目16","lat":35.69784215,"lon":139.48170941},{"name":"アットパーク泉町二丁目自転車等駐車場","province":"東京都","city":"国分寺市","address":"東京都国分寺市泉町2丁目9-2","lat":35.6994083,"lon":139.46716617},{"name":"アットパーク国立駅北口駐輪場","province":"東京都","city":"国分寺市","address":"東京都国分寺市光町1丁目40-2","lat":35.70095209,"lon":139.44718731},{"name":"西武スマイルパーク恋ヶ窪駅第２駐輪場","province":"東京都","city":"国分寺市","address":"東京都国分寺市戸倉1丁目1-1","lat":35.71085134,"lon":139.46420767},{"name":"西武スマイルパーク恋ヶ窪駅第４駐輪場","province":"東京都","city":"国分寺市","address":"東京都国分寺市東戸倉2丁目11-10","lat":35.71113464,"lon":139.4643132},{"name":"SOCP本町4丁目","province":"東京都","city":"国分寺市","address":"東京都国分寺市本町4丁目13-12","lat":35.70120559,"lon":139.47916227},{"name":"国分寺市清掃センター","province":"東京都","city":"国分寺市","address":"東京都国分寺市西恋ヶ窪4丁目9-8","lat":35.706036,"lon":139.465652},{"name":"焼却施設","province":"東京都","city":"国分寺市","address":"東京都国分寺市戸倉1丁目15","lat":35.712482,"lon":139.462402},{"name":"都立多摩図書館","province":"東京都","city":"国分寺市","address":"東京都国分寺市泉町2丁目2-26","lat":35.69808074,"lon":139.46987155},{"name":"恋ケ窪図書館","province":"東京都","city":"国分寺市","address":"東京都国分寺市西恋ヶ窪4丁目12-8","lat":35.70775448,"lon":139.46427167},{"name":"もとまち図書館","province":"東京都","city":"国分寺市","address":"東京都国分寺市東元町2丁目3-13","lat":35.69222617,"lon":139.48334562},{"name":"本多公民館","province":"東京都","city":"国分寺市","address":"東京都国分寺市本多1丁目7-1","lat":35.70540519,"lon":139.48242849},{"name":"光公民館","province":"東京都","city":"国分寺市","address":"東京都国分寺市光町3丁目13-19","lat":35.70781783,"lon":139.44319021},{"name":"並木公民館","province":"東京都","city":"国分寺市","address":"東京都国分寺市並木町2丁目12-3","lat":35.71585325,"lon":139.45321402},{"name":"東京都立多摩図書館","province":"東京都","city":"国分寺市","address":"東京都国分寺市泉町2-2-26","lat":35.698081,"lon":139.469872},{"name":"武蔵国分寺公園","province":"東京都","city":"国分寺市","address":"東京都国分寺市泉町二丁目・西元町二丁目","lat":35.69685,"lon":139.472757},{"name":"殿ヶ谷戸庭園","province":"東京都","city":"国分寺市","address":"東京都国分寺市南町二丁目","lat":35.69872,"lon":139.481937},{"name":"国分寺市清掃センター","province":"東京都","city":"国分寺市","address":"東京都国分寺市西恋ヶ窪4丁目9-8","lat":35.706036,"lon":139.465652},{"name":"焼却施設","province":"東京都","city":"国分寺市","address":"東京都国分寺市戸倉1丁目15","lat":35.712482,"lon":139.462402},{"name":"都立多摩図書館","province":"東京都","city":"国分寺市","address":"東京都国分寺市泉町2丁目2-26","lat":35.69808074,"lon":139.46987155},{"name":"恋ケ窪図書館","province":"東京都","city":"国分寺市","address":"東京都国分寺市西恋ヶ窪4丁目12-8","lat":35.70775448,"lon":139.46427167},{"name":"もとまち図書館","province":"東京都","city":"国分寺市","address":"東京都国分寺市東元町2丁目3-13","lat":35.69222617,"lon":139.48334562},{"name":"本多公民館","province":"東京都","city":"国分寺市","address":"東京都国分寺市本多1丁目7-1","lat":35.70540519,"lon":139.48242849},{"name":"光公民館","province":"東京都","city":"国分寺市","address":"東京都国分寺市光町3丁目13-19","lat":35.70781783,"lon":139.44319021},{"name":"並木公民館","province":"東京都","city":"国分寺市","address":"東京都国分寺市並木町2丁目12-3","lat":35.71585325,"lon":139.45321402},{"name":"国分寺市清掃センター","province":"東京都","city":"国分寺市","address":"東京都国分寺市西恋ヶ窪4丁目9-8","lat":35.706036,"lon":139.465652},{"name":"焼却施設","province":"東京都","city":"国分寺市","address":"東京都国分寺市戸倉1丁目15","lat":35.712482,"lon":139.462402},{"name":"都立多摩図書館","province":"東京都","city":"国分寺市","address":"東京都国分寺市泉町2丁目2-26","lat":35.69808074,"lon":139.46987155},{"name":"恋ケ窪図書館","province":"東京都","city":"国分寺市","address":"東京都国分寺市西恋ヶ窪4丁目12-8","lat":35.70775448,"lon":139.46427167},{"name":"もとまち図書館","province":"東京都","city":"国分寺市","address":"東京都国分寺市東元町2丁目3-13","lat":35.69222617,"lon":139.48334562},{"name":"本多公民館","province":"東京都","city":"国分寺市","address":"東京都国分寺市本多1丁目7-1","lat":35.70540519,"lon":139.48242849},{"name":"光公民館","province":"東京都","city":"国分寺市","address":"東京都国分寺市光町3丁目13-19","lat":35.70781783,"lon":139.44319021},{"name":"並木公民館","province":"東京都","city":"国分寺市","address":"東京都国分寺市並木町2丁目12-3","lat":35.71585325,"lon":139.45321402},{"name":"国分寺市清掃センター","province":"東京都","city":"国分寺市","address":"東京都国分寺市西恋ヶ窪4丁目9-8","lat":35.706036,"lon":139.465652},{"name":"焼却施設","province":"東京都","city":"国分寺市","address":"東京都国分寺市戸倉1丁目15","lat":35.712482,"lon":139.462402},{"name":"都立多摩図書館","province":"東京都","city":"国分寺市","address":"東京都国分寺市泉町2丁目2-26","lat":35.69808074,"lon":139.46987155},{"name":"恋ケ窪図書館","province":"東京都","city":"国分寺市","address":"東京都国分寺市西恋ヶ窪4丁目12-8","lat":35.70775448,"lon":139.46427167},{"name":"もとまち図書館","province":"東京都","city":"国分寺市","address":"東京都国分寺市東元町2丁目3-13","lat":35.69222617,"lon":139.48334562},{"name":"本多公民館","province":"東京都","city":"国分寺市","address":"東京都国分寺市本多1丁目7-1","lat":35.70540519,"lon":139.48242849},{"name":"光公民館","province":"東京都","city":"国分寺市","address":"東京都国分寺市光町3丁目13-19","lat":35.70781783,"lon":139.44319021},{"name":"並木公民館","province":"東京都","city":"国分寺市","address":"東京都国分寺市並木町2丁目12-3","lat":35.71585325,"lon":139.45321402},{"name":"国分寺市清掃センター","province":"東京都","city":"国分寺市","address":"東京都国分寺市西恋ヶ窪4丁目9-8","lat":35.706036,"lon":139.465652},{"name":"焼却施設","province":"東京都","city":"国分寺市","address":"東京都国分寺市戸倉1丁目15","lat":35.712482,"lon":139.462402},{"name":"都立多摩図書館","province":"東京都","city":"国分寺市","address":"東京都国分寺市泉町2丁目2-26","lat":35.69808074,"lon":139.46987155},{"name":"恋ケ窪図書館","province":"東京都","city":"国分寺市","address":"東京都国分寺市西恋ヶ窪4丁目12-8","lat":35.70775448,"lon":139.46427167},{"name":"もとまち図書館","province":"東京都","city":"国分寺市","address":"東京都国分寺市東元町2丁目3-13","lat":35.69222617,"lon":139.48334562},{"name":"本多公民館","province":"東京都","city":"国分寺市","address":"東京都国分寺市本多1丁目7-1","lat":35.70540519,"lon":139.48242849},{"name":"光公民館","province":"東京都","city":"国分寺市","address":"東京都国分寺市光町3丁目13-19","lat":35.70781783,"lon":139.44319021},{"name":"並木公民館","province":"東京都","city":"国分寺市","address":"東京都国分寺市並木町2丁目12-3","lat":35.71585325,"lon":139.45321402},{"name":"国分寺市清掃センター","province":"東京都","city":"国分寺市","address":"東京都国分寺市西恋ヶ窪4丁目9-8","lat":35.706036,"lon":139.465652},{"name":"焼却施設","province":"東京都","city":"国分寺市","address":"東京都国分寺市戸倉1丁目15","lat":35.712482,"lon":139.462402},{"name":"都立多摩図書館","province":"東京都","city":"国分寺市","address":"東京都国分寺市泉町2丁目2-26","lat":35.69808074,"lon":139.46987155},{"name":"恋ケ窪図書館","province":"東京都","city":"国分寺市","address":"東京都国分寺市西恋ヶ窪4丁目12-8","lat":35.70775448,"lon":139.46427167},{"name":"もとまち図書館","province":"東京都","city":"国分寺市","address":"東京都国分寺市東元町2丁目3-13","lat":35.69222617,"lon":139.48334562},{"name":"本多公民館","province":"東京都","city":"国分寺市","address":"東京都国分寺市本多1丁目7-1","lat":35.70540519,"lon":139.48242849},{"name":"光公民館","province":"東京都","city":"国分寺市","address":"東京都国分寺市光町3丁目13-19","lat":35.70781783,"lon":139.44319021},{"name":"並木公民館","province":"東京都","city":"国分寺市","address":"東京都国分寺市並木町2丁目12-3","lat":35.71585325,"lon":139.45321402},{"name":"国分寺市清掃センター","province":"東京都","city":"国分寺市","address":"東京都国分寺市西恋ヶ窪4丁目9-8","lat":35.706036,"lon":139.465652},{"name":"焼却施設","province":"東京都","city":"国分寺市","address":"東京都国分寺市戸倉1丁目15","lat":35.712482,"lon":139.462402},{"name":"都立多摩図書館","province":"東京都","city":"国分寺市","address":"東京都国分寺市泉町2丁目2-26","lat":35.69808074,"lon":139.46987155},{"name":"恋ケ窪図書館","province":"東京都","city":"国分寺市","address":"東京都国分寺市西恋ヶ窪4丁目12-8","lat":35.70775448,"lon":139.46427167},{"name":"もとまち図書館","province":"東京都","city":"国分寺市","address":"東京都国分寺市東元町2丁目3-13","lat":35.69222617,"lon":139.48334562},{"name":"本多公民館","province":"東京都","city":"国分寺市","address":"東京都国分寺市本多1丁目7-1","lat":35.70540519,"lon":139.48242849},{"name":"光公民館","province":"東京都","city":"国分寺市","address":"東京都国分寺市光町3丁目13-19","lat":35.70781783,"lon":139.44319021},{"name":"並木公民館","province":"東京都","city":"国分寺市","address":"東京都国分寺市並木町2丁目12-3","lat":35.71585325,"lon":139.45321402},{"name":"国分寺市清掃センター","province":"東京都","city":"国分寺市","address":"東京都国分寺市西恋ヶ窪4丁目9-8","lat":35.706036,"lon":139.465652},{"name":"焼却施設","province":"東京都","city":"国分寺市","address":"東京都国分寺市戸倉1丁目15","lat":35.712482,"lon":139.462402},{"name":"都立多摩図書館","province":"東京都","city":"国分寺市","address":"東京都国分寺市泉町2丁目2-26","lat":35.69808074,"lon":139.46987155},{"name":"恋ケ窪図書館","province":"東京都","city":"国分寺市","address":"東京都国分寺市西恋ヶ窪4丁目12-8","lat":35.70775448,"lon":139.46427167},{"name":"もとまち図書館","province":"東京都","city":"国分寺市","address":"東京都国分寺市東元町2丁目3-13","lat":35.69222617,"lon":139.48334562},{"name":"本多公民館","province":"東京都","city":"国分寺市","address":"東京都国分寺市本多1丁目7-1","lat":35.70540519,"lon":139.48242849},{"name":"光公民館","province":"東京都","city":"国分寺市","address":"東京都国分寺市光町3丁目13-19","lat":35.70781783,"lon":139.44319021},{"name":"並木公民館","province":"東京都","city":"国分寺市","address":"東京都国分寺市並木町2丁目12-3","lat":35.71585325,"lon":139.45321402},{"name":"国分寺市清掃センター","province":"東京都","city":"国分寺市","address":"東京都国分寺市西恋ヶ窪4丁目9-8","lat":35.706036,"lon":139.465652},{"name":"焼却施設","province":"東京都","city":"国分寺市","address":"東京都国分寺市戸倉1丁目15","lat":35.712482,"lon":139.462402},{"name":"都立多摩図書館","province":"東京都","city":"国分寺市","address":"東京都国分寺市泉町2丁目2-26","lat":35.69808074,"lon":139.46987155},{"name":"恋ケ窪図書館","province":"東京都","city":"国分寺市","address":"東京都国分寺市西恋ヶ窪4丁目12-8","lat":35.70775448,"lon":139.46427167},{"name":"もとまち図書館","province":"東京都","city":"国分寺市","address":"東京都国分寺市東元町2丁目3-13","lat":35.69222617,"lon":139.48334562},{"name":"本多公民館","province":"東京都","city":"国分寺市","address":"東京都国分寺市本多1丁目7-1","lat":35.70540519,"lon":139.48242849},{"name":"光公民館","province":"東京都","city":"国分寺市","address":"東京都国分寺市光町3丁目13-19","lat":35.70781783,"lon":139.44319021},{"name":"並木公民館","province":"東京都","city":"国分寺市","address":"東京都国分寺市並木町2丁目12-3","lat":35.71585325,"lon":139.45321402},{"name":"国分寺市清掃センター","province":"東京都","city":"国分寺市","address":"東京都国分寺市西恋ヶ窪4丁目9-8","lat":35.706036,"lon":139.465652},{"name":"焼却施設","province":"東京都","city":"国分寺市","address":"東京都国分寺市戸倉1丁目15","lat":35.712482,"lon":139.462402},{"name":"都立多摩図書館","province":"東京都","city":"国分寺市","address":"東京都国分寺市泉町2丁目2-26","lat":35.69808074,"lon":139.46987155},{"name":"恋ケ窪図書館","province":"東京都","city":"国分寺市","address":"東京都国分寺市西恋ヶ窪4丁目12-8","lat":35.70775448,"lon":139.46427167},{"name":"もとまち図書館","province":"東京都","city":"国分寺市","address":"東京都国分寺市東元町2丁目3-13","lat":35.69222617,"lon":139.48334562},{"name":"本多公民館","province":"東京都","city":"国分寺市","address":"東京都国分寺市本多1丁目7-1","lat":35.70540519,"lon":139.48242849},{"name":"光公民館","province":"東京都","city":"国分寺市","address":"東京都国分寺市光町3丁目13-19","lat":35.70781783,"lon":139.44319021},{"name":"並木公民館","province":"東京都","city":"国分寺市","address":"東京都国分寺市並木町2丁目12-3","lat":35.71585325,"lon":139.45321402},{"name":"国分寺市清掃センター","province":"東京都","city":"国分寺市","address":"東京都国分寺市西恋ヶ窪4丁目9-8","lat":35.706036,"lon":139.465652},{"name":"焼却施設","province":"東京都","city":"国分寺市","address":"東京都国分寺市戸倉1丁目15","lat":35.712482,"lon":139.462402},{"name":"都立多摩図書館","province":"東京都","city":"国分寺市","address":"東京都国分寺市泉町2丁目2-26","lat":35.69808074,"lon":139.46987155},{"name":"恋ケ窪図書館","province":"東京都","city":"国分寺市","address":"東京都国分寺市西恋ヶ窪4丁目12-8","lat":35.70775448,"lon":139.46427167},{"name":"もとまち図書館","province":"東京都","city":"国分寺市","address":"東京都国分寺市東元町2丁目3-13","lat":35.69222617,"lon":139.48334562},{"name":"本多公民館","province":"東京都","city":"国分寺市","address":"東京都国分寺市本多1丁目7-1","lat":35.70540519,"lon":139.48242849},{"name":"光公民館","province":"東京都","city":"国分寺市","address":"東京都国分寺市光町3丁目13-19","lat":35.70781783,"lon":139.44319021},{"name":"並木公民館","province":"東京都","city":"国分寺市","address":"東京都国分寺市並木町2丁目12-3","lat":35.71585325,"lon":139.45321402},{"name":"国分寺市清掃センター","province":"東京都","city":"国分寺市","address":"東京都国分寺市西恋ヶ窪4丁目9-8","lat":35.706036,"lon":139.465652},{"name":"焼却施設","province":"東京都","city":"国分寺市","address":"東京都国分寺市戸倉1丁目15","lat":35.712482,"lon":139.462402},{"name":"都立多摩図書館","province":"東京都","city":"国分寺市","address":"東京都国分寺市泉町2丁目2-26","lat":35.69808074,"lon":139.46987155},{"name":"恋ケ窪図書館","province":"東京都","city":"国分寺市","address":"東京都国分寺市西恋ヶ窪4丁目12-8","lat":35.70775448,"lon":139.46427167},{"name":"もとまち図書館","province":"東京都","city":"国分寺市","address":"東京都国分寺市東元町2丁目3-13","lat":35.69222617,"lon":139.48334562},{"name":"本多公民館","province":"東京都","city":"国分寺市","address":"東京都国分寺市本多1丁目7-1","lat":35.70540519,"lon":139.48242849},{"name":"光公民館","province":"東京都","city":"国分寺市","address":"東京都国分寺市光町3丁目13-19","lat":35.70781783,"lon":139.44319021},{"name":"並木公民館","province":"東京都","city":"国分寺市","address":"東京都国分寺市並木町2丁目12-3","lat":35.71585325,"lon":139.45321402},{"name":"国分寺市清掃センター","province":"東京都","city":"国分寺市","address":"東京都国分寺市西恋ヶ窪4丁目9-8","lat":35.706036,"lon":139.465652},{"name":"焼却施設","province":"東京都","city":"国分寺市","address":"東京都国分寺市戸倉1丁目15","lat":35.712482,"lon":139.462402},{"name":"都立多摩図書館","province":"東京都","city":"国分寺市","address":"東京都国分寺市泉町2丁目2-26","lat":35.69808074,"lon":139.46987155},{"name":"恋ケ窪図書館","province":"東京都","city":"国分寺市","address":"東京都国分寺市西恋ヶ窪4丁目12-8","lat":35.70775448,"lon":139.46427167},{"name":"もとまち図書館","province":"東京都","city":"国分寺市","address":"東京都国分寺市東元町2丁目3-13","lat":35.69222617,"lon":139.48334562},{"name":"本多公民館","province":"東京都","city":"国分寺市","address":"東京都国分寺市本多1丁目7-1","lat":35.70540519,"lon":139.48242849},{"name":"光公民館","province":"東京都","city":"国分寺市","address":"東京都国分寺市光町3丁目13-19","lat":35.70781783,"lon":139.44319021},{"name":"並木公民館","province":"東京都","city":"国分寺市","address":"東京都国分寺市並木町2丁目12-3","lat":35.71585325,"lon":139.45321402},{"name":"国分寺市清掃センター","province":"東京都","city":"国分寺市","address":"東京都国分寺市西恋ヶ窪4丁目9-8","lat":35.706036,"lon":139.465652},{"name":"焼却施設","province":"東京都","city":"国分寺市","address":"東京都国分寺市戸倉1丁目15","lat":35.712482,"lon":139.462402},{"name":"都立多摩図書館","province":"東京都","city":"国分寺市","address":"東京都国分寺市泉町2丁目2-26","lat":35.69808074,"lon":139.46987155},{"name":"恋ケ窪図書館","province":"東京都","city":"国分寺市","address":"東京都国分寺市西恋ヶ窪4丁目12-8","lat":35.70775448,"lon":139.46427167},{"name":"もとまち図書館","province":"東京都","city":"国分寺市","address":"東京都国分寺市東元町2丁目3-13","lat":35.69222617,"lon":139.48334562},{"name":"本多公民館","province":"東京都","city":"国分寺市","address":"東京都国分寺市本多1丁目7-1","lat":35.70540519,"lon":139.48242849},{"name":"光公民館","province":"東京都","city":"国分寺市","address":"東京都国分寺市光町3丁目13-19","lat":35.70781783,"lon":139.44319021},{"name":"並木公民館","province":"東京都","city":"国分寺市","address":"東京都国分寺市並木町2丁目12-3","lat":35.71585325,"lon":139.45321402},{"name":"国分寺市清掃センター","province":"東京都","city":"国分寺市","address":"東京都国分寺市西恋ヶ窪4丁目9-8","lat":35.706036,"lon":139.465652},{"name":"焼却施設","province":"東京都","city":"国分寺市","address":"東京都国分寺市戸倉1丁目15","lat":35.712482,"lon":139.462402},{"name":"都立多摩図書館","province":"東京都","city":"国分寺市","address":"東京都国分寺市泉町2丁目2-26","lat":35.69808074,"lon":139.46987155},{"name":"恋ケ窪図書館","province":"東京都","city":"国分寺市","address":"東京都国分寺市西恋ヶ窪4丁目12-8","lat":35.70775448,"lon":139.46427167},{"name":"もとまち図書館","province":"東京都","city":"国分寺市","address":"東京都国分寺市東元町2丁目3-13","lat":35.69222617,"lon":139.48334562},{"name":"本多公民館","province":"東京都","city":"国分寺市","address":"東京都国分寺市本多1丁目7-1","lat":35.70540519,"lon":139.48242849},{"name":"光公民館","province":"東京都","city":"国分寺市","address":"東京都国分寺市光町3丁目13-19","lat":35.70781783,"lon":139.44319021},{"name":"並木公民館","province":"東京都","city":"国分寺市","address":"東京都国分寺市並木町2丁目12-3","lat":35.71585325,"lon":139.45321402},{"name":"国分寺市清掃センター","province":"東京都","city":"国分寺市","address":"東京都国分寺市西恋ヶ窪4丁目9-8","lat":35.706036,"lon":139.465652},{"name":"焼却施設","province":"東京都","city":"国分寺市","address":"東京都国分寺市戸倉1丁目15","lat":35.712482,"lon":139.462402},{"name":"都立多摩図書館","province":"東京都","city":"国分寺市","address":"東京都国分寺市泉町2丁目2-26","lat":35.69808074,"lon":139.46987155},{"name":"恋ケ窪図書館","province":"東京都","city":"国分寺市","address":"東京都国分寺市西恋ヶ窪4丁目12-8","lat":35.70775448,"lon":139.46427167},{"name":"もとまち図書館","province":"東京都","city":"国分寺市","address":"東京都国分寺市東元町2丁目3-13","lat":35.69222617,"lon":139.48334562},{"name":"本多公民館","province":"東京都","city":"国分寺市","address":"東京都国分寺市本多1丁目7-1","lat":35.70540519,"lon":139.48242849},{"name":"光公民館","province":"東京都","city":"国分寺市","address":"東京都国分寺市光町3丁目13-19","lat":35.70781783,"lon":139.44319021},{"name":"並木公民館","province":"東京都","city":"国分寺市","address":"東京都国分寺市並木町2丁目12-3","lat":35.71585325,"lon":139.45321402},{"name":"国分寺市清掃センター","province":"東京都","city":"国分寺市","address":"東京都国分寺市西恋ヶ窪4丁目9-8","lat":35.706036,"lon":139.465652},{"name":"焼却施設","province":"東京都","city":"国分寺市","address":"東京都国分寺市戸倉1丁目15","lat":35.712482,"lon":139.462402},{"name":"都立多摩図書館","province":"東京都","city":"国分寺市","address":"東京都国分寺市泉町2丁目2-26","lat":35.69808074,"lon":139.46987155},{"name":"恋ケ窪図書館","province":"東京都","city":"国分寺市","address":"東京都国分寺市西恋ヶ窪4丁目12-8","lat":35.70775448,"lon":139.46427167},{"name":"もとまち図書館","province":"東京都","city":"国分寺市","address":"東京都国分寺市東元町2丁目3-13","lat":35.69222617,"lon":139.48334562},{"name":"本多公民館","province":"東京都","city":"国分寺市","address":"東京都国分寺市本多1丁目7-1","lat":35.70540519,"lon":139.48242849},{"name":"光公民館","province":"東京都","city":"国分寺市","address":"東京都国分寺市光町3丁目13-19","lat":35.70781783,"lon":139.44319021},{"name":"並木公民館","province":"東京都","city":"国分寺市","address":"東京都国分寺市並木町2丁目12-3","lat":35.71585325,"lon":139.45321402},{"name":"国分寺市清掃センター","province":"東京都","city":"国分寺市","address":"東京都国分寺市西恋ヶ窪4丁目9-8","lat":35.706036,"lon":139.465652},{"name":"焼却施設","province":"東京都","city":"国分寺市","address":"東京都国分寺市戸倉1丁目15","lat":35.712482,"lon":139.462402},{"name":"都立多摩図書館","province":"東京都","city":"国分寺市","address":"東京都国分寺市泉町2丁目2-26","lat":35.69808074,"lon":139.46987155},{"name":"恋ケ窪図書館","province":"東京都","city":"国分寺市","address":"東京都国分寺市西恋ヶ窪4丁目12-8","lat":35.70775448,"lon":139.46427167},{"name":"もとまち図書館","province":"東京都","city":"国分寺市","address":"東京都国分寺市東元町2丁目3-13","lat":35.69222617,"lon":139.48334562},{"name":"本多公民館","province":"東京都","city":"国分寺市","address":"東京都国分寺市本多1丁目7-1","lat":35.70540519,"lon":139.48242849},{"name":"光公民館","province":"東京都","city":"国分寺市","address":"東京都国分寺市光町3丁目13-19","lat":35.70781783,"lon":139.44319021},{"name":"並木公民館","province":"東京都","city":"国分寺市","address":"東京都国分寺市並木町2丁目12-3","lat":35.71585325,"lon":139.45321402},{"name":"国分寺市清掃センター","province":"東京都","city":"国分寺市","address":"東京都国分寺市西恋ヶ窪4丁目9-8","lat":35.706036,"lon":139.465652},{"name":"焼却施設","province":"東京都","city":"国分寺市","address":"東京都国分寺市戸倉1丁目15","lat":35.712482,"lon":139.462402},{"name":"都立多摩図書館","province":"東京都","city":"国分寺市","address":"東京都国分寺市泉町2丁目2-26","lat":35.69808074,"lon":139.46987155},{"name":"恋ケ窪図書館","province":"東京都","city":"国分寺市","address":"東京都国分寺市西恋ヶ窪4丁目12-8","lat":35.70775448,"lon":139.46427167},{"name":"もとまち図書館","province":"東京都","city":"国分寺市","address":"東京都国分寺市東元町2丁目3-13","lat":35.69222617,"lon":139.48334562},{"name":"本多公民館","province":"東京都","city":"国分寺市","address":"東京都国分寺市本多1丁目7-1","lat":35.70540519,"lon":139.48242849},{"name":"光公民館","province":"東京都","city":"国分寺市","address":"東京都国分寺市光町3丁目13-19","lat":35.70781783,"lon":139.44319021},{"name":"並木公民館","province":"東京都","city":"国分寺市","address":"東京都国分寺市並木町2丁目12-3","lat":35.71585325,"lon":139.45321402},{"name":"国分寺市清掃センター","province":"東京都","city":"国分寺市","address":"東京都国分寺市西恋ヶ窪4丁目9-8","lat":35.706036,"lon":139.465652},{"name":"焼却施設","province":"東京都","city":"国分寺市","address":"東京都国分寺市戸倉1丁目15","lat":35.712482,"lon":139.462402},{"name":"都立多摩図書館","province":"東京都","city":"国分寺市","address":"東京都国分寺市泉町2丁目2-26","lat":35.69808074,"lon":139.46987155},{"name":"恋ケ窪図書館","province":"東京都","city":"国分寺市","address":"東京都国分寺市西恋ヶ窪4丁目12-8","lat":35.70775448,"lon":139.46427167},{"name":"もとまち図書館","province":"東京都","city":"国分寺市","address":"東京都国分寺市東元町2丁目3-13","lat":35.69222617,"lon":139.48334562},{"name":"本多公民館","province":"東京都","city":"国分寺市","address":"東京都国分寺市本多1丁目7-1","lat":35.70540519,"lon":139.48242849},{"name":"光公民館","province":"東京都","city":"国分寺市","address":"東京都国分寺市光町3丁目13-19","lat":35.70781783,"lon":139.44319021},{"name":"並木公民館","province":"東京都","city":"国分寺市","address":"東京都国分寺市並木町2丁目12-3","lat":35.71585325,"lon":139.45321402},{"name":"国分寺市清掃センター","province":"東京都","city":"国分寺市","address":"東京都国分寺市西恋ヶ窪4丁目9-8","lat":35.706036,"lon":139.465652},{"name":"焼却施設","province":"東京都","city":"国分寺市","address":"東京都国分寺市戸倉1丁目15","lat":35.712482,"lon":139.462402},{"name":"都立多摩図書館","province":"東京都","city":"国分寺市","address":"東京都国分寺市泉町2丁目2-26","lat":35.69808074,"lon":139.46987155},{"name":"恋ケ窪図書館","province":"東京都","city":"国分寺市","address":"東京都国分寺市西恋ヶ窪4丁目12-8","lat":35.70775448,"lon":139.46427167},{"name":"もとまち図書館","province":"東京都","city":"国分寺市","address":"東京都国分寺市東元町2丁目3-13","lat":35.69222617,"lon":139.48334562},{"name":"本多公民館","province":"東京都","city":"国分寺市","address":"東京都国分寺市本多1丁目7-1","lat":35.70540519,"lon":139.48242849},{"name":"光公民館","province":"東京都","city":"国分寺市","address":"東京都国分寺市光町3丁目13-19","lat":35.70781783,"lon":139.44319021},{"name":"並木公民館","province":"東京都","city":"国分寺市","address":"東京都国分寺市並木町2丁目12-3","lat":35.71585325,"lon":139.45321402},{"name":"国分寺市清掃センター","province":"東京都","city":"国分寺市","address":"東京都国分寺市西恋ヶ窪4丁目9-8","lat":35.706036,"lon":139.465652},{"name":"焼却施設","province":"東京都","city":"国分寺市","address":"東京都国分寺市戸倉1丁目15","lat":35.712482,"lon":139.462402},{"name":"都立多摩図書館","province":"東京都","city":"国分寺市","address":"東京都国分寺市泉町2丁目2-26","lat":35.69808074,"lon":139.46987155},{"name":"恋ケ窪図書館","province":"東京都","city":"国分寺市","address":"東京都国分寺市西恋ヶ窪4丁目12-8","lat":35.70775448,"lon":139.46427167},{"name":"もとまち図書館","province":"東京都","city":"国分寺市","address":"東京都国分寺市東元町2丁目3-13","lat":35.69222617,"lon":139.48334562},{"name":"本多公民館","province":"東京都","city":"国分寺市","address":"東京都国分寺市本多1丁目7-1","lat":35.70540519,"lon":139.48242849},{"name":"光公民館","province":"東京都","city":"国分寺市","address":"東京都国分寺市光町3丁目13-19","lat":35.70781783,"lon":139.44319021},{"name":"並木公民館","province":"東京都","city":"国分寺市","address":"東京都国分寺市並木町2丁目12-3","lat":35.71585325,"lon":139.45321402},{"name":"国分寺市清掃センター","province":"東京都","city":"国分寺市","address":"東京都国分寺市西恋ヶ窪4丁目9-8","lat":35.706036,"lon":139.465652},{"name":"焼却施設","province":"東京都","city":"国分寺市","address":"東京都国分寺市戸倉1丁目15","lat":35.712482,"lon":139.462402},{"name":"都立多摩図書館","province":"東京都","city":"国分寺市","address":"東京都国分寺市泉町2丁目2-26","lat":35.69808074,"lon":139.46987155},{"name":"恋ケ窪図書館","province":"東京都","city":"国分寺市","address":"東京都国分寺市西恋ヶ窪4丁目12-8","lat":35.70775448,"lon":139.46427167},{"name":"もとまち図書館","province":"東京都","city":"国分寺市","address":"東京都国分寺市東元町2丁目3-13","lat":35.69222617,"lon":139.48334562},{"name":"本多公民館","province":"東京都","city":"国分寺市","address":"東京都国分寺市本多1丁目7-1","lat":35.70540519,"lon":139.48242849},{"name":"光公民館","province":"東京都","city":"国分寺市","address":"東京都国分寺市光町3丁目13-19","lat":35.70781783,"lon":139.44319021},{"name":"並木公民館","province":"東京都","city":"国分寺市","address":"東京都国分寺市並木町2丁目12-3","lat":35.71585325,"lon":139.45321402},{"name":"国分寺市清掃センター","province":"東京都","city":"国分寺市","address":"東京都国分寺市西恋ヶ窪4丁目9-8","lat":35.706036,"lon":139.465652},{"name":"焼却施設","province":"東京都","city":"国分寺市","address":"東京都国分寺市戸倉1丁目15","lat":35.712482,"lon":139.462402},{"name":"都立多摩図書館","province":"東京都","city":"国分寺市","address":"東京都国分寺市泉町2丁目2-26","lat":35.69808074,"lon":139.46987155},{"name":"恋ケ窪図書館","province":"東京都","city":"国分寺市","address":"東京都国分寺市西恋ヶ窪4丁目12-8","lat":35.70775448,"lon":139.46427167},{"name":"もとまち図書館","province":"東京都","city":"国分寺市","address":"東京都国分寺市東元町2丁目3-13","lat":35.69222617,"lon":139.48334562},{"name":"本多公民館","province":"東京都","city":"国分寺市","address":"東京都国分寺市本多1丁目7-1","lat":35.70540519,"lon":139.48242849},{"name":"光公民館","province":"東京都","city":"国分寺市","address":"東京都国分寺市光町3丁目13-19","lat":35.70781783,"lon":139.44319021},{"name":"並木公民館","province":"東京都","city":"国分寺市","address":"東京都国分寺市並木町2丁目12-3","lat":35.71585325,"lon":139.45321402},{"name":"国分寺市清掃センター","province":"東京都","city":"国分寺市","address":"東京都国分寺市西恋ヶ窪4丁目9-8","lat":35.706036,"lon":139.465652},{"name":"焼却施設","province":"東京都","city":"国分寺市","address":"東京都国分寺市戸倉1丁目15","lat":35.712482,"lon":139.462402},{"name":"都立多摩図書館","province":"東京都","city":"国分寺市","address":"東京都国分寺市泉町2丁目2-26","lat":35.69808074,"lon":139.46987155},{"name":"恋ケ窪図書館","province":"東京都","city":"国分寺市","address":"東京都国分寺市西恋ヶ窪4丁目12-8","lat":35.70775448,"lon":139.46427167},{"name":"もとまち図書館","province":"東京都","city":"国分寺市","address":"東京都国分寺市東元町2丁目3-13","lat":35.69222617,"lon":139.48334562},{"name":"本多公民館","province":"東京都","city":"国分寺市","address":"東京都国分寺市本多1丁目7-1","lat":35.70540519,"lon":139.48242849},{"name":"光公民館","province":"東京都","city":"国分寺市","address":"東京都国分寺市光町3丁目13-19","lat":35.70781783,"lon":139.44319021},{"name":"並木公民館","province":"東京都","city":"国分寺市","address":"東京都国分寺市並木町2丁目12-3","lat":35.71585325,"lon":139.45321402},{"name":"国分寺市清掃センター","province":"東京都","city":"国分寺市","address":"東京都国分寺市西恋ヶ窪4丁目9-8","lat":35.706036,"lon":139.465652},{"name":"焼却施設","province":"東京都","city":"国分寺市","address":"東京都国分寺市戸倉1丁目15","lat":35.712482,"lon":139.462402},{"name":"都立多摩図書館","province":"東京都","city":"国分寺市","address":"東京都国分寺市泉町2丁目2-26","lat":35.69808074,"lon":139.46987155},{"name":"恋ケ窪図書館","province":"東京都","city":"国分寺市","address":"東京都国分寺市西恋ヶ窪4丁目12-8","lat":35.70775448,"lon":139.46427167},{"name":"もとまち図書館","province":"東京都","city":"国分寺市","address":"東京都国分寺市東元町2丁目3-13","lat":35.69222617,"lon":139.48334562},{"name":"本多公民館","province":"東京都","city":"国分寺市","address":"東京都国分寺市本多1丁目7-1","lat":35.70540519,"lon":139.48242849},{"name":"光公民館","province":"東京都","city":"国分寺市","address":"東京都国分寺市光町3丁目13-19","lat":35.70781783,"lon":139.44319021},{"name":"並木公民館","province":"東京都","city":"国分寺市","address":"東京都国分寺市並木町2丁目12-3","lat":35.71585325,"lon":139.45321402},{"name":"国分寺市清掃センター","province":"東京都","city":"国分寺市","address":"東京都国分寺市西恋ヶ窪4丁目9-8","lat":35.706036,"lon":139.465652},{"name":"焼却施設","province":"東京都","city":"国分寺市","address":"東京都国分寺市戸倉1丁目15","lat":35.712482,"lon":139.462402},{"name":"都立多摩図書館","province":"東京都","city":"国分寺市","address":"東京都国分寺市泉町2丁目2-26","lat":35.69808074,"lon":139.46987155},{"name":"恋ケ窪図書館","province":"東京都","city":"国分寺市","address":"東京都国分寺市西恋ヶ窪4丁目12-8","lat":35.70775448,"lon":139.46427167},{"name":"もとまち図書館","province":"東京都","city":"国分寺市","address":"東京都国分寺市東元町2丁目3-13","lat":35.69222617,"lon":139.48334562},{"name":"本多公民館","province":"東京都","city":"国分寺市","address":"東京都国分寺市本多1丁目7-1","lat":35.70540519,"lon":139.48242849},{"name":"光公民館","province":"東京都","city":"国分寺市","address":"東京都国分寺市光町3丁目13-19","lat":35.70781783,"lon":139.44319021},{"name":"並木公民館","province":"東京都","city":"国分寺市","address":"東京都国分寺市並木町2丁目12-3","lat":35.71585325,"lon":139.45321402},{"name":"都立多摩図書館","province":"東京都","city":"国分寺市","address":"東京都国分寺市泉町2丁目2-26","lat":35.69808074,"lon":139.46987155},{"name":"恋ケ窪図書館","province":"東京都","city":"国分寺市","address":"東京都国分寺市西恋ヶ窪4丁目12-8","lat":35.70775448,"lon":139.46427167},{"name":"もとまち図書館","province":"東京都","city":"国分寺市","address":"東京都国分寺市東元町2丁目3-13","lat":35.69222617,"lon":139.48334562},{"name":"本多公民館","province":"東京都","city":"国分寺市","address":"東京都国分寺市本多1丁目7-1","lat":35.70540519,"lon":139.48242849},{"name":"光公民館","province":"東京都","city":"国分寺市","address":"東京都国分寺市光町3丁目13-19","lat":35.70781783,"lon":139.44319021},{"name":"並木公民館","province":"東京都","city":"国分寺市","address":"東京都国分寺市並木町2丁目12-3","lat":35.71585325,"lon":139.45321402},{"name":"都立多摩図書館","province":"東京都","city":"国分寺市","address":"東京都国分寺市泉町2丁目2-26","lat":35.69808074,"lon":139.46987155},{"name":"恋ケ窪図書館","province":"東京都","city":"国分寺市","address":"東京都国分寺市西恋ヶ窪4丁目12-8","lat":35.70775448,"lon":139.46427167},{"name":"もとまち図書館","province":"東京都","city":"国分寺市","address":"東京都国分寺市東元町2丁目3-13","lat":35.69222617,"lon":139.48334562},{"name":"本多公民館","province":"東京都","city":"国分寺市","address":"東京都国分寺市本多1丁目7-1","lat":35.70540519,"lon":139.48242849},{"name":"光公民館","province":"東京都","city":"国分寺市","address":"東京都国分寺市光町3丁目13-19","lat":35.70781783,"lon":139.44319021},{"name":"並木公民館","province":"東京都","city":"国分寺市","address":"東京都国分寺市並木町2丁目12-3","lat":35.71585325,"lon":139.45321402},{"name":"都立多摩図書館","province":"東京都","city":"国分寺市","address":"東京都国分寺市泉町2丁目2-26","lat":35.69808074,"lon":139.46987155},{"name":"恋ケ窪図書館","province":"東京都","city":"国分寺市","address":"東京都国分寺市西恋ヶ窪4丁目12-8","lat":35.70775448,"lon":139.46427167},{"name":"もとまち図書館","province":"東京都","city":"国分寺市","address":"東京都国分寺市東元町2丁目3-13","lat":35.69222617,"lon":139.48334562},{"name":"本多公民館","province":"東京都","city":"国分寺市","address":"東京都国分寺市本多1丁目7-1","lat":35.70540519,"lon":139.48242849},{"name":"光公民館","province":"東京都","city":"国分寺市","address":"東京都国分寺市光町3丁目13-19","lat":35.70781783,"lon":139.44319021},{"name":"並木公民館","province":"東京都","city":"国分寺市","address":"東京都国分寺市並木町2丁目12-3","lat":35.71585325,"lon":139.45321402},{"name":"都立多摩図書館","province":"東京都","city":"国分寺市","address":"東京都国分寺市泉町2丁目2-26","lat":35.69808074,"lon":139.46987155},{"name":"恋ケ窪図書館","province":"東京都","city":"国分寺市","address":"東京都国分寺市西恋ヶ窪4丁目12-8","lat":35.70775448,"lon":139.46427167},{"name":"もとまち図書館","province":"東京都","city":"国分寺市","address":"東京都国分寺市東元町2丁目3-13","lat":35.69222617,"lon":139.48334562},{"name":"本多公民館","province":"東京都","city":"国分寺市","address":"東京都国分寺市本多1丁目7-1","lat":35.70540519,"lon":139.48242849},{"name":"光公民館","province":"東京都","city":"国分寺市","address":"東京都国分寺市光町3丁目13-19","lat":35.70781783,"lon":139.44319021},{"name":"並木公民館","province":"東京都","city":"国分寺市","address":"東京都国分寺市並木町2丁目12-3","lat":35.71585325,"lon":139.45321402},{"name":"都立多摩図書館","province":"東京都","city":"国分寺市","address":"東京都国分寺市泉町2丁目2-26","lat":35.69808074,"lon":139.46987155},{"name":"恋ケ窪図書館","province":"東京都","city":"国分寺市","address":"東京都国分寺市西恋ヶ窪4丁目12-8","lat":35.70775448,"lon":139.46427167},{"name":"もとまち図書館","province":"東京都","city":"国分寺市","address":"東京都国分寺市東元町2丁目3-13","lat":35.69222617,"lon":139.48334562},{"name":"本多公民館","province":"東京都","city":"国分寺市","address":"東京都国分寺市本多1丁目7-1","lat":35.70540519,"lon":139.48242849},{"name":"光公民館","province":"東京都","city":"国分寺市","address":"東京都国分寺市光町3丁目13-19","lat":35.70781783,"lon":139.44319021},{"name":"並木公民館","province":"東京都","city":"国分寺市","address":"東京都国分寺市並木町2丁目12-3","lat":35.71585325,"lon":139.45321402},{"name":"都立多摩図書館","province":"東京都","city":"国分寺市","address":"東京都国分寺市泉町2丁目2-26","lat":35.69808074,"lon":139.46987155},{"name":"恋ケ窪図書館","province":"東京都","city":"国分寺市","address":"東京都国分寺市西恋ヶ窪4丁目12-8","lat":35.70775448,"lon":139.46427167},{"name":"もとまち図書館","province":"東京都","city":"国分寺市","address":"東京都国分寺市東元町2丁目3-13","lat":35.69222617,"lon":139.48334562},{"name":"本多公民館","province":"東京都","city":"国分寺市","address":"東京都国分寺市本多1丁目7-1","lat":35.70540519,"lon":139.48242849},{"name":"光公民館","province":"東京都","city":"国分寺市","address":"東京都国分寺市光町3丁目13-19","lat":35.70781783,"lon":139.44319021},{"name":"並木公民館","province":"東京都","city":"国分寺市","address":"東京都国分寺市並木町2丁目12-3","lat":35.71585325,"lon":139.45321402},{"name":"都立多摩図書館","province":"東京都","city":"国分寺市","address":"東京都国分寺市泉町2丁目2-26","lat":35.69808074,"lon":139.46987155},{"name":"恋ケ窪図書館","province":"東京都","city":"国分寺市","address":"東京都国分寺市西恋ヶ窪4丁目12-8","lat":35.70775448,"lon":139.46427167},{"name":"もとまち図書館","province":"東京都","city":"国分寺市","address":"東京都国分寺市東元町2丁目3-13","lat":35.69222617,"lon":139.48334562},{"name":"本多公民館","province":"東京都","city":"国分寺市","address":"東京都国分寺市本多1丁目7-1","lat":35.70540519,"lon":139.48242849},{"name":"光公民館","province":"東京都","city":"国分寺市","address":"東京都国分寺市光町3丁目13-19","lat":35.70781783,"lon":139.44319021},{"name":"並木公民館","province":"東京都","city":"国分寺市","address":"東京都国分寺市並木町2丁目12-3","lat":35.71585325,"lon":139.45321402},{"name":"都立多摩図書館","province":"東京都","city":"国分寺市","address":"東京都国分寺市泉町2丁目2-26","lat":35.69808074,"lon":139.46987155},{"name":"恋ケ窪図書館","province":"東京都","city":"国分寺市","address":"東京都国分寺市西恋ヶ窪4丁目12-8","lat":35.70775448,"lon":139.46427167},{"name":"もとまち図書館","province":"東京都","city":"国分寺市","address":"東京都国分寺市東元町2丁目3-13","lat":35.69222617,"lon":139.48334562},{"name":"本多公民館","province":"東京都","city":"国分寺市","address":"東京都国分寺市本多1丁目7-1","lat":35.70540519,"lon":139.48242849},{"name":"光公民館","province":"東京都","city":"国分寺市","address":"東京都国分寺市光町3丁目13-19","lat":35.70781783,"lon":139.44319021},{"name":"並木公民館","province":"東京都","city":"国分寺市","address":"東京都国分寺市並木町2丁目12-3","lat":35.71585325,"lon":139.45321402},{"name":"都立多摩図書館","province":"東京都","city":"国分寺市","address":"東京都国分寺市泉町2丁目2-26","lat":35.69808074,"lon":139.46987155},{"name":"恋ケ窪図書館","province":"東京都","city":"国分寺市","address":"東京都国分寺市西恋ヶ窪4丁目12-8","lat":35.70775448,"lon":139.46427167},{"name":"もとまち図書館","province":"東京都","city":"国分寺市","address":"東京都国分寺市東元町2丁目3-13","lat":35.69222617,"lon":139.48334562},{"name":"本多公民館","province":"東京都","city":"国分寺市","address":"東京都国分寺市本多1丁目7-1","lat":35.70540519,"lon":139.48242849},{"name":"光公民館","province":"東京都","city":"国分寺市","address":"東京都国分寺市光町3丁目13-19","lat":35.70781783,"lon":139.44319021},{"name":"並木公民館","province":"東京都","city":"国分寺市","address":"東京都国分寺市並木町2丁目12-3","lat":35.71585325,"lon":139.45321402},{"name":"都立多摩図書館","province":"東京都","city":"国分寺市","address":"東京都国分寺市泉町2丁目2-26","lat":35.69808074,"lon":139.46987155},{"name":"恋ケ窪図書館","province":"東京都","city":"国分寺市","address":"東京都国分寺市西恋ヶ窪4丁目12-8","lat":35.70775448,"lon":139.46427167},{"name":"もとまち図書館","province":"東京都","city":"国分寺市","address":"東京都国分寺市東元町2丁目3-13","lat":35.69222617,"lon":139.48334562},{"name":"本多公民館","province":"東京都","city":"国分寺市","address":"東京都国分寺市本多1丁目7-1","lat":35.70540519,"lon":139.48242849},{"name":"光公民館","province":"東京都","city":"国分寺市","address":"東京都国分寺市光町3丁目13-19","lat":35.70781783,"lon":139.44319021},{"name":"並木公民館","province":"東京都","city":"国分寺市","address":"東京都国分寺市並木町2丁目12-3","lat":35.71585325,"lon":139.45321402},{"name":"都立多摩図書館","province":"東京都","city":"国分寺市","address":"東京都国分寺市泉町2丁目2-26","lat":35.69808074,"lon":139.46987155},{"name":"恋ケ窪図書館","province":"東京都","city":"国分寺市","address":"東京都国分寺市西恋ヶ窪4丁目12-8","lat":35.70775448,"lon":139.46427167},{"name":"もとまち図書館","province":"東京都","city":"国分寺市","address":"東京都国分寺市東元町2丁目3-13","lat":35.69222617,"lon":139.48334562},{"name":"本多公民館","province":"東京都","city":"国分寺市","address":"東京都国分寺市本多1丁目7-1","lat":35.70540519,"lon":139.48242849},{"name":"光公民館","province":"東京都","city":"国分寺市","address":"東京都国分寺市光町3丁目13-19","lat":35.70781783,"lon":139.44319021},{"name":"並木公民館","province":"東京都","city":"国分寺市","address":"東京都国分寺市並木町2丁目12-3","lat":35.71585325,"lon":139.45321402},{"name":"都立多摩図書館","province":"東京都","city":"国分寺市","address":"東京都国分寺市泉町2丁目2-26","lat":35.69808074,"lon":139.46987155},{"name":"恋ケ窪図書館","province":"東京都","city":"国分寺市","address":"東京都国分寺市西恋ヶ窪4丁目12-8","lat":35.70775448,"lon":139.46427167},{"name":"もとまち図書館","province":"東京都","city":"国分寺市","address":"東京都国分寺市東元町2丁目3-13","lat":35.69222617,"lon":139.48334562},{"name":"本多公民館","province":"東京都","city":"国分寺市","address":"東京都国分寺市本多1丁目7-1","lat":35.70540519,"lon":139.48242849},{"name":"光公民館","province":"東京都","city":"国分寺市","address":"東京都国分寺市光町3丁目13-19","lat":35.70781783,"lon":139.44319021},{"name":"並木公民館","province":"東京都","city":"国分寺市","address":"東京都国分寺市並木町2丁目12-3","lat":35.71585325,"lon":139.45321402},{"name":"都立多摩図書館","province":"東京都","city":"国分寺市","address":"東京都国分寺市泉町2丁目2-26","lat":35.69808074,"lon":139.46987155},{"name":"恋ケ窪図書館","province":"東京都","city":"国分寺市","address":"東京都国分寺市西恋ヶ窪4丁目12-8","lat":35.70775448,"lon":139.46427167},{"name":"もとまち図書館","province":"東京都","city":"国分寺市","address":"東京都国分寺市東元町2丁目3-13","lat":35.69222617,"lon":139.48334562},{"name":"本多公民館","province":"東京都","city":"国分寺市","address":"東京都国分寺市本多1丁目7-1","lat":35.70540519,"lon":139.48242849},{"name":"光公民館","province":"東京都","city":"国分寺市","address":"東京都国分寺市光町3丁目13-19","lat":35.70781783,"lon":139.44319021},{"name":"並木公民館","province":"東京都","city":"国分寺市","address":"東京都国分寺市並木町2丁目12-3","lat":35.71585325,"lon":139.45321402},{"name":"都立多摩図書館","province":"東京都","city":"国分寺市","address":"東京都国分寺市泉町2丁目2-26","lat":35.69808074,"lon":139.46987155},{"name":"恋ケ窪図書館","province":"東京都","city":"国分寺市","address":"東京都国分寺市西恋ヶ窪4丁目12-8","lat":35.70775448,"lon":139.46427167},{"name":"もとまち図書館","province":"東京都","city":"国分寺市","address":"東京都国分寺市東元町2丁目3-13","lat":35.69222617,"lon":139.48334562},{"name":"本多公民館","province":"東京都","city":"国分寺市","address":"東京都国分寺市本多1丁目7-1","lat":35.70540519,"lon":139.48242849},{"name":"光公民館","province":"東京都","city":"国分寺市","address":"東京都国分寺市光町3丁目13-19","lat":35.70781783,"lon":139.44319021},{"name":"並木公民館","province":"東京都","city":"国分寺市","address":"東京都国分寺市並木町2丁目12-3","lat":35.71585325,"lon":139.45321402},{"name":"都立多摩図書館","province":"東京都","city":"国分寺市","address":"東京都国分寺市泉町2丁目2-26","lat":35.69808074,"lon":139.46987155},{"name":"恋ケ窪図書館","province":"東京都","city":"国分寺市","address":"東京都国分寺市西恋ヶ窪4丁目12-8","lat":35.70775448,"lon":139.46427167},{"name":"もとまち図書館","province":"東京都","city":"国分寺市","address":"東京都国分寺市東元町2丁目3-13","lat":35.69222617,"lon":139.48334562},{"name":"本多公民館","province":"東京都","city":"国分寺市","address":"東京都国分寺市本多1丁目7-1","lat":35.70540519,"lon":139.48242849},{"name":"光公民館","province":"東京都","city":"国分寺市","address":"東京都国分寺市光町3丁目13-19","lat":35.70781783,"lon":139.44319021},{"name":"並木公民館","province":"東京都","city":"国分寺市","address":"東京都国分寺市並木町2丁目12-3","lat":35.71585325,"lon":139.45321402},{"name":"都立多摩図書館","province":"東京都","city":"国分寺市","address":"東京都国分寺市泉町2丁目2-26","lat":35.69808074,"lon":139.46987155},{"name":"恋ケ窪図書館","province":"東京都","city":"国分寺市","address":"東京都国分寺市西恋ヶ窪4丁目12-8","lat":35.70775448,"lon":139.46427167},{"name":"もとまち図書館","province":"東京都","city":"国分寺市","address":"東京都国分寺市東元町2丁目3-13","lat":35.69222617,"lon":139.48334562},{"name":"本多公民館","province":"東京都","city":"国分寺市","address":"東京都国分寺市本多1丁目7-1","lat":35.70540519,"lon":139.48242849},{"name":"光公民館","province":"東京都","city":"国分寺市","address":"東京都国分寺市光町3丁目13-19","lat":35.70781783,"lon":139.44319021},{"name":"並木公民館","province":"東京都","city":"国分寺市","address":"東京都国分寺市並木町2丁目12-3","lat":35.71585325,"lon":139.45321402},{"name":"都立多摩図書館","province":"東京都","city":"国分寺市","address":"東京都国分寺市泉町2丁目2-26","lat":35.69808074,"lon":139.46987155},{"name":"恋ケ窪図書館","province":"東京都","city":"国分寺市","address":"東京都国分寺市西恋ヶ窪4丁目12-8","lat":35.70775448,"lon":139.46427167},{"name":"もとまち図書館","province":"東京都","city":"国分寺市","address":"東京都国分寺市東元町2丁目3-13","lat":35.69222617,"lon":139.48334562},{"name":"本多公民館","province":"東京都","city":"国分寺市","address":"東京都国分寺市本多1丁目7-1","lat":35.70540519,"lon":139.48242849},{"name":"光公民館","province":"東京都","city":"国分寺市","address":"東京都国分寺市光町3丁目13-19","lat":35.70781783,"lon":139.44319021},{"name":"並木公民館","province":"東京都","city":"国分寺市","address":"東京都国分寺市並木町2丁目12-3","lat":35.71585325,"lon":139.45321402},{"name":"都立多摩図書館","province":"東京都","city":"国分寺市","address":"東京都国分寺市泉町2丁目2-26","lat":35.69808074,"lon":139.46987155},{"name":"恋ケ窪図書館","province":"東京都","city":"国分寺市","address":"東京都国分寺市西恋ヶ窪4丁目12-8","lat":35.70775448,"lon":139.46427167},{"name":"もとまち図書館","province":"東京都","city":"国分寺市","address":"東京都国分寺市東元町2丁目3-13","lat":35.69222617,"lon":139.48334562},{"name":"本多公民館","province":"東京都","city":"国分寺市","address":"東京都国分寺市本多1丁目7-1","lat":35.70540519,"lon":139.48242849},{"name":"光公民館","province":"東京都","city":"国分寺市","address":"東京都国分寺市光町3丁目13-19","lat":35.70781783,"lon":139.44319021},{"name":"並木公民館","province":"東京都","city":"国分寺市","address":"東京都国分寺市並木町2丁目12-3","lat":35.71585325,"lon":139.45321402},{"name":"都立多摩図書館","province":"東京都","city":"国分寺市","address":"東京都国分寺市泉町2丁目2-26","lat":35.69808074,"lon":139.46987155},{"name":"恋ケ窪図書館","province":"東京都","city":"国分寺市","address":"東京都国分寺市西恋ヶ窪4丁目12-8","lat":35.70775448,"lon":139.46427167},{"name":"もとまち図書館","province":"東京都","city":"国分寺市","address":"東京都国分寺市東元町2丁目3-13","lat":35.69222617,"lon":139.48334562},{"name":"本多公民館","province":"東京都","city":"国分寺市","address":"東京都国分寺市本多1丁目7-1","lat":35.70540519,"lon":139.48242849},{"name":"光公民館","province":"東京都","city":"国分寺市","address":"東京都国分寺市光町3丁目13-19","lat":35.70781783,"lon":139.44319021},{"name":"並木公民館","province":"東京都","city":"国分寺市","address":"東京都国分寺市並木町2丁目12-3","lat":35.71585325,"lon":139.45321402},{"name":"都立多摩図書館","province":"東京都","city":"国分寺市","address":"東京都国分寺市泉町2丁目2-26","lat":35.69808074,"lon":139.46987155},{"name":"恋ケ窪図書館","province":"東京都","city":"国分寺市","address":"東京都国分寺市西恋ヶ窪4丁目12-8","lat":35.70775448,"lon":139.46427167},{"name":"もとまち図書館","province":"東京都","city":"国分寺市","address":"東京都国分寺市東元町2丁目3-13","lat":35.69222617,"lon":139.48334562},{"name":"本多公民館","province":"東京都","city":"国分寺市","address":"東京都国分寺市本多1丁目7-1","lat":35.70540519,"lon":139.48242849},{"name":"光公民館","province":"東京都","city":"国分寺市","address":"東京都国分寺市光町3丁目13-19","lat":35.70781783,"lon":139.44319021},{"name":"並木公民館","province":"東京都","city":"国分寺市","address":"東京都国分寺市並木町2丁目12-3","lat":35.71585325,"lon":139.45321402},{"name":"都立多摩図書館","province":"東京都","city":"国分寺市","address":"東京都国分寺市泉町2丁目2-26","lat":35.69808074,"lon":139.46987155},{"name":"恋ケ窪図書館","province":"東京都","city":"国分寺市","address":"東京都国分寺市西恋ヶ窪4丁目12-8","lat":35.70775448,"lon":139.46427167},{"name":"もとまち図書館","province":"東京都","city":"国分寺市","address":"東京都国分寺市東元町2丁目3-13","lat":35.69222617,"lon":139.48334562},{"name":"本多公民館","province":"東京都","city":"国分寺市","address":"東京都国分寺市本多1丁目7-1","lat":35.70540519,"lon":139.48242849},{"name":"光公民館","province":"東京都","city":"国分寺市","address":"東京都国分寺市光町3丁目13-19","lat":35.70781783,"lon":139.44319021},{"name":"並木公民館","province":"東京都","city":"国分寺市","address":"東京都国分寺市並木町2丁目12-3","lat":35.71585325,"lon":139.45321402}]}