{"keyword":"破損","data":[{"name":"国分寺市地域包括支援センター","province":"東京都","city":"国分寺市","address":"国分寺市泉町2-3-8","lat":35.696209,"lon":139.468216},{"name":"国分寺地域包括支援センターもとまち","province":"東京都","city":"国分寺市","address":"国分寺市東元町2-5-17さわやかプラザもとまち1階","lat":35.691803,"lon":139.480972},{"name":"国分寺地域包括支援センターこいがくぼ","province":"東京都","city":"国分寺市","address":"国分寺市西恋ヶ窪1-50-1にんじんホーム1階","lat":35.705936,"lon":139.467926},{"name":"国分寺地域包括支援センターほんだ","province":"東京都","city":"国分寺市","address":"国分寺市本多2-3-3商工会館3階","lat":35.70401,"lon":139.480164},{"name":"国分寺地域包括支援センターひかり","province":"東京都","city":"国分寺市","address":"国分寺市光町3-13-34国分寺ひかり診療所3階","lat":35.708466,"lon":139.444092},{"name":"国分寺地域包括支援センターひよし","province":"東京都","city":"国分寺市","address":"国分寺市日吉町4-32-6うれしのの里1階","lat":35.706627,"lon":139.458771},{"name":"国分寺地域包括支援センターなみき","province":"東京都","city":"国分寺市","address":"国分寺市並木町3-12-2至誠ホームミンナ1階","lat":35.71442,"lon":139.447311},{"name":"稲荷神社前","province":"東京都","city":"国分寺市","address":"東京都国分寺市光町1丁目23-2","lat":35.70626243,"lon":139.44249866},{"name":"本多公民館西","province":"東京都","city":"国分寺市","address":"東京都国分寺市本多1丁目6-3","lat":35.70516631,"lon":139.48188687},{"name":"国分寺駅南口第一","province":"東京都","city":"国分寺市","address":"東京都国分寺市南町3丁目17-3","lat":35.69936417,"lon":139.48084276},{"name":"国分寺駅南口第二","province":"東京都","city":"国分寺市","address":"東京都国分寺市南町3丁目18-1","lat":35.6991975,"lon":139.47988451},{"name":"国分寺市役所前","province":"東京都","city":"国分寺市","address":"東京都国分寺市戸倉1丁目5","lat":35.71022915,"lon":139.46235786},{"name":"国分寺第二小学校前","province":"東京都","city":"国分寺市","address":"東京都国分寺市光町3丁目1-1","lat":35.70790396,"lon":139.44431232},{"name":"国分寺第四小学校入口","province":"東京都","city":"国分寺市","address":"東京都国分寺市西元町2丁目17","lat":35.69559765,"lon":139.46844954},{"name":"国分寺南町一丁目","province":"東京都","city":"国分寺市","address":"東京都国分寺市南町2丁目1-37","lat":35.69877271,"lon":139.48630621},{"name":"東恋ヶ窪浄水所","province":"東京都","city":"国分寺市","address":"東京都国分寺市東恋ヶ窪2丁目5-8","lat":35.7064827,"lon":139.47639009},{"name":"国分寺市地域包括支援センター","province":"東京都","city":"国分寺市","address":"国分寺市泉町2-3-8","lat":35.696209,"lon":139.468216},{"name":"国分寺地域包括支援センターもとまち","province":"東京都","city":"国分寺市","address":"国分寺市東元町2-5-17さわやかプラザもとまち1階","lat":35.691803,"lon":139.480972},{"name":"国分寺地域包括支援センターこいがくぼ","province":"東京都","city":"国分寺市","address":"国分寺市西恋ヶ窪1-50-1にんじんホーム1階","lat":35.705936,"lon":139.467926},{"name":"国分寺地域包括支援センターほんだ","province":"東京都","city":"国分寺市","address":"国分寺市本多2-3-3商工会館3階","lat":35.70401,"lon":139.480164},{"name":"国分寺地域包括支援センターひかり","province":"東京都","city":"国分寺市","address":"国分寺市光町3-13-34国分寺ひかり診療所3階","lat":35.708466,"lon":139.444092},{"name":"国分寺地域包括支援センターひよし","province":"東京都","city":"国分寺市","address":"国分寺市日吉町4-32-6うれしのの里1階","lat":35.706627,"lon":139.458771},{"name":"国分寺地域包括支援センターなみき","province":"東京都","city":"国分寺市","address":"国分寺市並木町3-12-2至誠ホームミンナ1階","lat":35.71442,"lon":139.447311},{"name":"稲荷神社前","province":"東京都","city":"国分寺市","address":"東京都国分寺市光町1丁目23-2","lat":35.70626243,"lon":139.44249866},{"name":"本多公民館西","province":"東京都","city":"国分寺市","address":"東京都国分寺市本多1丁目6-3","lat":35.70516631,"lon":139.48188687},{"name":"国分寺駅南口第一","province":"東京都","city":"国分寺市","address":"東京都国分寺市南町3丁目17-3","lat":35.69936417,"lon":139.48084276},{"name":"国分寺駅南口第二","province":"東京都","city":"国分寺市","address":"東京都国分寺市南町3丁目18-1","lat":35.6991975,"lon":139.47988451},{"name":"国分寺市役所前","province":"東京都","city":"国分寺市","address":"東京都国分寺市戸倉1丁目5","lat":35.71022915,"lon":139.46235786},{"name":"国分寺第二小学校前","province":"東京都","city":"国分寺市","address":"東京都国分寺市光町3丁目1-1","lat":35.70790396,"lon":139.44431232},{"name":"国分寺第四小学校入口","province":"東京都","city":"国分寺市","address":"東京都国分寺市西元町2丁目17","lat":35.69559765,"lon":139.46844954},{"name":"国分寺南町一丁目","province":"東京都","city":"国分寺市","address":"東京都国分寺市南町2丁目1-37","lat":35.69877271,"lon":139.48630621},{"name":"東恋ヶ窪浄水所","province":"東京都","city":"国分寺市","address":"東京都国分寺市東恋ヶ窪2丁目5-8","lat":35.7064827,"lon":139.47639009},{"name":"国分寺市地域包括支援センター","province":"東京都","city":"国分寺市","address":"国分寺市泉町2-3-8","lat":35.696209,"lon":139.468216},{"name":"国分寺地域包括支援センターもとまち","province":"東京都","city":"国分寺市","address":"国分寺市東元町2-5-17さわやかプラザもとまち1階","lat":35.691803,"lon":139.480972},{"name":"国分寺地域包括支援センターこいがくぼ","province":"東京都","city":"国分寺市","address":"国分寺市西恋ヶ窪1-50-1にんじんホーム1階","lat":35.705936,"lon":139.467926},{"name":"国分寺地域包括支援センターほんだ","province":"東京都","city":"国分寺市","address":"国分寺市本多2-3-3商工会館3階","lat":35.70401,"lon":139.480164},{"name":"国分寺地域包括支援センターひかり","province":"東京都","city":"国分寺市","address":"国分寺市光町3-13-34国分寺ひかり診療所3階","lat":35.708466,"lon":139.444092},{"name":"国分寺地域包括支援センターひよし","province":"東京都","city":"国分寺市","address":"国分寺市日吉町4-32-6うれしのの里1階","lat":35.706627,"lon":139.458771},{"name":"国分寺地域包括支援センターなみき","province":"東京都","city":"国分寺市","address":"国分寺市並木町3-12-2至誠ホームミンナ1階","lat":35.71442,"lon":139.447311},{"name":"稲荷神社前","province":"東京都","city":"国分寺市","address":"東京都国分寺市光町1丁目23-2","lat":35.70626243,"lon":139.44249866},{"name":"本多公民館西","province":"東京都","city":"国分寺市","address":"東京都国分寺市本多1丁目6-3","lat":35.70516631,"lon":139.48188687},{"name":"国分寺駅南口第一","province":"東京都","city":"国分寺市","address":"東京都国分寺市南町3丁目17-3","lat":35.69936417,"lon":139.48084276},{"name":"国分寺駅南口第二","province":"東京都","city":"国分寺市","address":"東京都国分寺市南町3丁目18-1","lat":35.6991975,"lon":139.47988451},{"name":"国分寺市役所前","province":"東京都","city":"国分寺市","address":"東京都国分寺市戸倉1丁目5","lat":35.71022915,"lon":139.46235786},{"name":"国分寺第二小学校前","province":"東京都","city":"国分寺市","address":"東京都国分寺市光町3丁目1-1","lat":35.70790396,"lon":139.44431232},{"name":"国分寺第四小学校入口","province":"東京都","city":"国分寺市","address":"東京都国分寺市西元町2丁目17","lat":35.69559765,"lon":139.46844954},{"name":"国分寺南町一丁目","province":"東京都","city":"国分寺市","address":"東京都国分寺市南町2丁目1-37","lat":35.69877271,"lon":139.48630621},{"name":"東恋ヶ窪浄水所","province":"東京都","city":"国分寺市","address":"東京都国分寺市東恋ヶ窪2丁目5-8","lat":35.7064827,"lon":139.47639009},{"name":"国分寺市地域包括支援センター","province":"東京都","city":"国分寺市","address":"国分寺市泉町2-3-8","lat":35.696209,"lon":139.468216},{"name":"国分寺地域包括支援センターもとまち","province":"東京都","city":"国分寺市","address":"国分寺市東元町2-5-17さわやかプラザもとまち1階","lat":35.691803,"lon":139.480972},{"name":"国分寺地域包括支援センターこいがくぼ","province":"東京都","city":"国分寺市","address":"国分寺市西恋ヶ窪1-50-1にんじんホーム1階","lat":35.705936,"lon":139.467926},{"name":"国分寺地域包括支援センターほんだ","province":"東京都","city":"国分寺市","address":"国分寺市本多2-3-3商工会館3階","lat":35.70401,"lon":139.480164},{"name":"国分寺地域包括支援センターひかり","province":"東京都","city":"国分寺市","address":"国分寺市光町3-13-34国分寺ひかり診療所3階","lat":35.708466,"lon":139.444092},{"name":"国分寺地域包括支援センターひよし","province":"東京都","city":"国分寺市","address":"国分寺市日吉町4-32-6うれしのの里1階","lat":35.706627,"lon":139.458771},{"name":"国分寺地域包括支援センターなみき","province":"東京都","city":"国分寺市","address":"国分寺市並木町3-12-2至誠ホームミンナ1階","lat":35.71442,"lon":139.447311},{"name":"稲荷神社前","province":"東京都","city":"国分寺市","address":"東京都国分寺市光町1丁目23-2","lat":35.70626243,"lon":139.44249866},{"name":"本多公民館西","province":"東京都","city":"国分寺市","address":"東京都国分寺市本多1丁目6-3","lat":35.70516631,"lon":139.48188687},{"name":"国分寺駅南口第一","province":"東京都","city":"国分寺市","address":"東京都国分寺市南町3丁目17-3","lat":35.69936417,"lon":139.48084276},{"name":"国分寺駅南口第二","province":"東京都","city":"国分寺市","address":"東京都国分寺市南町3丁目18-1","lat":35.6991975,"lon":139.47988451},{"name":"国分寺市役所前","province":"東京都","city":"国分寺市","address":"東京都国分寺市戸倉1丁目5","lat":35.71022915,"lon":139.46235786},{"name":"国分寺第二小学校前","province":"東京都","city":"国分寺市","address":"東京都国分寺市光町3丁目1-1","lat":35.70790396,"lon":139.44431232},{"name":"国分寺第四小学校入口","province":"東京都","city":"国分寺市","address":"東京都国分寺市西元町2丁目17","lat":35.69559765,"lon":139.46844954},{"name":"国分寺南町一丁目","province":"東京都","city":"国分寺市","address":"東京都国分寺市南町2丁目1-37","lat":35.69877271,"lon":139.48630621},{"name":"東恋ヶ窪浄水所","province":"東京都","city":"国分寺市","address":"東京都国分寺市東恋ヶ窪2丁目5-8","lat":35.7064827,"lon":139.47639009},{"name":"国分寺市地域包括支援センター","province":"東京都","city":"国分寺市","address":"国分寺市泉町2-3-8","lat":35.696209,"lon":139.468216},{"name":"国分寺地域包括支援センターもとまち","province":"東京都","city":"国分寺市","address":"国分寺市東元町2-5-17さわやかプラザもとまち1階","lat":35.691803,"lon":139.480972},{"name":"国分寺地域包括支援センターこいがくぼ","province":"東京都","city":"国分寺市","address":"国分寺市西恋ヶ窪1-50-1にんじんホーム1階","lat":35.705936,"lon":139.467926},{"name":"国分寺地域包括支援センターほんだ","province":"東京都","city":"国分寺市","address":"国分寺市本多2-3-3商工会館3階","lat":35.70401,"lon":139.480164},{"name":"国分寺地域包括支援センターひかり","province":"東京都","city":"国分寺市","address":"国分寺市光町3-13-34国分寺ひかり診療所3階","lat":35.708466,"lon":139.444092},{"name":"国分寺地域包括支援センターひよし","province":"東京都","city":"国分寺市","address":"国分寺市日吉町4-32-6うれしのの里1階","lat":35.706627,"lon":139.458771},{"name":"国分寺地域包括支援センターなみき","province":"東京都","city":"国分寺市","address":"国分寺市並木町3-12-2至誠ホームミンナ1階","lat":35.71442,"lon":139.447311},{"name":"稲荷神社前","province":"東京都","city":"国分寺市","address":"東京都国分寺市光町1丁目23-2","lat":35.70626243,"lon":139.44249866},{"name":"本多公民館西","province":"東京都","city":"国分寺市","address":"東京都国分寺市本多1丁目6-3","lat":35.70516631,"lon":139.48188687},{"name":"国分寺駅南口第一","province":"東京都","city":"国分寺市","address":"東京都国分寺市南町3丁目17-3","lat":35.69936417,"lon":139.48084276},{"name":"国分寺駅南口第二","province":"東京都","city":"国分寺市","address":"東京都国分寺市南町3丁目18-1","lat":35.6991975,"lon":139.47988451},{"name":"国分寺市役所前","province":"東京都","city":"国分寺市","address":"東京都国分寺市戸倉1丁目5","lat":35.71022915,"lon":139.46235786},{"name":"国分寺第二小学校前","province":"東京都","city":"国分寺市","address":"東京都国分寺市光町3丁目1-1","lat":35.70790396,"lon":139.44431232},{"name":"国分寺第四小学校入口","province":"東京都","city":"国分寺市","address":"東京都国分寺市西元町2丁目17","lat":35.69559765,"lon":139.46844954},{"name":"国分寺南町一丁目","province":"東京都","city":"国分寺市","address":"東京都国分寺市南町2丁目1-37","lat":35.69877271,"lon":139.48630621},{"name":"東恋ヶ窪浄水所","province":"東京都","city":"国分寺市","address":"東京都国分寺市東恋ヶ窪2丁目5-8","lat":35.7064827,"lon":139.47639009},{"name":"国分寺市地域包括支援センター","province":"東京都","city":"国分寺市","address":"国分寺市泉町2-3-8","lat":35.696209,"lon":139.468216},{"name":"国分寺地域包括支援センターもとまち","province":"東京都","city":"国分寺市","address":"国分寺市東元町2-5-17さわやかプラザもとまち1階","lat":35.691803,"lon":139.480972},{"name":"国分寺地域包括支援センターこいがくぼ","province":"東京都","city":"国分寺市","address":"国分寺市西恋ヶ窪1-50-1にんじんホーム1階","lat":35.705936,"lon":139.467926},{"name":"国分寺地域包括支援センターほんだ","province":"東京都","city":"国分寺市","address":"国分寺市本多2-3-3商工会館3階","lat":35.70401,"lon":139.480164},{"name":"国分寺地域包括支援センターひかり","province":"東京都","city":"国分寺市","address":"国分寺市光町3-13-34国分寺ひかり診療所3階","lat":35.708466,"lon":139.444092},{"name":"国分寺地域包括支援センターひよし","province":"東京都","city":"国分寺市","address":"国分寺市日吉町4-32-6うれしのの里1階","lat":35.706627,"lon":139.458771},{"name":"国分寺地域包括支援センターなみき","province":"東京都","city":"国分寺市","address":"国分寺市並木町3-12-2至誠ホームミンナ1階","lat":35.71442,"lon":139.447311},{"name":"稲荷神社前","province":"東京都","city":"国分寺市","address":"東京都国分寺市光町1丁目23-2","lat":35.70626243,"lon":139.44249866},{"name":"本多公民館西","province":"東京都","city":"国分寺市","address":"東京都国分寺市本多1丁目6-3","lat":35.70516631,"lon":139.48188687},{"name":"国分寺駅南口第一","province":"東京都","city":"国分寺市","address":"東京都国分寺市南町3丁目17-3","lat":35.69936417,"lon":139.48084276},{"name":"国分寺駅南口第二","province":"東京都","city":"国分寺市","address":"東京都国分寺市南町3丁目18-1","lat":35.6991975,"lon":139.47988451},{"name":"国分寺市役所前","province":"東京都","city":"国分寺市","address":"東京都国分寺市戸倉1丁目5","lat":35.71022915,"lon":139.46235786},{"name":"国分寺第二小学校前","province":"東京都","city":"国分寺市","address":"東京都国分寺市光町3丁目1-1","lat":35.70790396,"lon":139.44431232},{"name":"国分寺第四小学校入口","province":"東京都","city":"国分寺市","address":"東京都国分寺市西元町2丁目17","lat":35.69559765,"lon":139.46844954},{"name":"国分寺南町一丁目","province":"東京都","city":"国分寺市","address":"東京都国分寺市南町2丁目1-37","lat":35.69877271,"lon":139.48630621},{"name":"東恋ヶ窪浄水所","province":"東京都","city":"国分寺市","address":"東京都国分寺市東恋ヶ窪2丁目5-8","lat":35.7064827,"lon":139.47639009},{"name":"国分寺市地域包括支援センター","province":"東京都","city":"国分寺市","address":"国分寺市泉町2-3-8","lat":35.696209,"lon":139.468216},{"name":"国分寺地域包括支援センターもとまち","province":"東京都","city":"国分寺市","address":"国分寺市東元町2-5-17さわやかプラザもとまち1階","lat":35.691803,"lon":139.480972},{"name":"国分寺地域包括支援センターこいがくぼ","province":"東京都","city":"国分寺市","address":"国分寺市西恋ヶ窪1-50-1にんじんホーム1階","lat":35.705936,"lon":139.467926},{"name":"国分寺地域包括支援センターほんだ","province":"東京都","city":"国分寺市","address":"国分寺市本多2-3-3商工会館3階","lat":35.70401,"lon":139.480164},{"name":"国分寺地域包括支援センターひかり","province":"東京都","city":"国分寺市","address":"国分寺市光町3-13-34国分寺ひかり診療所3階","lat":35.708466,"lon":139.444092},{"name":"国分寺地域包括支援センターひよし","province":"東京都","city":"国分寺市","address":"国分寺市日吉町4-32-6うれしのの里1階","lat":35.706627,"lon":139.458771},{"name":"国分寺地域包括支援センターなみき","province":"東京都","city":"国分寺市","address":"国分寺市並木町3-12-2至誠ホームミンナ1階","lat":35.71442,"lon":139.447311},{"name":"稲荷神社前","province":"東京都","city":"国分寺市","address":"東京都国分寺市光町1丁目23-2","lat":35.70626243,"lon":139.44249866},{"name":"本多公民館西","province":"東京都","city":"国分寺市","address":"東京都国分寺市本多1丁目6-3","lat":35.70516631,"lon":139.48188687},{"name":"国分寺駅南口第一","province":"東京都","city":"国分寺市","address":"東京都国分寺市南町3丁目17-3","lat":35.69936417,"lon":139.48084276},{"name":"国分寺駅南口第二","province":"東京都","city":"国分寺市","address":"東京都国分寺市南町3丁目18-1","lat":35.6991975,"lon":139.47988451},{"name":"国分寺市役所前","province":"東京都","city":"国分寺市","address":"東京都国分寺市戸倉1丁目5","lat":35.71022915,"lon":139.46235786},{"name":"国分寺第二小学校前","province":"東京都","city":"国分寺市","address":"東京都国分寺市光町3丁目1-1","lat":35.70790396,"lon":139.44431232},{"name":"国分寺第四小学校入口","province":"東京都","city":"国分寺市","address":"東京都国分寺市西元町2丁目17","lat":35.69559765,"lon":139.46844954},{"name":"国分寺南町一丁目","province":"東京都","city":"国分寺市","address":"東京都国分寺市南町2丁目1-37","lat":35.69877271,"lon":139.48630621},{"name":"東恋ヶ窪浄水所","province":"東京都","city":"国分寺市","address":"東京都国分寺市東恋ヶ窪2丁目5-8","lat":35.7064827,"lon":139.47639009},{"name":"国分寺市地域包括支援センター","province":"東京都","city":"国分寺市","address":"国分寺市泉町2-3-8","lat":35.696209,"lon":139.468216},{"name":"国分寺地域包括支援センターもとまち","province":"東京都","city":"国分寺市","address":"国分寺市東元町2-5-17さわやかプラザもとまち1階","lat":35.691803,"lon":139.480972},{"name":"国分寺地域包括支援センターこいがくぼ","province":"東京都","city":"国分寺市","address":"国分寺市西恋ヶ窪1-50-1にんじんホーム1階","lat":35.705936,"lon":139.467926},{"name":"国分寺地域包括支援センターほんだ","province":"東京都","city":"国分寺市","address":"国分寺市本多2-3-3商工会館3階","lat":35.70401,"lon":139.480164},{"name":"国分寺地域包括支援センターひかり","province":"東京都","city":"国分寺市","address":"国分寺市光町3-13-34国分寺ひかり診療所3階","lat":35.708466,"lon":139.444092},{"name":"国分寺地域包括支援センターひよし","province":"東京都","city":"国分寺市","address":"国分寺市日吉町4-32-6うれしのの里1階","lat":35.706627,"lon":139.458771},{"name":"国分寺地域包括支援センターなみき","province":"東京都","city":"国分寺市","address":"国分寺市並木町3-12-2至誠ホームミンナ1階","lat":35.71442,"lon":139.447311},{"name":"稲荷神社前","province":"東京都","city":"国分寺市","address":"東京都国分寺市光町1丁目23-2","lat":35.70626243,"lon":139.44249866},{"name":"本多公民館西","province":"東京都","city":"国分寺市","address":"東京都国分寺市本多1丁目6-3","lat":35.70516631,"lon":139.48188687},{"name":"国分寺駅南口第一","province":"東京都","city":"国分寺市","address":"東京都国分寺市南町3丁目17-3","lat":35.69936417,"lon":139.48084276},{"name":"国分寺駅南口第二","province":"東京都","city":"国分寺市","address":"東京都国分寺市南町3丁目18-1","lat":35.6991975,"lon":139.47988451},{"name":"国分寺市役所前","province":"東京都","city":"国分寺市","address":"東京都国分寺市戸倉1丁目5","lat":35.71022915,"lon":139.46235786},{"name":"国分寺第二小学校前","province":"東京都","city":"国分寺市","address":"東京都国分寺市光町3丁目1-1","lat":35.70790396,"lon":139.44431232},{"name":"国分寺第四小学校入口","province":"東京都","city":"国分寺市","address":"東京都国分寺市西元町2丁目17","lat":35.69559765,"lon":139.46844954},{"name":"国分寺南町一丁目","province":"東京都","city":"国分寺市","address":"東京都国分寺市南町2丁目1-37","lat":35.69877271,"lon":139.48630621},{"name":"東恋ヶ窪浄水所","province":"東京都","city":"国分寺市","address":"東京都国分寺市東恋ヶ窪2丁目5-8","lat":35.7064827,"lon":139.47639009},{"name":"国分寺市地域包括支援センター","province":"東京都","city":"国分寺市","address":"国分寺市泉町2-3-8","lat":35.696209,"lon":139.468216},{"name":"国分寺地域包括支援センターもとまち","province":"東京都","city":"国分寺市","address":"国分寺市東元町2-5-17さわやかプラザもとまち1階","lat":35.691803,"lon":139.480972},{"name":"国分寺地域包括支援センターこいがくぼ","province":"東京都","city":"国分寺市","address":"国分寺市西恋ヶ窪1-50-1にんじんホーム1階","lat":35.705936,"lon":139.467926},{"name":"国分寺地域包括支援センターほんだ","province":"東京都","city":"国分寺市","address":"国分寺市本多2-3-3商工会館3階","lat":35.70401,"lon":139.480164},{"name":"国分寺地域包括支援センターひかり","province":"東京都","city":"国分寺市","address":"国分寺市光町3-13-34国分寺ひかり診療所3階","lat":35.708466,"lon":139.444092},{"name":"国分寺地域包括支援センターひよし","province":"東京都","city":"国分寺市","address":"国分寺市日吉町4-32-6うれしのの里1階","lat":35.706627,"lon":139.458771},{"name":"国分寺地域包括支援センターなみき","province":"東京都","city":"国分寺市","address":"国分寺市並木町3-12-2至誠ホームミンナ1階","lat":35.71442,"lon":139.447311},{"name":"稲荷神社前","province":"東京都","city":"国分寺市","address":"東京都国分寺市光町1丁目23-2","lat":35.70626243,"lon":139.44249866},{"name":"本多公民館西","province":"東京都","city":"国分寺市","address":"東京都国分寺市本多1丁目6-3","lat":35.70516631,"lon":139.48188687},{"name":"国分寺駅南口第一","province":"東京都","city":"国分寺市","address":"東京都国分寺市南町3丁目17-3","lat":35.69936417,"lon":139.48084276},{"name":"国分寺駅南口第二","province":"東京都","city":"国分寺市","address":"東京都国分寺市南町3丁目18-1","lat":35.6991975,"lon":139.47988451},{"name":"国分寺市役所前","province":"東京都","city":"国分寺市","address":"東京都国分寺市戸倉1丁目5","lat":35.71022915,"lon":139.46235786},{"name":"国分寺第二小学校前","province":"東京都","city":"国分寺市","address":"東京都国分寺市光町3丁目1-1","lat":35.70790396,"lon":139.44431232},{"name":"国分寺第四小学校入口","province":"東京都","city":"国分寺市","address":"東京都国分寺市西元町2丁目17","lat":35.69559765,"lon":139.46844954},{"name":"国分寺南町一丁目","province":"東京都","city":"国分寺市","address":"東京都国分寺市南町2丁目1-37","lat":35.69877271,"lon":139.48630621},{"name":"東恋ヶ窪浄水所","province":"東京都","city":"国分寺市","address":"東京都国分寺市東恋ヶ窪2丁目5-8","lat":35.7064827,"lon":139.47639009},{"name":"国分寺市地域包括支援センター","province":"東京都","city":"国分寺市","address":"国分寺市泉町2-3-8","lat":35.696209,"lon":139.468216},{"name":"国分寺地域包括支援センターもとまち","province":"東京都","city":"国分寺市","address":"国分寺市東元町2-5-17さわやかプラザもとまち1階","lat":35.691803,"lon":139.480972},{"name":"国分寺地域包括支援センターこいがくぼ","province":"東京都","city":"国分寺市","address":"国分寺市西恋ヶ窪1-50-1にんじんホーム1階","lat":35.705936,"lon":139.467926},{"name":"国分寺地域包括支援センターほんだ","province":"東京都","city":"国分寺市","address":"国分寺市本多2-3-3商工会館3階","lat":35.70401,"lon":139.480164},{"name":"国分寺地域包括支援センターひかり","province":"東京都","city":"国分寺市","address":"国分寺市光町3-13-34国分寺ひかり診療所3階","lat":35.708466,"lon":139.444092},{"name":"国分寺地域包括支援センターひよし","province":"東京都","city":"国分寺市","address":"国分寺市日吉町4-32-6うれしのの里1階","lat":35.706627,"lon":139.458771},{"name":"国分寺地域包括支援センターなみき","province":"東京都","city":"国分寺市","address":"国分寺市並木町3-12-2至誠ホームミンナ1階","lat":35.71442,"lon":139.447311},{"name":"稲荷神社前","province":"東京都","city":"国分寺市","address":"東京都国分寺市光町1丁目23-2","lat":35.70626243,"lon":139.44249866},{"name":"本多公民館西","province":"東京都","city":"国分寺市","address":"東京都国分寺市本多1丁目6-3","lat":35.70516631,"lon":139.48188687},{"name":"国分寺駅南口第一","province":"東京都","city":"国分寺市","address":"東京都国分寺市南町3丁目17-3","lat":35.69936417,"lon":139.48084276},{"name":"国分寺駅南口第二","province":"東京都","city":"国分寺市","address":"東京都国分寺市南町3丁目18-1","lat":35.6991975,"lon":139.47988451},{"name":"国分寺市役所前","province":"東京都","city":"国分寺市","address":"東京都国分寺市戸倉1丁目5","lat":35.71022915,"lon":139.46235786},{"name":"国分寺第二小学校前","province":"東京都","city":"国分寺市","address":"東京都国分寺市光町3丁目1-1","lat":35.70790396,"lon":139.44431232},{"name":"国分寺第四小学校入口","province":"東京都","city":"国分寺市","address":"東京都国分寺市西元町2丁目17","lat":35.69559765,"lon":139.46844954},{"name":"国分寺南町一丁目","province":"東京都","city":"国分寺市","address":"東京都国分寺市南町2丁目1-37","lat":35.69877271,"lon":139.48630621},{"name":"東恋ヶ窪浄水所","province":"東京都","city":"国分寺市","address":"東京都国分寺市東恋ヶ窪2丁目5-8","lat":35.7064827,"lon":139.47639009},{"name":"国分寺市地域包括支援センター","province":"東京都","city":"国分寺市","address":"国分寺市泉町2-3-8","lat":35.696209,"lon":139.468216},{"name":"国分寺地域包括支援センターもとまち","province":"東京都","city":"国分寺市","address":"国分寺市東元町2-5-17さわやかプラザもとまち1階","lat":35.691803,"lon":139.480972},{"name":"国分寺地域包括支援センターこいがくぼ","province":"東京都","city":"国分寺市","address":"国分寺市西恋ヶ窪1-50-1にんじんホーム1階","lat":35.705936,"lon":139.467926},{"name":"国分寺地域包括支援センターほんだ","province":"東京都","city":"国分寺市","address":"国分寺市本多2-3-3商工会館3階","lat":35.70401,"lon":139.480164},{"name":"国分寺地域包括支援センターひかり","province":"東京都","city":"国分寺市","address":"国分寺市光町3-13-34国分寺ひかり診療所3階","lat":35.708466,"lon":139.444092},{"name":"国分寺地域包括支援センターひよし","province":"東京都","city":"国分寺市","address":"国分寺市日吉町4-32-6うれしのの里1階","lat":35.706627,"lon":139.458771},{"name":"国分寺地域包括支援センターなみき","province":"東京都","city":"国分寺市","address":"国分寺市並木町3-12-2至誠ホームミンナ1階","lat":35.71442,"lon":139.447311},{"name":"稲荷神社前","province":"東京都","city":"国分寺市","address":"東京都国分寺市光町1丁目23-2","lat":35.70626243,"lon":139.44249866},{"name":"本多公民館西","province":"東京都","city":"国分寺市","address":"東京都国分寺市本多1丁目6-3","lat":35.70516631,"lon":139.48188687},{"name":"国分寺駅南口第一","province":"東京都","city":"国分寺市","address":"東京都国分寺市南町3丁目17-3","lat":35.69936417,"lon":139.48084276},{"name":"国分寺駅南口第二","province":"東京都","city":"国分寺市","address":"東京都国分寺市南町3丁目18-1","lat":35.6991975,"lon":139.47988451},{"name":"国分寺市役所前","province":"東京都","city":"国分寺市","address":"東京都国分寺市戸倉1丁目5","lat":35.71022915,"lon":139.46235786},{"name":"国分寺第二小学校前","province":"東京都","city":"国分寺市","address":"東京都国分寺市光町3丁目1-1","lat":35.70790396,"lon":139.44431232},{"name":"国分寺第四小学校入口","province":"東京都","city":"国分寺市","address":"東京都国分寺市西元町2丁目17","lat":35.69559765,"lon":139.46844954},{"name":"国分寺南町一丁目","province":"東京都","city":"国分寺市","address":"東京都国分寺市南町2丁目1-37","lat":35.69877271,"lon":139.48630621},{"name":"東恋ヶ窪浄水所","province":"東京都","city":"国分寺市","address":"東京都国分寺市東恋ヶ窪2丁目5-8","lat":35.7064827,"lon":139.47639009},{"name":"国分寺市地域包括支援センター","province":"東京都","city":"国分寺市","address":"国分寺市泉町2-3-8","lat":35.696209,"lon":139.468216},{"name":"国分寺地域包括支援センターもとまち","province":"東京都","city":"国分寺市","address":"国分寺市東元町2-5-17さわやかプラザもとまち1階","lat":35.691803,"lon":139.480972},{"name":"国分寺地域包括支援センターこいがくぼ","province":"東京都","city":"国分寺市","address":"国分寺市西恋ヶ窪1-50-1にんじんホーム1階","lat":35.705936,"lon":139.467926},{"name":"国分寺地域包括支援センターほんだ","province":"東京都","city":"国分寺市","address":"国分寺市本多2-3-3商工会館3階","lat":35.70401,"lon":139.480164},{"name":"国分寺地域包括支援センターひかり","province":"東京都","city":"国分寺市","address":"国分寺市光町3-13-34国分寺ひかり診療所3階","lat":35.708466,"lon":139.444092},{"name":"国分寺地域包括支援センターひよし","province":"東京都","city":"国分寺市","address":"国分寺市日吉町4-32-6うれしのの里1階","lat":35.706627,"lon":139.458771},{"name":"国分寺地域包括支援センターなみき","province":"東京都","city":"国分寺市","address":"国分寺市並木町3-12-2至誠ホームミンナ1階","lat":35.71442,"lon":139.447311},{"name":"稲荷神社前","province":"東京都","city":"国分寺市","address":"東京都国分寺市光町1丁目23-2","lat":35.70626243,"lon":139.44249866},{"name":"本多公民館西","province":"東京都","city":"国分寺市","address":"東京都国分寺市本多1丁目6-3","lat":35.70516631,"lon":139.48188687},{"name":"国分寺駅南口第一","province":"東京都","city":"国分寺市","address":"東京都国分寺市南町3丁目17-3","lat":35.69936417,"lon":139.48084276},{"name":"国分寺駅南口第二","province":"東京都","city":"国分寺市","address":"東京都国分寺市南町3丁目18-1","lat":35.6991975,"lon":139.47988451},{"name":"国分寺市役所前","province":"東京都","city":"国分寺市","address":"東京都国分寺市戸倉1丁目5","lat":35.71022915,"lon":139.46235786},{"name":"国分寺第二小学校前","province":"東京都","city":"国分寺市","address":"東京都国分寺市光町3丁目1-1","lat":35.70790396,"lon":139.44431232},{"name":"国分寺第四小学校入口","province":"東京都","city":"国分寺市","address":"東京都国分寺市西元町2丁目17","lat":35.69559765,"lon":139.46844954},{"name":"国分寺南町一丁目","province":"東京都","city":"国分寺市","address":"東京都国分寺市南町2丁目1-37","lat":35.69877271,"lon":139.48630621},{"name":"東恋ヶ窪浄水所","province":"東京都","city":"国分寺市","address":"東京都国分寺市東恋ヶ窪2丁目5-8","lat":35.7064827,"lon":139.47639009},{"name":"国分寺市地域包括支援センター","province":"東京都","city":"国分寺市","address":"国分寺市泉町2-3-8","lat":35.696209,"lon":139.468216},{"name":"国分寺地域包括支援センターもとまち","province":"東京都","city":"国分寺市","address":"国分寺市東元町2-5-17さわやかプラザもとまち1階","lat":35.691803,"lon":139.480972},{"name":"国分寺地域包括支援センターこいがくぼ","province":"東京都","city":"国分寺市","address":"国分寺市西恋ヶ窪1-50-1にんじんホーム1階","lat":35.705936,"lon":139.467926},{"name":"国分寺地域包括支援センターほんだ","province":"東京都","city":"国分寺市","address":"国分寺市本多2-3-3商工会館3階","lat":35.70401,"lon":139.480164},{"name":"国分寺地域包括支援センターひかり","province":"東京都","city":"国分寺市","address":"国分寺市光町3-13-34国分寺ひかり診療所3階","lat":35.708466,"lon":139.444092},{"name":"国分寺地域包括支援センターひよし","province":"東京都","city":"国分寺市","address":"国分寺市日吉町4-32-6うれしのの里1階","lat":35.706627,"lon":139.458771},{"name":"国分寺地域包括支援センターなみき","province":"東京都","city":"国分寺市","address":"国分寺市並木町3-12-2至誠ホームミンナ1階","lat":35.71442,"lon":139.447311},{"name":"稲荷神社前","province":"東京都","city":"国分寺市","address":"東京都国分寺市光町1丁目23-2","lat":35.70626243,"lon":139.44249866},{"name":"本多公民館西","province":"東京都","city":"国分寺市","address":"東京都国分寺市本多1丁目6-3","lat":35.70516631,"lon":139.48188687},{"name":"国分寺駅南口第一","province":"東京都","city":"国分寺市","address":"東京都国分寺市南町3丁目17-3","lat":35.69936417,"lon":139.48084276},{"name":"国分寺駅南口第二","province":"東京都","city":"国分寺市","address":"東京都国分寺市南町3丁目18-1","lat":35.6991975,"lon":139.47988451},{"name":"国分寺市役所前","province":"東京都","city":"国分寺市","address":"東京都国分寺市戸倉1丁目5","lat":35.71022915,"lon":139.46235786},{"name":"国分寺第二小学校前","province":"東京都","city":"国分寺市","address":"東京都国分寺市光町3丁目1-1","lat":35.70790396,"lon":139.44431232},{"name":"国分寺第四小学校入口","province":"東京都","city":"国分寺市","address":"東京都国分寺市西元町2丁目17","lat":35.69559765,"lon":139.46844954},{"name":"国分寺南町一丁目","province":"東京都","city":"国分寺市","address":"東京都国分寺市南町2丁目1-37","lat":35.69877271,"lon":139.48630621},{"name":"東恋ヶ窪浄水所","province":"東京都","city":"国分寺市","address":"東京都国分寺市東恋ヶ窪2丁目5-8","lat":35.7064827,"lon":139.47639009},{"name":"国分寺市地域包括支援センター","province":"東京都","city":"国分寺市","address":"国分寺市泉町2-3-8","lat":35.696209,"lon":139.468216},{"name":"国分寺地域包括支援センターもとまち","province":"東京都","city":"国分寺市","address":"国分寺市東元町2-5-17さわやかプラザもとまち1階","lat":35.691803,"lon":139.480972},{"name":"国分寺地域包括支援センターこいがくぼ","province":"東京都","city":"国分寺市","address":"国分寺市西恋ヶ窪1-50-1にんじんホーム1階","lat":35.705936,"lon":139.467926},{"name":"国分寺地域包括支援センターほんだ","province":"東京都","city":"国分寺市","address":"国分寺市本多2-3-3商工会館3階","lat":35.70401,"lon":139.480164},{"name":"国分寺地域包括支援センターひかり","province":"東京都","city":"国分寺市","address":"国分寺市光町3-13-34国分寺ひかり診療所3階","lat":35.708466,"lon":139.444092},{"name":"国分寺地域包括支援センターひよし","province":"東京都","city":"国分寺市","address":"国分寺市日吉町4-32-6うれしのの里1階","lat":35.706627,"lon":139.458771},{"name":"国分寺地域包括支援センターなみき","province":"東京都","city":"国分寺市","address":"国分寺市並木町3-12-2至誠ホームミンナ1階","lat":35.71442,"lon":139.447311},{"name":"稲荷神社前","province":"東京都","city":"国分寺市","address":"東京都国分寺市光町1丁目23-2","lat":35.70626243,"lon":139.44249866},{"name":"本多公民館西","province":"東京都","city":"国分寺市","address":"東京都国分寺市本多1丁目6-3","lat":35.70516631,"lon":139.48188687},{"name":"国分寺駅南口第一","province":"東京都","city":"国分寺市","address":"東京都国分寺市南町3丁目17-3","lat":35.69936417,"lon":139.48084276},{"name":"国分寺駅南口第二","province":"東京都","city":"国分寺市","address":"東京都国分寺市南町3丁目18-1","lat":35.6991975,"lon":139.47988451},{"name":"国分寺市役所前","province":"東京都","city":"国分寺市","address":"東京都国分寺市戸倉1丁目5","lat":35.71022915,"lon":139.46235786},{"name":"国分寺第二小学校前","province":"東京都","city":"国分寺市","address":"東京都国分寺市光町3丁目1-1","lat":35.70790396,"lon":139.44431232},{"name":"国分寺第四小学校入口","province":"東京都","city":"国分寺市","address":"東京都国分寺市西元町2丁目17","lat":35.69559765,"lon":139.46844954},{"name":"国分寺南町一丁目","province":"東京都","city":"国分寺市","address":"東京都国分寺市南町2丁目1-37","lat":35.69877271,"lon":139.48630621},{"name":"東恋ヶ窪浄水所","province":"東京都","city":"国分寺市","address":"東京都国分寺市東恋ヶ窪2丁目5-8","lat":35.7064827,"lon":139.47639009},{"name":"国分寺市地域包括支援センター","province":"東京都","city":"国分寺市","address":"国分寺市泉町2-3-8","lat":35.696209,"lon":139.468216},{"name":"国分寺地域包括支援センターもとまち","province":"東京都","city":"国分寺市","address":"国分寺市東元町2-5-17さわやかプラザもとまち1階","lat":35.691803,"lon":139.480972},{"name":"国分寺地域包括支援センターこいがくぼ","province":"東京都","city":"国分寺市","address":"国分寺市西恋ヶ窪1-50-1にんじんホーム1階","lat":35.705936,"lon":139.467926},{"name":"国分寺地域包括支援センターほんだ","province":"東京都","city":"国分寺市","address":"国分寺市本多2-3-3商工会館3階","lat":35.70401,"lon":139.480164},{"name":"国分寺地域包括支援センターひかり","province":"東京都","city":"国分寺市","address":"国分寺市光町3-13-34国分寺ひかり診療所3階","lat":35.708466,"lon":139.444092},{"name":"国分寺地域包括支援センターひよし","province":"東京都","city":"国分寺市","address":"国分寺市日吉町4-32-6うれしのの里1階","lat":35.706627,"lon":139.458771},{"name":"国分寺地域包括支援センターなみき","province":"東京都","city":"国分寺市","address":"国分寺市並木町3-12-2至誠ホームミンナ1階","lat":35.71442,"lon":139.447311},{"name":"稲荷神社前","province":"東京都","city":"国分寺市","address":"東京都国分寺市光町1丁目23-2","lat":35.70626243,"lon":139.44249866},{"name":"本多公民館西","province":"東京都","city":"国分寺市","address":"東京都国分寺市本多1丁目6-3","lat":35.70516631,"lon":139.48188687},{"name":"国分寺駅南口第一","province":"東京都","city":"国分寺市","address":"東京都国分寺市南町3丁目17-3","lat":35.69936417,"lon":139.48084276},{"name":"国分寺駅南口第二","province":"東京都","city":"国分寺市","address":"東京都国分寺市南町3丁目18-1","lat":35.6991975,"lon":139.47988451},{"name":"国分寺市役所前","province":"東京都","city":"国分寺市","address":"東京都国分寺市戸倉1丁目5","lat":35.71022915,"lon":139.46235786},{"name":"国分寺第二小学校前","province":"東京都","city":"国分寺市","address":"東京都国分寺市光町3丁目1-1","lat":35.70790396,"lon":139.44431232},{"name":"国分寺第四小学校入口","province":"東京都","city":"国分寺市","address":"東京都国分寺市西元町2丁目17","lat":35.69559765,"lon":139.46844954},{"name":"国分寺南町一丁目","province":"東京都","city":"国分寺市","address":"東京都国分寺市南町2丁目1-37","lat":35.69877271,"lon":139.48630621},{"name":"東恋ヶ窪浄水所","province":"東京都","city":"国分寺市","address":"東京都国分寺市東恋ヶ窪2丁目5-8","lat":35.7064827,"lon":139.47639009},{"name":"国分寺市地域包括支援センター","province":"東京都","city":"国分寺市","address":"国分寺市泉町2-3-8","lat":35.696209,"lon":139.468216},{"name":"国分寺地域包括支援センターもとまち","province":"東京都","city":"国分寺市","address":"国分寺市東元町2-5-17さわやかプラザもとまち1階","lat":35.691803,"lon":139.480972},{"name":"国分寺地域包括支援センターこいがくぼ","province":"東京都","city":"国分寺市","address":"国分寺市西恋ヶ窪1-50-1にんじんホーム1階","lat":35.705936,"lon":139.467926},{"name":"国分寺地域包括支援センターほんだ","province":"東京都","city":"国分寺市","address":"国分寺市本多2-3-3商工会館3階","lat":35.70401,"lon":139.480164},{"name":"国分寺地域包括支援センターひかり","province":"東京都","city":"国分寺市","address":"国分寺市光町3-13-34国分寺ひかり診療所3階","lat":35.708466,"lon":139.444092},{"name":"国分寺地域包括支援センターひよし","province":"東京都","city":"国分寺市","address":"国分寺市日吉町4-32-6うれしのの里1階","lat":35.706627,"lon":139.458771},{"name":"国分寺地域包括支援センターなみき","province":"東京都","city":"国分寺市","address":"国分寺市並木町3-12-2至誠ホームミンナ1階","lat":35.71442,"lon":139.447311},{"name":"稲荷神社前","province":"東京都","city":"国分寺市","address":"東京都国分寺市光町1丁目23-2","lat":35.70626243,"lon":139.44249866},{"name":"本多公民館西","province":"東京都","city":"国分寺市","address":"東京都国分寺市本多1丁目6-3","lat":35.70516631,"lon":139.48188687},{"name":"国分寺駅南口第一","province":"東京都","city":"国分寺市","address":"東京都国分寺市南町3丁目17-3","lat":35.69936417,"lon":139.48084276},{"name":"国分寺駅南口第二","province":"東京都","city":"国分寺市","address":"東京都国分寺市南町3丁目18-1","lat":35.6991975,"lon":139.47988451},{"name":"国分寺市役所前","province":"東京都","city":"国分寺市","address":"東京都国分寺市戸倉1丁目5","lat":35.71022915,"lon":139.46235786},{"name":"国分寺第二小学校前","province":"東京都","city":"国分寺市","address":"東京都国分寺市光町3丁目1-1","lat":35.70790396,"lon":139.44431232},{"name":"国分寺第四小学校入口","province":"東京都","city":"国分寺市","address":"東京都国分寺市西元町2丁目17","lat":35.69559765,"lon":139.46844954},{"name":"国分寺南町一丁目","province":"東京都","city":"国分寺市","address":"東京都国分寺市南町2丁目1-37","lat":35.69877271,"lon":139.48630621},{"name":"東恋ヶ窪浄水所","province":"東京都","city":"国分寺市","address":"東京都国分寺市東恋ヶ窪2丁目5-8","lat":35.7064827,"lon":139.47639009},{"name":"国分寺市地域包括支援センター","province":"東京都","city":"国分寺市","address":"国分寺市泉町2-3-8","lat":35.696209,"lon":139.468216},{"name":"国分寺地域包括支援センターもとまち","province":"東京都","city":"国分寺市","address":"国分寺市東元町2-5-17さわやかプラザもとまち1階","lat":35.691803,"lon":139.480972},{"name":"国分寺地域包括支援センターこいがくぼ","province":"東京都","city":"国分寺市","address":"国分寺市西恋ヶ窪1-50-1にんじんホーム1階","lat":35.705936,"lon":139.467926},{"name":"国分寺地域包括支援センターほんだ","province":"東京都","city":"国分寺市","address":"国分寺市本多2-3-3商工会館3階","lat":35.70401,"lon":139.480164},{"name":"国分寺地域包括支援センターひかり","province":"東京都","city":"国分寺市","address":"国分寺市光町3-13-34国分寺ひかり診療所3階","lat":35.708466,"lon":139.444092},{"name":"国分寺地域包括支援センターひよし","province":"東京都","city":"国分寺市","address":"国分寺市日吉町4-32-6うれしのの里1階","lat":35.706627,"lon":139.458771},{"name":"国分寺地域包括支援センターなみき","province":"東京都","city":"国分寺市","address":"国分寺市並木町3-12-2至誠ホームミンナ1階","lat":35.71442,"lon":139.447311},{"name":"稲荷神社前","province":"東京都","city":"国分寺市","address":"東京都国分寺市光町1丁目23-2","lat":35.70626243,"lon":139.44249866},{"name":"本多公民館西","province":"東京都","city":"国分寺市","address":"東京都国分寺市本多1丁目6-3","lat":35.70516631,"lon":139.48188687},{"name":"国分寺駅南口第一","province":"東京都","city":"国分寺市","address":"東京都国分寺市南町3丁目17-3","lat":35.69936417,"lon":139.48084276},{"name":"国分寺駅南口第二","province":"東京都","city":"国分寺市","address":"東京都国分寺市南町3丁目18-1","lat":35.6991975,"lon":139.47988451},{"name":"国分寺市役所前","province":"東京都","city":"国分寺市","address":"東京都国分寺市戸倉1丁目5","lat":35.71022915,"lon":139.46235786},{"name":"国分寺第二小学校前","province":"東京都","city":"国分寺市","address":"東京都国分寺市光町3丁目1-1","lat":35.70790396,"lon":139.44431232},{"name":"国分寺第四小学校入口","province":"東京都","city":"国分寺市","address":"東京都国分寺市西元町2丁目17","lat":35.69559765,"lon":139.46844954},{"name":"国分寺南町一丁目","province":"東京都","city":"国分寺市","address":"東京都国分寺市南町2丁目1-37","lat":35.69877271,"lon":139.48630621},{"name":"東恋ヶ窪浄水所","province":"東京都","city":"国分寺市","address":"東京都国分寺市東恋ヶ窪2丁目5-8","lat":35.7064827,"lon":139.47639009},{"name":"国分寺市地域包括支援センター","province":"東京都","city":"国分寺市","address":"国分寺市泉町2-3-8","lat":35.696209,"lon":139.468216},{"name":"国分寺地域包括支援センターもとまち","province":"東京都","city":"国分寺市","address":"国分寺市東元町2-5-17さわやかプラザもとまち1階","lat":35.691803,"lon":139.480972},{"name":"国分寺地域包括支援センターこいがくぼ","province":"東京都","city":"国分寺市","address":"国分寺市西恋ヶ窪1-50-1にんじんホーム1階","lat":35.705936,"lon":139.467926},{"name":"国分寺地域包括支援センターほんだ","province":"東京都","city":"国分寺市","address":"国分寺市本多2-3-3商工会館3階","lat":35.70401,"lon":139.480164},{"name":"国分寺地域包括支援センターひかり","province":"東京都","city":"国分寺市","address":"国分寺市光町3-13-34国分寺ひかり診療所3階","lat":35.708466,"lon":139.444092},{"name":"国分寺地域包括支援センターひよし","province":"東京都","city":"国分寺市","address":"国分寺市日吉町4-32-6うれしのの里1階","lat":35.706627,"lon":139.458771},{"name":"国分寺地域包括支援センターなみき","province":"東京都","city":"国分寺市","address":"国分寺市並木町3-12-2至誠ホームミンナ1階","lat":35.71442,"lon":139.447311},{"name":"稲荷神社前","province":"東京都","city":"国分寺市","address":"東京都国分寺市光町1丁目23-2","lat":35.70626243,"lon":139.44249866},{"name":"本多公民館西","province":"東京都","city":"国分寺市","address":"東京都国分寺市本多1丁目6-3","lat":35.70516631,"lon":139.48188687},{"name":"国分寺駅南口第一","province":"東京都","city":"国分寺市","address":"東京都国分寺市南町3丁目17-3","lat":35.69936417,"lon":139.48084276},{"name":"国分寺駅南口第二","province":"東京都","city":"国分寺市","address":"東京都国分寺市南町3丁目18-1","lat":35.6991975,"lon":139.47988451},{"name":"国分寺市役所前","province":"東京都","city":"国分寺市","address":"東京都国分寺市戸倉1丁目5","lat":35.71022915,"lon":139.46235786},{"name":"国分寺第二小学校前","province":"東京都","city":"国分寺市","address":"東京都国分寺市光町3丁目1-1","lat":35.70790396,"lon":139.44431232},{"name":"国分寺第四小学校入口","province":"東京都","city":"国分寺市","address":"東京都国分寺市西元町2丁目17","lat":35.69559765,"lon":139.46844954},{"name":"国分寺南町一丁目","province":"東京都","city":"国分寺市","address":"東京都国分寺市南町2丁目1-37","lat":35.69877271,"lon":139.48630621},{"name":"東恋ヶ窪浄水所","province":"東京都","city":"国分寺市","address":"東京都国分寺市東恋ヶ窪2丁目5-8","lat":35.7064827,"lon":139.47639009},{"name":"国分寺市地域包括支援センター","province":"東京都","city":"国分寺市","address":"国分寺市泉町2-3-8","lat":35.696209,"lon":139.468216},{"name":"国分寺地域包括支援センターもとまち","province":"東京都","city":"国分寺市","address":"国分寺市東元町2-5-17さわやかプラザもとまち1階","lat":35.691803,"lon":139.480972},{"name":"国分寺地域包括支援センターこいがくぼ","province":"東京都","city":"国分寺市","address":"国分寺市西恋ヶ窪1-50-1にんじんホーム1階","lat":35.705936,"lon":139.467926},{"name":"国分寺地域包括支援センターほんだ","province":"東京都","city":"国分寺市","address":"国分寺市本多2-3-3商工会館3階","lat":35.70401,"lon":139.480164},{"name":"国分寺地域包括支援センターひかり","province":"東京都","city":"国分寺市","address":"国分寺市光町3-13-34国分寺ひかり診療所3階","lat":35.708466,"lon":139.444092},{"name":"国分寺地域包括支援センターひよし","province":"東京都","city":"国分寺市","address":"国分寺市日吉町4-32-6うれしのの里1階","lat":35.706627,"lon":139.458771},{"name":"国分寺地域包括支援センターなみき","province":"東京都","city":"国分寺市","address":"国分寺市並木町3-12-2至誠ホームミンナ1階","lat":35.71442,"lon":139.447311},{"name":"稲荷神社前","province":"東京都","city":"国分寺市","address":"東京都国分寺市光町1丁目23-2","lat":35.70626243,"lon":139.44249866},{"name":"本多公民館西","province":"東京都","city":"国分寺市","address":"東京都国分寺市本多1丁目6-3","lat":35.70516631,"lon":139.48188687},{"name":"国分寺駅南口第一","province":"東京都","city":"国分寺市","address":"東京都国分寺市南町3丁目17-3","lat":35.69936417,"lon":139.48084276},{"name":"国分寺駅南口第二","province":"東京都","city":"国分寺市","address":"東京都国分寺市南町3丁目18-1","lat":35.6991975,"lon":139.47988451},{"name":"国分寺市役所前","province":"東京都","city":"国分寺市","address":"東京都国分寺市戸倉1丁目5","lat":35.71022915,"lon":139.46235786},{"name":"国分寺第二小学校前","province":"東京都","city":"国分寺市","address":"東京都国分寺市光町3丁目1-1","lat":35.70790396,"lon":139.44431232},{"name":"国分寺第四小学校入口","province":"東京都","city":"国分寺市","address":"東京都国分寺市西元町2丁目17","lat":35.69559765,"lon":139.46844954},{"name":"国分寺南町一丁目","province":"東京都","city":"国分寺市","address":"東京都国分寺市南町2丁目1-37","lat":35.69877271,"lon":139.48630621},{"name":"東恋ヶ窪浄水所","province":"東京都","city":"国分寺市","address":"東京都国分寺市東恋ヶ窪2丁目5-8","lat":35.7064827,"lon":139.47639009},{"name":"国分寺市地域包括支援センター","province":"東京都","city":"国分寺市","address":"国分寺市泉町2-3-8","lat":35.696209,"lon":139.468216},{"name":"国分寺地域包括支援センターもとまち","province":"東京都","city":"国分寺市","address":"国分寺市東元町2-5-17さわやかプラザもとまち1階","lat":35.691803,"lon":139.480972},{"name":"国分寺地域包括支援センターこいがくぼ","province":"東京都","city":"国分寺市","address":"国分寺市西恋ヶ窪1-50-1にんじんホーム1階","lat":35.705936,"lon":139.467926},{"name":"国分寺地域包括支援センターほんだ","province":"東京都","city":"国分寺市","address":"国分寺市本多2-3-3商工会館3階","lat":35.70401,"lon":139.480164},{"name":"国分寺地域包括支援センターひかり","province":"東京都","city":"国分寺市","address":"国分寺市光町3-13-34国分寺ひかり診療所3階","lat":35.708466,"lon":139.444092},{"name":"国分寺地域包括支援センターひよし","province":"東京都","city":"国分寺市","address":"国分寺市日吉町4-32-6うれしのの里1階","lat":35.706627,"lon":139.458771},{"name":"国分寺地域包括支援センターなみき","province":"東京都","city":"国分寺市","address":"国分寺市並木町3-12-2至誠ホームミンナ1階","lat":35.71442,"lon":139.447311},{"name":"稲荷神社前","province":"東京都","city":"国分寺市","address":"東京都国分寺市光町1丁目23-2","lat":35.70626243,"lon":139.44249866},{"name":"本多公民館西","province":"東京都","city":"国分寺市","address":"東京都国分寺市本多1丁目6-3","lat":35.70516631,"lon":139.48188687},{"name":"国分寺駅南口第一","province":"東京都","city":"国分寺市","address":"東京都国分寺市南町3丁目17-3","lat":35.69936417,"lon":139.48084276},{"name":"国分寺駅南口第二","province":"東京都","city":"国分寺市","address":"東京都国分寺市南町3丁目18-1","lat":35.6991975,"lon":139.47988451},{"name":"国分寺市役所前","province":"東京都","city":"国分寺市","address":"東京都国分寺市戸倉1丁目5","lat":35.71022915,"lon":139.46235786},{"name":"国分寺第二小学校前","province":"東京都","city":"国分寺市","address":"東京都国分寺市光町3丁目1-1","lat":35.70790396,"lon":139.44431232},{"name":"国分寺第四小学校入口","province":"東京都","city":"国分寺市","address":"東京都国分寺市西元町2丁目17","lat":35.69559765,"lon":139.46844954},{"name":"国分寺南町一丁目","province":"東京都","city":"国分寺市","address":"東京都国分寺市南町2丁目1-37","lat":35.69877271,"lon":139.48630621},{"name":"東恋ヶ窪浄水所","province":"東京都","city":"国分寺市","address":"東京都国分寺市東恋ヶ窪2丁目5-8","lat":35.7064827,"lon":139.47639009},{"name":"国分寺市地域包括支援センター","province":"東京都","city":"国分寺市","address":"国分寺市泉町2-3-8","lat":35.696209,"lon":139.468216},{"name":"国分寺地域包括支援センターもとまち","province":"東京都","city":"国分寺市","address":"国分寺市東元町2-5-17さわやかプラザもとまち1階","lat":35.691803,"lon":139.480972},{"name":"国分寺地域包括支援センターこいがくぼ","province":"東京都","city":"国分寺市","address":"国分寺市西恋ヶ窪1-50-1にんじんホーム1階","lat":35.705936,"lon":139.467926},{"name":"国分寺地域包括支援センターほんだ","province":"東京都","city":"国分寺市","address":"国分寺市本多2-3-3商工会館3階","lat":35.70401,"lon":139.480164},{"name":"国分寺地域包括支援センターひかり","province":"東京都","city":"国分寺市","address":"国分寺市光町3-13-34国分寺ひかり診療所3階","lat":35.708466,"lon":139.444092},{"name":"国分寺地域包括支援センターひよし","province":"東京都","city":"国分寺市","address":"国分寺市日吉町4-32-6うれしのの里1階","lat":35.706627,"lon":139.458771},{"name":"国分寺地域包括支援センターなみき","province":"東京都","city":"国分寺市","address":"国分寺市並木町3-12-2至誠ホームミンナ1階","lat":35.71442,"lon":139.447311},{"name":"国分寺市地域包括支援センター","province":"東京都","city":"国分寺市","address":"国分寺市泉町2-3-8","lat":35.696209,"lon":139.468216},{"name":"国分寺地域包括支援センターもとまち","province":"東京都","city":"国分寺市","address":"国分寺市東元町2-5-17さわやかプラザもとまち1階","lat":35.691803,"lon":139.480972},{"name":"国分寺地域包括支援センターこいがくぼ","province":"東京都","city":"国分寺市","address":"国分寺市西恋ヶ窪1-50-1にんじんホーム1階","lat":35.705936,"lon":139.467926},{"name":"国分寺地域包括支援センターほんだ","province":"東京都","city":"国分寺市","address":"国分寺市本多2-3-3商工会館3階","lat":35.70401,"lon":139.480164},{"name":"国分寺地域包括支援センターひかり","province":"東京都","city":"国分寺市","address":"国分寺市光町3-13-34国分寺ひかり診療所3階","lat":35.708466,"lon":139.444092},{"name":"国分寺地域包括支援センターひよし","province":"東京都","city":"国分寺市","address":"国分寺市日吉町4-32-6うれしのの里1階","lat":35.706627,"lon":139.458771},{"name":"国分寺地域包括支援センターなみき","province":"東京都","city":"国分寺市","address":"国分寺市並木町3-12-2至誠ホームミンナ1階","lat":35.71442,"lon":139.447311},{"name":"国分寺市地域包括支援センター","province":"東京都","city":"国分寺市","address":"国分寺市泉町2-3-8","lat":35.696209,"lon":139.468216},{"name":"国分寺地域包括支援センターもとまち","province":"東京都","city":"国分寺市","address":"国分寺市東元町2-5-17さわやかプラザもとまち1階","lat":35.691803,"lon":139.480972},{"name":"国分寺地域包括支援センターこいがくぼ","province":"東京都","city":"国分寺市","address":"国分寺市西恋ヶ窪1-50-1にんじんホーム1階","lat":35.705936,"lon":139.467926},{"name":"国分寺地域包括支援センターほんだ","province":"東京都","city":"国分寺市","address":"国分寺市本多2-3-3商工会館3階","lat":35.70401,"lon":139.480164},{"name":"国分寺地域包括支援センターひかり","province":"東京都","city":"国分寺市","address":"国分寺市光町3-13-34国分寺ひかり診療所3階","lat":35.708466,"lon":139.444092},{"name":"国分寺地域包括支援センターひよし","province":"東京都","city":"国分寺市","address":"国分寺市日吉町4-32-6うれしのの里1階","lat":35.706627,"lon":139.458771},{"name":"国分寺地域包括支援センターなみき","province":"東京都","city":"国分寺市","address":"国分寺市並木町3-12-2至誠ホームミンナ1階","lat":35.71442,"lon":139.447311},{"name":"国分寺市地域包括支援センター","province":"東京都","city":"国分寺市","address":"国分寺市泉町2-3-8","lat":35.696209,"lon":139.468216},{"name":"国分寺地域包括支援センターもとまち","province":"東京都","city":"国分寺市","address":"国分寺市東元町2-5-17さわやかプラザもとまち1階","lat":35.691803,"lon":139.480972},{"name":"国分寺地域包括支援センターこいがくぼ","province":"東京都","city":"国分寺市","address":"国分寺市西恋ヶ窪1-50-1にんじんホーム1階","lat":35.705936,"lon":139.467926},{"name":"国分寺地域包括支援センターほんだ","province":"東京都","city":"国分寺市","address":"国分寺市本多2-3-3商工会館3階","lat":35.70401,"lon":139.480164},{"name":"国分寺地域包括支援センターひかり","province":"東京都","city":"国分寺市","address":"国分寺市光町3-13-34国分寺ひかり診療所3階","lat":35.708466,"lon":139.444092},{"name":"国分寺地域包括支援センターひよし","province":"東京都","city":"国分寺市","address":"国分寺市日吉町4-32-6うれしのの里1階","lat":35.706627,"lon":139.458771},{"name":"国分寺地域包括支援センターなみき","province":"東京都","city":"国分寺市","address":"国分寺市並木町3-12-2至誠ホームミンナ1階","lat":35.71442,"lon":139.447311},{"name":"国分寺市地域包括支援センター","province":"東京都","city":"国分寺市","address":"国分寺市泉町2-3-8","lat":35.696209,"lon":139.468216},{"name":"国分寺地域包括支援センターもとまち","province":"東京都","city":"国分寺市","address":"国分寺市東元町2-5-17さわやかプラザもとまち1階","lat":35.691803,"lon":139.480972},{"name":"国分寺地域包括支援センターこいがくぼ","province":"東京都","city":"国分寺市","address":"国分寺市西恋ヶ窪1-50-1にんじんホーム1階","lat":35.705936,"lon":139.467926},{"name":"国分寺地域包括支援センターほんだ","province":"東京都","city":"国分寺市","address":"国分寺市本多2-3-3商工会館3階","lat":35.70401,"lon":139.480164},{"name":"国分寺地域包括支援センターひかり","province":"東京都","city":"国分寺市","address":"国分寺市光町3-13-34国分寺ひかり診療所3階","lat":35.708466,"lon":139.444092},{"name":"国分寺地域包括支援センターひよし","province":"東京都","city":"国分寺市","address":"国分寺市日吉町4-32-6うれしのの里1階","lat":35.706627,"lon":139.458771},{"name":"国分寺地域包括支援センターなみき","province":"東京都","city":"国分寺市","address":"国分寺市並木町3-12-2至誠ホームミンナ1階","lat":35.71442,"lon":139.447311},{"name":"国分寺市地域包括支援センター","province":"東京都","city":"国分寺市","address":"国分寺市泉町2-3-8","lat":35.696209,"lon":139.468216},{"name":"国分寺地域包括支援センターもとまち","province":"東京都","city":"国分寺市","address":"国分寺市東元町2-5-17さわやかプラザもとまち1階","lat":35.691803,"lon":139.480972},{"name":"国分寺地域包括支援センターこいがくぼ","province":"東京都","city":"国分寺市","address":"国分寺市西恋ヶ窪1-50-1にんじんホーム1階","lat":35.705936,"lon":139.467926},{"name":"国分寺地域包括支援センターほんだ","province":"東京都","city":"国分寺市","address":"国分寺市本多2-3-3商工会館3階","lat":35.70401,"lon":139.480164},{"name":"国分寺地域包括支援センターひかり","province":"東京都","city":"国分寺市","address":"国分寺市光町3-13-34国分寺ひかり診療所3階","lat":35.708466,"lon":139.444092},{"name":"国分寺地域包括支援センターひよし","province":"東京都","city":"国分寺市","address":"国分寺市日吉町4-32-6うれしのの里1階","lat":35.706627,"lon":139.458771},{"name":"国分寺地域包括支援センターなみき","province":"東京都","city":"国分寺市","address":"国分寺市並木町3-12-2至誠ホームミンナ1階","lat":35.71442,"lon":139.447311},{"name":"国分寺市地域包括支援センター","province":"東京都","city":"国分寺市","address":"国分寺市泉町2-3-8","lat":35.696209,"lon":139.468216},{"name":"国分寺地域包括支援センターもとまち","province":"東京都","city":"国分寺市","address":"国分寺市東元町2-5-17さわやかプラザもとまち1階","lat":35.691803,"lon":139.480972},{"name":"国分寺地域包括支援センターこいがくぼ","province":"東京都","city":"国分寺市","address":"国分寺市西恋ヶ窪1-50-1にんじんホーム1階","lat":35.705936,"lon":139.467926},{"name":"国分寺地域包括支援センターほんだ","province":"東京都","city":"国分寺市","address":"国分寺市本多2-3-3商工会館3階","lat":35.70401,"lon":139.480164},{"name":"国分寺地域包括支援センターひかり","province":"東京都","city":"国分寺市","address":"国分寺市光町3-13-34国分寺ひかり診療所3階","lat":35.708466,"lon":139.444092},{"name":"国分寺地域包括支援センターひよし","province":"東京都","city":"国分寺市","address":"国分寺市日吉町4-32-6うれしのの里1階","lat":35.706627,"lon":139.458771},{"name":"国分寺地域包括支援センターなみき","province":"東京都","city":"国分寺市","address":"国分寺市並木町3-12-2至誠ホームミンナ1階","lat":35.71442,"lon":139.447311},{"name":"国分寺市地域包括支援センター","province":"東京都","city":"国分寺市","address":"国分寺市泉町2-3-8","lat":35.696209,"lon":139.468216},{"name":"国分寺地域包括支援センターもとまち","province":"東京都","city":"国分寺市","address":"国分寺市東元町2-5-17さわやかプラザもとまち1階","lat":35.691803,"lon":139.480972},{"name":"国分寺地域包括支援センターこいがくぼ","province":"東京都","city":"国分寺市","address":"国分寺市西恋ヶ窪1-50-1にんじんホーム1階","lat":35.705936,"lon":139.467926},{"name":"国分寺地域包括支援センターほんだ","province":"東京都","city":"国分寺市","address":"国分寺市本多2-3-3商工会館3階","lat":35.70401,"lon":139.480164},{"name":"国分寺地域包括支援センターひかり","province":"東京都","city":"国分寺市","address":"国分寺市光町3-13-34国分寺ひかり診療所3階","lat":35.708466,"lon":139.444092},{"name":"国分寺地域包括支援センターひよし","province":"東京都","city":"国分寺市","address":"国分寺市日吉町4-32-6うれしのの里1階","lat":35.706627,"lon":139.458771},{"name":"国分寺地域包括支援センターなみき","province":"東京都","city":"国分寺市","address":"国分寺市並木町3-12-2至誠ホームミンナ1階","lat":35.71442,"lon":139.447311},{"name":"国分寺市地域包括支援センター","province":"東京都","city":"国分寺市","address":"国分寺市泉町2-3-8","lat":35.696209,"lon":139.468216},{"name":"国分寺地域包括支援センターもとまち","province":"東京都","city":"国分寺市","address":"国分寺市東元町2-5-17さわやかプラザもとまち1階","lat":35.691803,"lon":139.480972},{"name":"国分寺地域包括支援センターこいがくぼ","province":"東京都","city":"国分寺市","address":"国分寺市西恋ヶ窪1-50-1にんじんホーム1階","lat":35.705936,"lon":139.467926},{"name":"国分寺地域包括支援センターほんだ","province":"東京都","city":"国分寺市","address":"国分寺市本多2-3-3商工会館3階","lat":35.70401,"lon":139.480164},{"name":"国分寺地域包括支援センターひかり","province":"東京都","city":"国分寺市","address":"国分寺市光町3-13-34国分寺ひかり診療所3階","lat":35.708466,"lon":139.444092},{"name":"国分寺地域包括支援センターひよし","province":"東京都","city":"国分寺市","address":"国分寺市日吉町4-32-6うれしのの里1階","lat":35.706627,"lon":139.458771},{"name":"国分寺地域包括支援センターなみき","province":"東京都","city":"国分寺市","address":"国分寺市並木町3-12-2至誠ホームミンナ1階","lat":35.71442,"lon":139.447311},{"name":"国分寺市地域包括支援センター","province":"東京都","city":"国分寺市","address":"国分寺市泉町2-3-8","lat":35.696209,"lon":139.468216},{"name":"国分寺地域包括支援センターもとまち","province":"東京都","city":"国分寺市","address":"国分寺市東元町2-5-17さわやかプラザもとまち1階","lat":35.691803,"lon":139.480972},{"name":"国分寺地域包括支援センターこいがくぼ","province":"東京都","city":"国分寺市","address":"国分寺市西恋ヶ窪1-50-1にんじんホーム1階","lat":35.705936,"lon":139.467926},{"name":"国分寺地域包括支援センターほんだ","province":"東京都","city":"国分寺市","address":"国分寺市本多2-3-3商工会館3階","lat":35.70401,"lon":139.480164},{"name":"国分寺地域包括支援センターひかり","province":"東京都","city":"国分寺市","address":"国分寺市光町3-13-34国分寺ひかり診療所3階","lat":35.708466,"lon":139.444092},{"name":"国分寺地域包括支援センターひよし","province":"東京都","city":"国分寺市","address":"国分寺市日吉町4-32-6うれしのの里1階","lat":35.706627,"lon":139.458771},{"name":"国分寺地域包括支援センターなみき","province":"東京都","city":"国分寺市","address":"国分寺市並木町3-12-2至誠ホームミンナ1階","lat":35.71442,"lon":139.447311},{"name":"国分寺市地域包括支援センター","province":"東京都","city":"国分寺市","address":"国分寺市泉町2-3-8","lat":35.696209,"lon":139.468216},{"name":"国分寺地域包括支援センターもとまち","province":"東京都","city":"国分寺市","address":"国分寺市東元町2-5-17さわやかプラザもとまち1階","lat":35.691803,"lon":139.480972},{"name":"国分寺地域包括支援センターこいがくぼ","province":"東京都","city":"国分寺市","address":"国分寺市西恋ヶ窪1-50-1にんじんホーム1階","lat":35.705936,"lon":139.467926},{"name":"国分寺地域包括支援センターほんだ","province":"東京都","city":"国分寺市","address":"国分寺市本多2-3-3商工会館3階","lat":35.70401,"lon":139.480164},{"name":"国分寺地域包括支援センターひかり","province":"東京都","city":"国分寺市","address":"国分寺市光町3-13-34国分寺ひかり診療所3階","lat":35.708466,"lon":139.444092},{"name":"国分寺地域包括支援センターひよし","province":"東京都","city":"国分寺市","address":"国分寺市日吉町4-32-6うれしのの里1階","lat":35.706627,"lon":139.458771},{"name":"国分寺地域包括支援センターなみき","province":"東京都","city":"国分寺市","address":"国分寺市並木町3-12-2至誠ホームミンナ1階","lat":35.71442,"lon":139.447311},{"name":"国分寺市地域包括支援センター","province":"東京都","city":"国分寺市","address":"国分寺市泉町2-3-8","lat":35.696209,"lon":139.468216},{"name":"国分寺地域包括支援センターもとまち","province":"東京都","city":"国分寺市","address":"国分寺市東元町2-5-17さわやかプラザもとまち1階","lat":35.691803,"lon":139.480972},{"name":"国分寺地域包括支援センターこいがくぼ","province":"東京都","city":"国分寺市","address":"国分寺市西恋ヶ窪1-50-1にんじんホーム1階","lat":35.705936,"lon":139.467926},{"name":"国分寺地域包括支援センターほんだ","province":"東京都","city":"国分寺市","address":"国分寺市本多2-3-3商工会館3階","lat":35.70401,"lon":139.480164},{"name":"国分寺地域包括支援センターひかり","province":"東京都","city":"国分寺市","address":"国分寺市光町3-13-34国分寺ひかり診療所3階","lat":35.708466,"lon":139.444092},{"name":"国分寺地域包括支援センターひよし","province":"東京都","city":"国分寺市","address":"国分寺市日吉町4-32-6うれしのの里1階","lat":35.706627,"lon":139.458771},{"name":"国分寺地域包括支援センターなみき","province":"東京都","city":"国分寺市","address":"国分寺市並木町3-12-2至誠ホームミンナ1階","lat":35.71442,"lon":139.447311},{"name":"国分寺市地域包括支援センター","province":"東京都","city":"国分寺市","address":"国分寺市泉町2-3-8","lat":35.696209,"lon":139.468216},{"name":"国分寺地域包括支援センターもとまち","province":"東京都","city":"国分寺市","address":"国分寺市東元町2-5-17さわやかプラザもとまち1階","lat":35.691803,"lon":139.480972},{"name":"国分寺地域包括支援センターこいがくぼ","province":"東京都","city":"国分寺市","address":"国分寺市西恋ヶ窪1-50-1にんじんホーム1階","lat":35.705936,"lon":139.467926},{"name":"国分寺地域包括支援センターほんだ","province":"東京都","city":"国分寺市","address":"国分寺市本多2-3-3商工会館3階","lat":35.70401,"lon":139.480164},{"name":"国分寺地域包括支援センターひかり","province":"東京都","city":"国分寺市","address":"国分寺市光町3-13-34国分寺ひかり診療所3階","lat":35.708466,"lon":139.444092},{"name":"国分寺地域包括支援センターひよし","province":"東京都","city":"国分寺市","address":"国分寺市日吉町4-32-6うれしのの里1階","lat":35.706627,"lon":139.458771},{"name":"国分寺地域包括支援センターなみき","province":"東京都","city":"国分寺市","address":"国分寺市並木町3-12-2至誠ホームミンナ1階","lat":35.71442,"lon":139.447311}]}