{"keyword":"自転車","data":[{"name":"国分寺駅南口自転車駐車場","province":"東京都","city":"国分寺市","address":"東京都国分寺市南町3丁目22-17","lat":35.69951967,"lon":139.47874572},{"name":"国分寺駅南口原動機付自転車駐車場","province":"東京都","city":"国分寺市","address":"東京都国分寺市南町3丁目9","lat":35.69781714,"lon":139.48090671},{"name":"殿ヶ谷戸庭園西自転車駐車場","province":"東京都","city":"国分寺市","address":"東京都国分寺市南町2丁目16","lat":35.69784215,"lon":139.48170941},{"name":"アットパーク泉町二丁目自転車等駐車場","province":"東京都","city":"国分寺市","address":"東京都国分寺市泉町2丁目9-2","lat":35.6994083,"lon":139.46716617},{"name":"アットパーク国立駅北口駐輪場","province":"東京都","city":"国分寺市","address":"東京都国分寺市光町1丁目40-2","lat":35.70095209,"lon":139.44718731},{"name":"西武スマイルパーク恋ヶ窪駅第２駐輪場","province":"東京都","city":"国分寺市","address":"東京都国分寺市戸倉1丁目1-1","lat":35.71085134,"lon":139.46420767},{"name":"西武スマイルパーク恋ヶ窪駅第４駐輪場","province":"東京都","city":"国分寺市","address":"東京都国分寺市東戸倉2丁目11-10","lat":35.71113464,"lon":139.4643132},{"name":"SOCP本町4丁目","province":"東京都","city":"国分寺市","address":"東京都国分寺市本町4丁目13-12","lat":35.70120559,"lon":139.47916227}]}