{"keyword":"認可","data":[{"name":"まなびの森保育園国分寺","province":"東京都","city":"国分寺市","address":"国分寺市光町2-5-1","lat":35.7009,"lon":139.44336},{"name":"千春第二保育園","province":"東京都","city":"国分寺市","address":"国分寺市戸倉1-22-2","lat":35.71409,"lon":139.46019},{"name":"えがおの森保育園","province":"東京都","city":"国分寺市","address":"国分寺市西恋ヶ窪4-17-18","lat":35.70849,"lon":139.46588},{"name":"明国保育園","province":"東京都","city":"国分寺市","address":"国分寺市東恋ヶ窪3-5-7","lat":35.70544,"lon":139.47315},{"name":"恋ヶ窪保育園","province":"東京都","city":"国分寺市","address":"国分寺市東恋ヶ窪2-613","lat":35.70804,"lon":139.47559},{"name":"こもれびの森保育園","province":"東京都","city":"国分寺市","address":"国分寺市東恋ヶ窪5-8-3","lat":35.70976,"lon":139.46558},{"name":"明美保育園","province":"東京都","city":"国分寺市","address":"国分寺市南町3-13-18","lat":35.69801,"lon":139.4796},{"name":"ナーサリースクール　クオーレにしこく","province":"東京都","city":"国分寺市","address":"国分寺市泉町3-37-23マーベラスパレス1階","lat":35.69934,"lon":139.46343},{"name":"たんぽぽ保育所西国分寺園","province":"東京都","city":"国分寺市","address":"国分寺市泉町3-37-23マーベラスパレス2階","lat":35.69934,"lon":139.46343},{"name":"やなぎ保育園","province":"東京都","city":"国分寺市","address":"国分寺市日吉町1-46-7","lat":35.70112,"lon":139.45606},{"name":"キッズガーデン国立駅前","province":"東京都","city":"国分寺市","address":"国分寺市光町1-43-17","lat":35.70099,"lon":139.44547}]}