{"keyword":"館","data":[{"name":"しんまち児童館","province":"東京都","city":"国分寺市","address":"国分寺市新町1-7-2","lat":35.713312,"lon":139.454036},{"name":"本多児童館","province":"東京都","city":"国分寺市","address":"国分寺市本多1-7-1","lat":35.705355,"lon":139.482376},{"name":"もとまち児童館","province":"東京都","city":"国分寺市","address":"国分寺市東元町2-5-19","lat":35.691718,"lon":139.481274},{"name":"いずみ児童館","province":"東京都","city":"国分寺市","address":"国分寺市泉町3-29-14","lat":35.698297,"lon":139.464858},{"name":"ひかり児童館","province":"東京都","city":"国分寺市","address":"国分寺市光町3-13-19","lat":35.707818,"lon":139.44319},{"name":"にしまち児童館","province":"東京都","city":"国分寺市","address":"国分寺市西町3-22-1","lat":35.710787,"lon":139.434213},{"name":"光図書館","province":"東京都","city":"国分寺市","address":"東京都国分寺市光町3-13-19","lat":35.70797479,"lon":139.4431685},{"name":"並木図書館","province":"東京都","city":"国分寺市","address":"東京都国分寺市並木町2-12-3","lat":35.71609957,"lon":139.4529894},{"name":"恋ケ窪図書館","province":"東京都","city":"国分寺市","address":"東京都国分寺市西恋ヶ窪4-12-8","lat":35.70789636,"lon":139.46425},{"name":"本多図書館","province":"東京都","city":"国分寺市","address":"東京都国分寺市本多1-7-1","lat":35.70549468,"lon":139.4821719},{"name":"本多図書館駅前分館","province":"東京都","city":"国分寺市","address":"東京都国分寺市本町4-1-9本町クリスタルビル4階","lat":35.7008298,"lon":139.4779507},{"name":"もとまち図書館","province":"東京都","city":"国分寺市","address":"東京都国分寺市東元町2-3-13","lat":35.6924342,"lon":139.48338},{"name":"しんまち児童館","province":"東京都","city":"国分寺市","address":"国分寺市新町1-7-2","lat":35.7134,"lon":139.45372},{"name":"本多児童館","province":"東京都","city":"国分寺市","address":"国分寺市本多1-7-1","lat":35.7055,"lon":139.48257},{"name":"もとまち児童館","province":"東京都","city":"国分寺市","address":"国分寺市東元町2-5-19","lat":35.69157,"lon":139.48183},{"name":"いずみ児童館","province":"東京都","city":"国分寺市","address":"国分寺市泉町3-29-14","lat":35.69825,"lon":139.46432},{"name":"ひかり児童館","province":"東京都","city":"国分寺市","address":"国分寺市光町3-13-19","lat":35.708,"lon":139.44296},{"name":"にしまち児童館","province":"東京都","city":"国分寺市","address":"国分寺市西町3-22-1","lat":35.71073,"lon":139.43433},{"name":"いずみ児童館","province":"東京都","city":"国分寺市","address":"国分寺市泉町3-29-14","lat":35.69825,"lon":139.46433},{"name":"＊?並木図書館","province":"東京都","city":"国分寺市","address":"国分寺市並木町2-12-3","lat":35.715824,"lon":139.453219},{"name":"＊?恋ケ窪図書館","province":"東京都","city":"国分寺市","address":"国分寺市西恋ケ窪4-12-8","lat":35.707761,"lon":139.464256},{"name":"＊?本多図書館","province":"東京都","city":"国分寺市","address":"国分寺市本多1-7-1","lat":35.705288,"lon":139.482492},{"name":"＊?もとまち図書館","province":"東京都","city":"国分寺市","address":"国分寺市東元町2-3-13","lat":35.692093,"lon":139.48307},{"name":"＊?光図書館","province":"東京都","city":"国分寺市","address":"国分寺市光町3-13-19","lat":35.70781,"lon":139.443193},{"name":"＊?本多図書館駅前分館","province":"東京都","city":"国分寺市","address":"国分寺市本町4-1-9国分寺本町クリスタルビル4階","lat":35.700596,"lon":139.478077}]}