{"keyword":"支払","data":[{"name":"小竹地域集会所","province":"福岡県","city":"鞍手郡小竹町","address":"小竹町1-63-2","lat":35.73880803,"lon":139.673283},{"name":"小竹地域集会所","province":"福岡県","city":"鞍手郡小竹町","address":"小竹町1-63-2","lat":35.73880803,"lon":139.673283},{"name":"小竹地域集会所","province":"福岡県","city":"鞍手郡小竹町","address":"小竹町1-63-2","lat":35.73880803,"lon":139.673283},{"name":"小竹地域集会所","province":"福岡県","city":"鞍手郡小竹町","address":"小竹町1-63-2","lat":35.73880803,"lon":139.673283},{"name":"小竹地域集会所","province":"福岡県","city":"鞍手郡小竹町","address":"小竹町1-63-2","lat":35.73880803,"lon":139.673283},{"name":"小竹地域集会所","province":"福岡県","city":"鞍手郡小竹町","address":"小竹町1-63-2","lat":35.73880803,"lon":139.673283},{"name":"小竹地域集会所","province":"福岡県","city":"鞍手郡小竹町","address":"小竹町1-63-2","lat":35.73880803,"lon":139.673283},{"name":"小竹地域集会所","province":"福岡県","city":"鞍手郡小竹町","address":"小竹町1-63-2","lat":35.73880803,"lon":139.673283},{"name":"小竹地域集会所","province":"福岡県","city":"鞍手郡小竹町","address":"小竹町1-63-2","lat":35.73880803,"lon":139.673283},{"name":"小竹地域集会所","province":"福岡県","city":"鞍手郡小竹町","address":"小竹町1-63-2","lat":35.73880803,"lon":139.673283},{"name":"小竹地域集会所","province":"福岡県","city":"鞍手郡小竹町","address":"小竹町1-63-2","lat":35.73880803,"lon":139.673283},{"name":"小竹地域集会所","province":"福岡県","city":"鞍手郡小竹町","address":"小竹町1-63-2","lat":35.73880803,"lon":139.673283},{"name":"小竹地域集会所","province":"福岡県","city":"鞍手郡小竹町","address":"小竹町1-63-2","lat":35.73880803,"lon":139.673283},{"name":"小竹地域集会所","province":"福岡県","city":"鞍手郡小竹町","address":"小竹町1-63-2","lat":35.73880803,"lon":139.673283},{"name":"小竹地域集会所","province":"福岡県","city":"鞍手郡小竹町","address":"小竹町1-63-2","lat":35.73880803,"lon":139.673283},{"name":"小竹地域集会所","province":"福岡県","city":"鞍手郡小竹町","address":"小竹町1-63-2","lat":35.73880803,"lon":139.673283},{"name":"小竹地域集会所","province":"福岡県","city":"鞍手郡小竹町","address":"小竹町1-63-2","lat":35.73880803,"lon":139.673283},{"name":"小竹地域集会所","province":"福岡県","city":"鞍手郡小竹町","address":"小竹町1-63-2","lat":35.73880803,"lon":139.673283},{"name":"小竹地域集会所","province":"福岡県","city":"鞍手郡小竹町","address":"小竹町1-63-2","lat":35.73880803,"lon":139.673283},{"name":"小竹地域集会所","province":"福岡県","city":"鞍手郡小竹町","address":"小竹町1-63-2","lat":35.73880803,"lon":139.673283},{"name":"小竹地域集会所","province":"福岡県","city":"鞍手郡小竹町","address":"小竹町1-63-2","lat":35.73880803,"lon":139.673283},{"name":"小竹地域集会所","province":"福岡県","city":"鞍手郡小竹町","address":"小竹町1-63-2","lat":35.73880803,"lon":139.673283},{"name":"小竹地域集会所","province":"福岡県","city":"鞍手郡小竹町","address":"小竹町1-63-2","lat":35.73880803,"lon":139.673283},{"name":"小竹地域集会所","province":"福岡県","city":"鞍手郡小竹町","address":"小竹町1-63-2","lat":35.73880803,"lon":139.673283},{"name":"小竹地域集会所","province":"福岡県","city":"鞍手郡小竹町","address":"小竹町1-63-2","lat":35.73880803,"lon":139.673283},{"name":"小竹地域集会所","province":"福岡県","city":"鞍手郡小竹町","address":"小竹町1-63-2","lat":35.73880803,"lon":139.673283},{"name":"小竹地域集会所","province":"福岡県","city":"鞍手郡小竹町","address":"小竹町1-63-2","lat":35.73880803,"lon":139.673283},{"name":"小竹地域集会所","province":"福岡県","city":"鞍手郡小竹町","address":"小竹町1-63-2","lat":35.73880803,"lon":139.673283},{"name":"小竹地域集会所","province":"福岡県","city":"鞍手郡小竹町","address":"小竹町1-63-2","lat":35.73880803,"lon":139.673283},{"name":"小竹地域集会所","province":"福岡県","city":"鞍手郡小竹町","address":"小竹町1-63-2","lat":35.73880803,"lon":139.673283},{"name":"小竹地域集会所","province":"福岡県","city":"鞍手郡小竹町","address":"小竹町1-63-2","lat":35.73880803,"lon":139.673283},{"name":"小竹地域集会所","province":"福岡県","city":"鞍手郡小竹町","address":"小竹町1-63-2","lat":35.73880803,"lon":139.673283},{"name":"小竹地域集会所","province":"福岡県","city":"鞍手郡小竹町","address":"小竹町1-63-2","lat":35.73880803,"lon":139.673283},{"name":"小竹地域集会所","province":"福岡県","city":"鞍手郡小竹町","address":"小竹町1-63-2","lat":35.73880803,"lon":139.673283},{"name":"小竹地域集会所","province":"福岡県","city":"鞍手郡小竹町","address":"小竹町1-63-2","lat":35.73880803,"lon":139.673283},{"name":"小竹地域集会所","province":"福岡県","city":"鞍手郡小竹町","address":"小竹町1-63-2","lat":35.73880803,"lon":139.673283},{"name":"小竹地域集会所","province":"福岡県","city":"鞍手郡小竹町","address":"小竹町1-63-2","lat":35.73880803,"lon":139.673283},{"name":"小竹地域集会所","province":"福岡県","city":"鞍手郡小竹町","address":"小竹町1-63-2","lat":35.73880803,"lon":139.673283},{"name":"小竹地域集会所","province":"福岡県","city":"鞍手郡小竹町","address":"小竹町1-63-2","lat":35.73880803,"lon":139.673283},{"name":"小竹地域集会所","province":"福岡県","city":"鞍手郡小竹町","address":"小竹町1-63-2","lat":35.73880803,"lon":139.673283},{"name":"小竹地域集会所","province":"福岡県","city":"鞍手郡小竹町","address":"小竹町1-63-2","lat":35.73880803,"lon":139.673283},{"name":"小竹地域集会所","province":"福岡県","city":"鞍手郡小竹町","address":"小竹町1-63-2","lat":35.73880803,"lon":139.673283},{"name":"小竹地域集会所","province":"福岡県","city":"鞍手郡小竹町","address":"小竹町1-63-2","lat":35.73880803,"lon":139.673283}]}