{"keyword":"機関","data":[{"name":"医療法人財団　\nきよせ旭が丘記念病院","province":"東京都","city":"清瀬市","address":"東京都清瀬市旭が丘1丁目619-15","lat":35.79037703,"lon":139.5346351},{"name":"医療法人社団雅会　\n山本病院","province":"東京都","city":"清瀬市","address":"東京都清瀬市野塩1丁目328","lat":35.77823335,"lon":139.49896337},{"name":"医療法人社団弘善会　\n清瀬富士見病院","province":"東京都","city":"清瀬市","address":"東京都清瀬市中清戸5丁目27-3","lat":35.77771483,"lon":139.53660703},{"name":"公益財団法人結核予防会　\n複十字病院","province":"東京都","city":"清瀬市","address":"東京都清瀬市松山3丁目1-24","lat":35.77103731,"lon":139.51150403},{"name":"救世軍清瀬病院","province":"東京都","city":"清瀬市","address":"東京都清瀬市竹丘1丁目17-9","lat":35.77023453,"lon":139.50724888},{"name":"医療法人財団保養会　\n竹丘病院","province":"東京都","city":"清瀬市","address":"東京都清瀬市竹丘2丁目3-7","lat":35.7661406,"lon":139.50834053},{"name":"独立行政法人国立病院機構　\n東京病院","province":"東京都","city":"清瀬市","address":"東京都清瀬市竹丘3丁目1-1","lat":35.76696263,"lon":139.5045714},{"name":"社会福祉法人上宮会　\n清瀬リハビリテーション病院","province":"東京都","city":"清瀬市","address":"東京都清瀬市竹丘3丁目3-33","lat":35.76795969,"lon":139.50263822},{"name":"医療法人社団雄心会　\n山﨑病院","province":"東京都","city":"清瀬市","address":"東京都清瀬市竹丘3丁目4-25","lat":35.76841794,"lon":139.50175772},{"name":"社会福祉法人信愛報恩会　\n信愛病院","province":"東京都","city":"清瀬市","address":"東京都清瀬市梅園2丁目5-9","lat":35.7738201,"lon":139.50315196},{"name":"ベトレヘムの園病院","province":"東京都","city":"清瀬市","address":"東京都清瀬市梅園3丁目14-72","lat":35.7720675,"lon":139.5018521},{"name":"医療法人社団岸清会　清瀬下宿中央診療所","province":"東京都","city":"清瀬市","address":"東京都清瀬市下宿2丁目391-7","lat":35.79537084,"lon":139.53518786},{"name":"酒田クリニック","province":"東京都","city":"清瀬市","address":"東京都清瀬市野塩5丁目280-2","lat":35.77630852,"lon":139.49658861},{"name":"医療法人視心会　清瀬えのき眼科","province":"東京都","city":"清瀬市","address":"東京都清瀬市下清戸5丁目858-2","lat":35.78591379,"lon":139.54010693},{"name":"北多摩クリニック","province":"東京都","city":"清瀬市","address":"東京都清瀬市上清戸2丁目1-41","lat":35.77981988,"lon":139.52549145},{"name":"キヨセ北口皮フ科","province":"東京都","city":"清瀬市","address":"東京都清瀬市元町1丁目1-10","lat":35.77243459,"lon":139.52160028},{"name":"とみまつ小児科循環器クリニック","province":"東京都","city":"清瀬市","address":"東京都清瀬市元町1丁目1-14","lat":35.77257626,"lon":139.5223391},{"name":"医療法人社団ホスピティウム聖十字会　中島医院","province":"東京都","city":"清瀬市","address":"東京都清瀬市元町1丁目3-45","lat":35.77257624,"lon":139.52140307},{"name":"医療法人社団　宇都宮レディースクリニック","province":"東京都","city":"清瀬市","address":"東京都清瀬市元町1丁目4-26","lat":35.77391217,"lon":139.52078923},{"name":"医療法人社団義英会　三浦整形外科クリニック","province":"東京都","city":"清瀬市","address":"東京都清瀬市元町1丁目4-26","lat":35.77391217,"lon":139.52078923},{"name":"医療法人社団華岡会　廣橋小児科・内科医院","province":"東京都","city":"清瀬市","address":"東京都清瀬市元町1丁目5-3","lat":35.77505645,"lon":139.52003928},{"name":"宇都宮小児科内科クリニック","province":"東京都","city":"清瀬市","address":"東京都清瀬市元町1丁目8-2","lat":35.77271784,"lon":139.51957269},{"name":"つしま眼科","province":"東京都","city":"清瀬市","address":"東京都清瀬市元町1丁目8-19","lat":35.77361773,"lon":139.51971155},{"name":"清瀬皮フ科・形成外科クリニック","province":"東京都","city":"清瀬市","address":"東京都清瀬市元町1丁目8-19","lat":35.77361773,"lon":139.51971155},{"name":"医療法人社団けやき会　はたの耳鼻咽喉科","province":"東京都","city":"清瀬市","address":"東京都清瀬市元町1丁目8-19","lat":35.77361773,"lon":139.51971155},{"name":"清瀬元町しいのクリニック","province":"東京都","city":"清瀬市","address":"東京都清瀬市元町1丁目8-19","lat":35.77361773,"lon":139.51971155},{"name":"医療法人社団順洋会　武蔵野総合クリニック","province":"東京都","city":"清瀬市","address":"東京都清瀬市元町1丁目8-30","lat":35.77363441,"lon":139.51994208},{"name":"医療法人社団　ふじ井内科クリニック","province":"東京都","city":"清瀬市","address":"東京都清瀬市元町1丁目11-14","lat":35.77370657,"lon":139.51778118},{"name":"清瀬診療所","province":"東京都","city":"清瀬市","address":"東京都清瀬市元町1丁目13-27","lat":35.77406486,"lon":139.51806725},{"name":"医療法人社団レニア会　武谷ピニロピ記念　きよせの森コミュニティクリニック武谷眼科・風間内科","province":"東京都","city":"清瀬市","address":"東京都清瀬市元町2丁目2-20","lat":35.77589797,"lon":139.51795613},{"name":"杉本医院","province":"東京都","city":"清瀬市","address":"東京都清瀬市元町2丁目7-1","lat":35.77472305,"lon":139.51520086},{"name":"医療法人社団秀清会　清瀬ささき眼科クリニック","province":"東京都","city":"清瀬市","address":"東京都清瀬市松山1丁目2-23","lat":35.7715208,"lon":139.52105311},{"name":"清瀬内科クリニック","province":"東京都","city":"清瀬市","address":"東京都清瀬市松山1丁目2-26","lat":35.77175132,"lon":139.52036152},{"name":"医療法人社団功和会　平野クリニック","province":"東京都","city":"清瀬市","address":"東京都清瀬市松山1丁目4-19","lat":35.77114861,"lon":139.52048373},{"name":"医療法人社団弘善会　ふじみクリニック","province":"東京都","city":"清瀬市","address":"東京都清瀬市松山1丁目5-5","lat":35.77109583,"lon":139.51996434},{"name":"医療法人社団三一会　清瀬南口眼科医院","province":"東京都","city":"清瀬市","address":"東京都清瀬市松山1丁目11-12","lat":35.77151798,"lon":139.51922274},{"name":"井上内科クリニック","province":"東京都","city":"清瀬市","address":"東京都清瀬市松山1丁目11-21","lat":35.77188181,"lon":139.51859223},{"name":"医療法人社団慧悠会　吉森クリニック","province":"東京都","city":"清瀬市","address":"東京都清瀬市松山1丁目12-14","lat":35.77175403,"lon":139.51785897},{"name":"医療法人社団広福会　岩田皮膚科クリニック","province":"東京都","city":"清瀬市","address":"東京都清瀬市松山1丁目27-4","lat":35.77049587,"lon":139.51843116},{"name":"医療法人社団　大塚耳鼻咽喉科医院","province":"東京都","city":"清瀬市","address":"東京都清瀬市松山1丁目40-21","lat":35.76820443,"lon":139.51667859},{"name":"宮本医院","province":"東京都","city":"清瀬市","address":"東京都清瀬市松山1丁目42-6","lat":35.76775726,"lon":139.51640363},{"name":"野島整形外科内科","province":"東京都","city":"清瀬市","address":"東京都清瀬市松山2丁目1-3","lat":35.770032,"lon":139.51679799},{"name":"医療法人社団幾瀬会　花園医院","province":"東京都","city":"清瀬市","address":"東京都清瀬市松山3丁目5-14","lat":35.76924873,"lon":139.51538147},{"name":"きこころ皮フ科","province":"東京都","city":"清瀬市","address":"東京都清瀬市竹丘1丁目10-6","lat":35.76637958,"lon":139.51331784},{"name":"川辺内科クリニック","province":"東京都","city":"清瀬市","address":"東京都清瀬市竹丘2丁目1-3","lat":35.76696829,"lon":139.50888769},{"name":"医療法人社団誠徹会　清瀬博済堂クリニック","province":"東京都","city":"清瀬市","address":"東京都清瀬市竹丘2丁目15-15","lat":35.76284656,"lon":139.50836837},{"name":"緑蔭通りクリニック","province":"東京都","city":"清瀬市","address":"東京都清瀬市竹丘3丁目10-31","lat":35.76544609,"lon":139.50245218},{"name":"清瀬デンタルクリニック","province":"東京都","city":"清瀬市","address":"東京都清瀬市下宿1丁目124-1","lat":35.79617072,"lon":139.53447401},{"name":"筒井歯科医院","province":"東京都","city":"清瀬市","address":"東京都清瀬市中里3丁目77-12","lat":35.78269721,"lon":139.52220016},{"name":"医療法人社団新生会　笹原歯科医院","province":"東京都","city":"清瀬市","address":"東京都清瀬市中里5丁目2-8","lat":35.7908047,"lon":139.53184649},{"name":"さわだ歯科クリニック","province":"東京都","city":"清瀬市","address":"東京都清瀬市野塩1丁目340-25","lat":35.77833336,"lon":139.50001328},{"name":"天川歯科医院","province":"東京都","city":"清瀬市","address":"東京都清瀬市野塩1丁目356","lat":35.77988599,"lon":139.50225473},{"name":"松村歯科医院","province":"東京都","city":"清瀬市","address":"東京都清瀬市野塩3丁目12-5","lat":35.77755868,"lon":139.50979022},{"name":"中山歯科医院","province":"東京都","city":"清瀬市","address":"東京都清瀬市野塩4丁目223-1","lat":35.77463663,"lon":139.50182984},{"name":"グリーンタウン歯科","province":"東京都","city":"清瀬市","address":"東京都清瀬市下清戸1丁目25-8","lat":35.77868138,"lon":139.53669869},{"name":"水上歯科医院","province":"東京都","city":"清瀬市","address":"東京都清瀬市中清戸3丁目328","lat":35.78008383,"lon":139.52901607},{"name":"けやき歯科クリニック","province":"東京都","city":"清瀬市","address":"東京都清瀬市上清戸1丁目9-1","lat":35.77533699,"lon":139.52052256},{"name":"なごみ歯科","province":"東京都","city":"清瀬市","address":"東京都清瀬市上清戸1丁目13-42","lat":35.77536487,"lon":139.52534429},{"name":"清瀬休日歯科応急センター","province":"東京都","city":"清瀬市","address":"東京都清瀬市上清戸2丁目6-10","lat":35.77917819,"lon":139.52102248},{"name":"福田歯科医院","province":"東京都","city":"清瀬市","address":"東京都清瀬市元町1丁目1-5","lat":35.77222906,"lon":139.52159472},{"name":"清瀬とく歯科クリニック","province":"東京都","city":"清瀬市","address":"東京都清瀬市元町1丁目3-38","lat":35.77315395,"lon":139.522028},{"name":"大西歯科クリニック","province":"東京都","city":"清瀬市","address":"東京都清瀬市元町1丁目4-15","lat":35.77415103,"lon":139.52051702},{"name":"かとうデンタルケアクリニック","province":"東京都","city":"清瀬市","address":"東京都清瀬市元町1丁目8-1","lat":35.77259286,"lon":139.51973656},{"name":"中川歯科医院","province":"東京都","city":"清瀬市","address":"東京都清瀬市元町1丁目8-2","lat":35.77271784,"lon":139.51957269},{"name":"五十嵐歯科医院","province":"東京都","city":"清瀬市","address":"東京都清瀬市元町1丁目8-23","lat":35.77420655,"lon":139.51957545},{"name":"医療法人社団敬愛会　岩崎歯科医院","province":"東京都","city":"清瀬市","address":"東京都清瀬市元町1丁目8-37","lat":35.77270952,"lon":139.5198421},{"name":"もとまちスマイル歯科","province":"東京都","city":"清瀬市","address":"東京都清瀬市元町1丁目13-29","lat":35.77379545,"lon":139.5180506},{"name":"本村歯科医院","province":"東京都","city":"清瀬市","address":"東京都清瀬市元町1丁目18-13","lat":35.77315383,"lon":139.51691737},{"name":"医療法人社団哲富会　小幡歯科クリニック","province":"東京都","city":"清瀬市","address":"東京都清瀬市松山1丁目2-23","lat":35.7715208,"lon":139.52105311},{"name":"信宅ビル歯科医院","province":"東京都","city":"清瀬市","address":"東京都清瀬市松山1丁目4-3","lat":35.77153189,"lon":139.52030042},{"name":"清瀬矯正歯科","province":"東京都","city":"清瀬市","address":"東京都清瀬市松山1丁目11-21","lat":35.77188181,"lon":139.51859223},{"name":"柳下歯科","province":"東京都","city":"清瀬市","address":"東京都清瀬市松山1丁目11-25","lat":35.77219565,"lon":139.51825337},{"name":"倉田歯科クリニック","province":"東京都","city":"清瀬市","address":"東京都清瀬市松山1丁目12-14","lat":35.77175403,"lon":139.51785897},{"name":"医療法人社団和気歯科クリニック","province":"東京都","city":"清瀬市","address":"東京都清瀬市松山1丁目13-3","lat":35.77134854,"lon":139.5183506},{"name":"松山デンタルクリニック","province":"東京都","city":"清瀬市","address":"東京都清瀬市松山1丁目14-5","lat":35.77107637,"lon":139.51883389},{"name":"河野歯科医院","province":"東京都","city":"清瀬市","address":"東京都清瀬市松山1丁目16-5","lat":35.7702681,"lon":139.51791732},{"name":"医療法人社団清桜会　清瀬さくらんぼ歯科","province":"東京都","city":"清瀬市","address":"東京都清瀬市松山1丁目25-1","lat":35.77037644,"lon":139.51832562},{"name":"医療法人社団新発意清瀬いんどう歯科","province":"東京都","city":"清瀬市","address":"東京都清瀬市松山2丁目1-7","lat":35.76944039,"lon":139.51655635},{"name":"キートス歯科医院","province":"東京都","city":"清瀬市","address":"東京都清瀬市松山2丁目8-24","lat":35.77293717,"lon":139.51565639},{"name":"島崎歯科医院","province":"東京都","city":"清瀬市","address":"東京都清瀬市竹丘2丁目3-39","lat":35.76490742,"lon":139.50814612},{"name":"畑歯科医院","province":"東京都","city":"清瀬市","address":"東京都清瀬市竹丘2丁目14-9","lat":35.76339932,"lon":139.51051816},{"name":"台東病院","province":"","city":"","address":"千束3-20-5","lat":35.72268226,"lon":139.7926267},{"name":"浅草病院","province":"","city":"","address":"今戸2-26-15","lat":35.72256174,"lon":139.8075724},{"name":"浅草寺病院","province":"","city":"","address":"浅草2-30-17","lat":35.7160044,"lon":139.796593},{"name":"上野病院","province":"","city":"","address":"東上野3-23-4","lat":35.71126455,"lon":139.7792147},{"name":"永寿総合病院","province":"","city":"","address":"東上野2-23-16","lat":35.70970472,"lon":139.7797747},{"name":"滝口外科胃腸科整形外科","province":"","city":"","address":"寿3-2-7","lat":35.70599481,"lon":139.7929004}]}