{"keyword":"滞在","data":[{"name":"品川第一区民集会所","province":"東京都","city":"品川区","address":"品川区北品川3丁目11番16号","lat":35.616673,"lon":139.740036},{"name":"大崎第一区民集会所","province":"東京都","city":"品川区","address":"品川区西五反田3丁目6番3号","lat":35.627795,"lon":139.716815},{"name":"大崎第二区民集会所","province":"東京都","city":"品川区","address":"品川区大崎2丁目9番4号","lat":35.616808,"lon":139.727724},{"name":"五反田文化センター","province":"東京都","city":"品川区","address":"品川区西五反田6丁目5番1号","lat":35.622538,"lon":139.716574},{"name":"きゅりあん（品川区立総合区民会館）","province":"東京都","city":"品川区","address":"品川区東大井5丁目18番1号","lat":35.606223,"lon":139.735889},{"name":"城南職業能力開発センター","province":"東京都","city":"品川区","address":"品川区東品川3丁目31番16号","lat":35.61204,"lon":139.749783},{"name":"小山台高等学校","province":"東京都","city":"品川区","address":"品川区小山3丁目3番32号","lat":35.621184,"lon":139.703525},{"name":"大崎高等学校","province":"東京都","city":"品川区","address":"品川区豊町2丁目1番7号","lat":35.609565,"lon":139.721284},{"name":"大井ふ頭中央海浜公園ホッケー競技場","province":"東京都","city":"品川区","address":"品川区八潮4丁目1番19号","lat":35.592387,"lon":139.75299}]}